---
header:
  stamp:
    sec: 5686
    nanosec: 883000000
  frame_id: odom
child_frame_id: base_footprint
pose:
  pose:
    position:
      x: -1.944995743203053
      y: -0.4999625793340228
      z: 0.008527377350986243
    orientation:
      x: 0.000049174759617589594
      y: 0.002868540453248511
      z: 0.0000719829821805266
      w: 0.9999958819295015
  covariance: [0.00001, 0, 0, 0, 0, 0, 0, 0.00001, 0, 0, 0, 0, 0, 0, 1000000000000, 0, 0, 0, 0, 0, 0, 1000000000000, 0, 0, 0, 0, 0, 0, 1000000000000, 0, 0, 0, 0, 0, 0, 0.001]
twist:
  twist:
    linear:
      x: 0.000001023672520594489
      y: -0.000000017272321489613284
      z: 0
    angular:
      x: 0
      y: 0
      z: -0.00000007649087174773811
  covariance: [0.00001, 0, 0, 0, 0, 0, 0, 0.00001, 0, 0, 0, 0, 0, 0, 1000000000000, 0, 0, 0, 0, 0, 0, 1000000000000, 0, 0, 0, 0, 0, 0, 1000000000000, 0, 0, 0, 0, 0, 0, 0.001]
---
header:
  stamp:
    sec: 5686
    nanosec: 917000000
  frame_id: odom
child_frame_id: base_footprint
pose:
  pose:
    position:
      x: -1.9449957579246557
      y: -0.49996257941405164
      z: 0.00852973815513517
    orientation:
      x: 0.00004917515484065801
      y: 0.0028677003390313377
      z: 0.00007198334260767651
      w: 0.9999958843390148
  covariance: [0.00001, 0, 0, 0, 0, 0, 0, 0.00001, 0, 0, 0, 0, 0, 0, 1000000000000, 0, 0, 0, 0, 0, 0, 1000000000000, 0, 0, 0, 0, 0, 0, 1000000000000, 0, 0, 0, 0, 0, 0, 0.001]
twist:
  twist:
    linear:
      x: 0.0000030716581109337882
      y: -0.000000011706134245214178
      z: 0
    angular:
      x: 0
      y: 0
      z: -0.000000062371893501154
  covariance: [0.00001, 0, 0, 0, 0, 0, 0, 0.00001, 0, 0, 0, 0, 0, 0, 1000000000000, 0, 0, 0, 0, 0, 0, 1000000000000, 0, 0, 0, 0, 0, 0, 1000000000000, 0, 0, 0, 0, 0, 0, 0.001]
---
header:
  stamp:
    sec: 5686
    nanosec: 951000000
  frame_id: odom
child_frame_id: base_footprint
pose:
  pose:
    position:
      x: -1.944995768195188
      y: -0.49996257944268035
      z: 0.00853119493626927
    orientation:
      x: 0.00004917543488807125
      y: 0.002867075223342598
      z: 0.00007198375210782549
      w: 0.9999958861314279
  covariance: [0.00001, 0, 0, 0, 0, 0, 0, 0.00001, 0, 0, 0, 0, 0, 0, 1000000000000, 0, 0, 0, 0, 0, 0, 1000000000000, 0, 0, 0, 0, 0, 0, 1000000000000, 0, 0, 0, 0, 0, 0, 0.001]
twist:
  twist:
    linear:
      x: 0.0000005210371270681773
      y: -0.0000000009654136049057185
      z: 0
    angular:
      x: 0
      y: 0
      z: -0.00000006782720413180284
  covariance: [0.00001, 0, 0, 0, 0, 0, 0, 0.00001, 0, 0, 0, 0, 0, 0, 1000000000000, 0, 0, 0, 0, 0, 0, 1000000000000, 0, 0, 0, 0, 0, 0, 1000000000000, 0, 0, 0, 0, 0, 0, 0.001]
---
header:
  stamp:
    sec: 5686
    nanosec: 985000000
  frame_id: odom
child_frame_id: base_footprint
pose:
  pose:
    position:
      x: -1.944995784889953
      y: -0.4999625794334438
      z: 0.008534599915041985
    orientation:
      x: 0.00004917583940016641
      y: 0.002866156204294541
      z: 0.0000719840947953867
      w: 0.9999958887658686
  covariance: [0.00001, 0, 0, 0, 0, 0, 0, 0.00001, 0, 0, 0, 0, 0, 0, 1000000000000, 0, 0, 0, 0, 0, 0, 1000000000000, 0, 0, 0, 0, 0, 0, 1000000000000, 0, 0, 0, 0, 0, 0, 0.001]
twist:
  twist:
    linear:
      x: 0.000003916093930604868
      y: -0.0000000031392435293545748
      z: 0
    angular:
      x: 0
      y: 0
      z: -0.00000004723712192507094
  covariance: [0.00001, 0, 0, 0, 0, 0, 0, 0.00001, 0, 0, 0, 0, 0, 0, 1000000000000, 0, 0, 0, 0, 0, 0, 1000000000000, 0, 0, 0, 0, 0, 0, 1000000000000, 0, 0, 0, 0, 0, 0, 0.001]
---
header:
  stamp:
    sec: 5687
    nanosec: 19000000
  frame_id: odom
child_frame_id: base_footprint
pose:
  pose:
    position:
      x: -1.9449957933428557
      y: -0.4999625794281967
      z: 0.008531725108549527
    orientation:
      x: 0.00004917598035223141
      y: 0.0028656275931852613
      z: 0.00007198448697332386
      w: 0.9999958902807821
  covariance: [0.00001, 0, 0, 0, 0, 0, 0, 0.00001, 0, 0, 0, 0, 0, 0, 1000000000000, 0, 0, 0, 0, 0, 0, 1000000000000, 0, 0, 0, 0, 0, 0, 1000000000000, 0, 0, 0, 0, 0, 0, 0.001]
twist:
  twist:
    linear:
      x: 0.00000376913120662902
      y: -0.000000013955233261348088
      z: 0
    angular:
      x: 0
      y: 0
      z: -0.000000054836587261714705
  covariance: [0.00001, 0, 0, 0, 0, 0, 0, 0.00001, 0, 0, 0, 0, 0, 0, 1000000000000, 0, 0, 0, 0, 0, 0, 1000000000000, 0, 0, 0, 0, 0, 0, 1000000000000, 0, 0, 0, 0, 0, 0, 0.001]
---
header:
  stamp:
    sec: 5687
    nanosec: 53000000
  frame_id: odom
child_frame_id: base_footprint
pose:
  pose:
    position:
      x: -1.9449957915028273
      y: -0.49996257939682615
      z: 0.00852954165025361
    orientation:
      x: 0.00004917591736043512
      y: 0.002865619085499404
      z: 0.00007198493008195998
      w: 0.9999958903051331
  covariance: [0.00001, 0, 0, 0, 0, 0, 0, 0.00001, 0, 0, 0, 0, 0, 0, 1000000000000, 0, 0, 0, 0, 0, 0, 1000000000000, 0, 0, 0, 0, 0, 0, 1000000000000, 0, 0, 0, 0, 0, 0, 0.001]
twist:
  twist:
    linear:
      x: 0.000003140412967968092
      y: -0.00000002354335632517572
      z: 0
    angular:
      x: 0
      y: 0
      z: -0.000000057937368033647374
  covariance: [0.00001, 0, 0, 0, 0, 0, 0, 0.00001, 0, 0, 0, 0, 0, 0, 1000000000000, 0, 0, 0, 0, 0, 0, 1000000000000, 0, 0, 0, 0, 0, 0, 1000000000000, 0, 0, 0, 0, 0, 0, 0.001]
---
header:
  stamp:
    sec: 5687
    nanosec: 87000000
  frame_id: odom
child_frame_id: base_footprint
pose:
  pose:
    position:
      x: -1.9449957793684167
      y: -0.4999625793327967
      z: 0.008528682524482056
    orientation:
      x: 0.000049175669559258
      y: 0.002866129803844504
      z: 0.0000719853837851456
      w: 0.999995888841452
  covariance: [0.00001, 0, 0, 0, 0, 0, 0, 0.00001, 0, 0, 0, 0, 0, 0, 1000000000000, 0, 0, 0, 0, 0, 0, 1000000000000, 0, 0, 0, 0, 0, 0, 1000000000000, 0, 0, 0, 0, 0, 0, 0.001]
twist:
  twist:
    linear:
      x: 0.0000024562982646455
      y: -0.00000002417642342498509
      z: 0
    angular:
      x: 0
      y: 0
      z: -0.00000006266998179654985
  covariance: [0.00001, 0, 0, 0, 0, 0, 0, 0.00001, 0, 0, 0, 0, 0, 0, 1000000000000, 0, 0, 0, 0, 0, 0, 1000000000000, 0, 0, 0, 0, 0, 0, 1000000000000, 0, 0, 0, 0, 0, 0, 0.001]
---
header:
  stamp:
    sec: 5687
    nanosec: 121000000
  frame_id: odom
child_frame_id: base_footprint
pose:
  pose:
    position:
      x: -1.9449957564864364
      y: -0.4999625793961528
      z: 0.008530182854218851
    orientation:
      x: 0.000049175260749250394
      y: 0.002867156035685476
      z: 0.00007198586067834885
      w: 0.9999958858995854
  covariance: [0.00001, 0, 0, 0, 0, 0, 0, 0.00001, 0, 0, 0, 0, 0, 0, 1000000000000, 0, 0, 0, 0, 0, 0, 1000000000000, 0, 0, 0, 0, 0, 0, 1000000000000, 0, 0, 0, 0, 0, 0, 0.001]
twist:
  twist:
    linear:
      x: 0.0000018717095030406085
      y: -0.000000008345442132682619
      z: 0
    angular:
      x: 0
      y: 0
      z: -0.00000006473120755496512
  covariance: [0.00001, 0, 0, 0, 0, 0, 0, 0.00001, 0, 0, 0, 0, 0, 0, 1000000000000, 0, 0, 0, 0, 0, 0, 1000000000000, 0, 0, 0, 0, 0, 0, 1000000000000, 0, 0, 0, 0, 0, 0, 0.001]
---
header:
  stamp:
    sec: 5687
    nanosec: 155000000
  frame_id: odom
child_frame_id: base_footprint
pose:
  pose:
    position:
      x: -1.9449957355209855
      y: -0.49996257945023936
      z: 0.008533519698128204
    orientation:
      x: 0.00004917493088174723
      y: 0.0028681053229976773
      z: 0.00007198632743912535
      w: 0.9999958831773514
  covariance: [0.00001, 0, 0, 0, 0, 0, 0, 0.00001, 0, 0, 0, 0, 0, 0, 1000000000000, 0, 0, 0, 0, 0, 0, 1000000000000, 0, 0, 0, 0, 0, 0, 1000000000000, 0, 0, 0, 0, 0, 0, 0.001]
twist:
  twist:
    linear:
      x: 0.00000513334481242616
      y: -0.0000000041006710466541884
      z: 0
    angular:
      x: 0
      y: 0
      z: -0.00000004259308335709399
  covariance: [0.00001, 0, 0, 0, 0, 0, 0, 0.00001, 0, 0, 0, 0, 0, 0, 1000000000000, 0, 0, 0, 0, 0, 0, 1000000000000, 0, 0, 0, 0, 0, 0, 1000000000000, 0, 0, 0, 0, 0, 0, 0.001]
---
header:
  stamp:
    sec: 5687
    nanosec: 189000000
  frame_id: odom
child_frame_id: base_footprint
pose:
  pose:
    position:
      x: -1.9449957247999567
      y: -0.4999625794494808
      z: 0.008531255598769622
    orientation:
      x: 0.00004917475028605661
      y: 0.0028685255944550566
      z: 0.00007198680773034807
      w: 0.9999958819718497
  covariance: [0.00001, 0, 0, 0, 0, 0, 0, 0.00001, 0, 0, 0, 0, 0, 0, 1000000000000, 0, 0, 0, 0, 0, 0, 1000000000000, 0, 0, 0, 0, 0, 0, 1000000000000, 0, 0, 0, 0, 0, 0, 0.001]
twist:
  twist:
    linear:
      x: 0.0000012654068115754382
      y: -0.0000000007555130931830276
      z: 0
    angular:
      x: 0
      y: 0
      z: -0.00000006264712635964091
  covariance: [0.00001, 0, 0, 0, 0, 0, 0, 0.00001, 0, 0, 0, 0, 0, 0, 1000000000000, 0, 0, 0, 0, 0, 0, 1000000000000, 0, 0, 0, 0, 0, 0, 1000000000000, 0, 0, 0, 0, 0, 0, 0.001]
---
header:
  stamp:
    sec: 5687
    nanosec: 223000000
  frame_id: odom
child_frame_id: base_footprint
pose:
  pose:
    position:
      x: -1.9449957352664171
      y: -0.499962579405872
      z: 0.008527524601288534
    orientation:
      x: 0.00004917496795841804
      y: 0.0028679082953826838
      z: 0.00007198716441176891
      w: 0.9999958837423684
  covariance: [0.00001, 0, 0, 0, 0, 0, 0, 0.00001, 0, 0, 0, 0, 0, 0, 1000000000000, 0, 0, 0, 0, 0, 0, 1000000000000, 0, 0, 0, 0, 0, 0, 1000000000000, 0, 0, 0, 0, 0, 0, 0.001]
twist:
  twist:
    linear:
      x: 0.000002430619318002259
      y: -0.000000021639568232123
      z: 0
    angular:
      x: 0
      y: 0
      z: -0.00000006800000428517913
  covariance: [0.00001, 0, 0, 0, 0, 0, 0, 0.00001, 0, 0, 0, 0, 0, 0, 1000000000000, 0, 0, 0, 0, 0, 0, 1000000000000, 0, 0, 0, 0, 0, 0, 1000000000000, 0, 0, 0, 0, 0, 0, 0.001]
---
header:
  stamp:
    sec: 5687
    nanosec: 257000000
  frame_id: odom
child_frame_id: base_footprint
pose:
  pose:
    position:
      x: -1.944995744825244
      y: -0.4999625794631708
      z: 0.008534261538840404
    orientation:
      x: 0.00004917531046209209
      y: 0.002867332280853132
      z: 0.00007198753213140105
      w: 0.9999958853941225
  covariance: [0.00001, 0, 0, 0, 0, 0, 0, 0.00001, 0, 0, 0, 0, 0, 0, 1000000000000, 0, 0, 0, 0, 0, 0, 1000000000000, 0, 0, 0, 0, 0, 0, 1000000000000, 0, 0, 0, 0, 0, 0, 0.001]
twist:
  twist:
    linear:
      x: 0.000003886962947106608
      y: 0.0000000009582898505044246
      z: 0
    angular:
      x: 0
      y: 0
      z: -0.000000047398246124539775
  covariance: [0.00001, 0, 0, 0, 0, 0, 0, 0.00001, 0, 0, 0, 0, 0, 0, 1000000000000, 0, 0, 0, 0, 0, 0, 1000000000000, 0, 0, 0, 0, 0, 0, 1000000000000, 0, 0, 0, 0, 0, 0, 0.001]
---
header:
  stamp:
    sec: 5687
    nanosec: 291000000
  frame_id: odom
child_frame_id: base_footprint
pose:
  pose:
    position:
      x: -1.9449957670540108
      y: -0.4999625793647366
      z: 0.008526766869201225
    orientation:
      x: 0.00004917568688895959
      y: 0.002866116574772695
      z: 0.00007198791651214309
      w: 0.9999958888791852
  covariance: [0.00001, 0, 0, 0, 0, 0, 0, 0.00001, 0, 0, 0, 0, 0, 0, 1000000000000, 0, 0, 0, 0, 0, 0, 1000000000000, 0, 0, 0, 0, 0, 0, 1000000000000, 0, 0, 0, 0, 0, 0, 0.001]
twist:
  twist:
    linear:
      x: 0.0000010036507355827453
      y: -0.000000023154570363663425
      z: 0
    angular:
      x: 0
      y: 0
      z: -0.00000007552167557635471
  covariance: [0.00001, 0, 0, 0, 0, 0, 0, 0.00001, 0, 0, 0, 0, 0, 0, 1000000000000, 0, 0, 0, 0, 0, 0, 1000000000000, 0, 0, 0, 0, 0, 0, 1000000000000, 0, 0, 0, 0, 0, 0, 0.001]
---
header:
  stamp:
    sec: 5687
    nanosec: 325000000
  frame_id: odom
child_frame_id: base_footprint
pose:
  pose:
    position:
      x: -1.9449957777677354
      y: -0.49996257948128625
      z: 0.00853234024098148
    orientation:
      x: 0.00004917599957530591
      y: 0.0028654691321039743
      z: 0.0000719883001375499
      w: 0.9999958907345864
  covariance: [0.00001, 0, 0, 0, 0, 0, 0, 0.00001, 0, 0, 0, 0, 0, 0, 1000000000000, 0, 0, 0, 0, 0, 0, 1000000000000, 0, 0, 0, 0, 0, 0, 1000000000000, 0, 0, 0, 0, 0, 0, 0.001]
twist:
  twist:
    linear:
      x: 0.0000012601832297428111
      y: -0.0000000021158976408475813
      z: 0
    angular:
      x: 0
      y: 0
      z: -0.00000006378832443561267
  covariance: [0.00001, 0, 0, 0, 0, 0, 0, 0.00001, 0, 0, 0, 0, 0, 0, 1000000000000, 0, 0, 0, 0, 0, 0, 1000000000000, 0, 0, 0, 0, 0, 0, 1000000000000, 0, 0, 0, 0, 0, 0, 0.001]
---
header:
  stamp:
    sec: 5687
    nanosec: 359000000
  frame_id: odom
child_frame_id: base_footprint
pose:
  pose:
    position:
      x: -1.944995782648085
      y: -0.49996257947941275
      z: 0.008534698181745683
    orientation:
      x: 0.00004917612609924209
      y: 0.002865132789370076
      z: 0.0000719886816582273
      w: 0.9999958916982797
  covariance: [0.00001, 0, 0, 0, 0, 0, 0, 0.00001, 0, 0, 0, 0, 0, 0, 1000000000000, 0, 0, 0, 0, 0, 0, 1000000000000, 0, 0, 0, 0, 0, 0, 1000000000000, 0, 0, 0, 0, 0, 0, 0.001]
twist:
  twist:
    linear:
      x: 0.000003397834321817011
      y: -0.0000000004653545352691933
      z: 0
    angular:
      x: 0
      y: 0
      z: -0.00000004715136652745773
  covariance: [0.00001, 0, 0, 0, 0, 0, 0, 0.00001, 0, 0, 0, 0, 0, 0, 1000000000000, 0, 0, 0, 0, 0, 0, 1000000000000, 0, 0, 0, 0, 0, 0, 1000000000000, 0, 0, 0, 0, 0, 0, 0.001]
---
header:
  stamp:
    sec: 5687
    nanosec: 393000000
  frame_id: odom
child_frame_id: base_footprint
pose:
  pose:
    position:
      x: -1.9449957825994535
      y: -0.4999625794756761
      z: 0.008533077049231208
    orientation:
      x: 0.00004917609414985207
      y: 0.002865033928300227
      z: 0.00007198911490468782
      w: 0.9999958919814965
  covariance: [0.00001, 0, 0, 0, 0, 0, 0, 0.00001, 0, 0, 0, 0, 0, 0, 1000000000000, 0, 0, 0, 0, 0, 0, 1000000000000, 0, 0, 0, 0, 0, 0, 1000000000000, 0, 0, 0, 0, 0, 0, 0.001]
twist:
  twist:
    linear:
      x: 0.00000443912499817057
      y: -0.00000001081883417692822
      z: 0
    angular:
      x: 0
      y: 0
      z: -0.00000004865375506552225
  covariance: [0.00001, 0, 0, 0, 0, 0, 0, 0.00001, 0, 0, 0, 0, 0, 0, 1000000000000, 0, 0, 0, 0, 0, 0, 1000000000000, 0, 0, 0, 0, 0, 0, 1000000000000, 0, 0, 0, 0, 0, 0, 0.001]
---
header:
  stamp:
    sec: 5687
    nanosec: 427000000
  frame_id: odom
child_frame_id: base_footprint
pose:
  pose:
    position:
      x: -1.9449957735484853
      y: -0.4999625794520454
      z: 0.008530514942068121
    orientation:
      x: 0.00004917587257139008
      y: 0.0028653841023695914
      z: 0.00007198956480436024
      w: 0.999995890978149
  covariance: [0.00001, 0, 0, 0, 0, 0, 0, 0.00001, 0, 0, 0, 0, 0, 0, 1000000000000, 0, 0, 0, 0, 0, 0, 1000000000000, 0, 0, 0, 0, 0, 0, 1000000000000, 0, 0, 0, 0, 0, 0, 0.001]
twist:
  twist:
    linear:
      x: 0.0000038108890211957164
      y: -0.00000001807438077454681
      z: 0
    angular:
      x: 0
      y: 0
      z: -0.00000005383693655126041
  covariance: [0.00001, 0, 0, 0, 0, 0, 0, 0.00001, 0, 0, 0, 0, 0, 0, 1000000000000, 0, 0, 0, 0, 0, 0, 1000000000000, 0, 0, 0, 0, 0, 0, 1000000000000, 0, 0, 0, 0, 0, 0, 0.001]
---
header:
  stamp:
    sec: 5687
    nanosec: 461000000
  frame_id: odom
child_frame_id: base_footprint
pose:
  pose:
    position:
      x: -1.944995754240252
      y: -0.49996257939884464
      z: 0.008528886521082286
    orientation:
      x: 0.000049175470608390246
      y: 0.0028662511753217127
      z: 0.0000719900245064205
      w: 0.9999958884932526
  covariance: [0.00001, 0, 0, 0, 0, 0, 0, 0.00001, 0, 0, 0, 0, 0, 0, 1000000000000, 0, 0, 0, 0, 0, 0, 1000000000000, 0, 0, 0, 0, 0, 0, 1000000000000, 0, 0, 0, 0, 0, 0, 0.001]
twist:
  twist:
    linear:
      x: 0.0000031739031403011555
      y: -0.000000028580393895158806
      z: 0
    angular:
      x: 0
      y: 0
      z: -0.000000057527663154200024
  covariance: [0.00001, 0, 0, 0, 0, 0, 0, 0.00001, 0, 0, 0, 0, 0, 0, 1000000000000, 0, 0, 0, 0, 0, 0, 1000000000000, 0, 0, 0, 0, 0, 0, 1000000000000, 0, 0, 0, 0, 0, 0, 0.001]
---
header:
  stamp:
    sec: 5687
    nanosec: 495000000
  frame_id: odom
child_frame_id: base_footprint
pose:
  pose:
    position:
      x: -1.9449957244709233
      y: -0.49996257938594313
      z: 0.008529053888800495
    orientation:
      x: 0.000049174909551613666
      y: 0.0028676332343099053
      z: 0.00007199052164531747
      w: 0.9999958845309447
  covariance: [0.00001, 0, 0, 0, 0, 0, 0, 0.00001, 0, 0, 0, 0, 0, 0, 1000000000000, 0, 0, 0, 0, 0, 0, 1000000000000, 0, 0, 0, 0, 0, 0, 1000000000000, 0, 0, 0, 0, 0, 0, 0.001]
twist:
  twist:
    linear:
      x: 0.0000024567452309532772
      y: -0.000000017979532044113528
      z: 0
    angular:
      x: 0
      y: 0
      z: -0.00000006004961671660562
  covariance: [0.00001, 0, 0, 0, 0, 0, 0, 0.00001, 0, 0, 0, 0, 0, 0, 1000000000000, 0, 0, 0, 0, 0, 0, 1000000000000, 0, 0, 0, 0, 0, 0, 1000000000000, 0, 0, 0, 0, 0, 0, 0.001]
---
header:
  stamp:
    sec: 5687
    nanosec: 529000000
  frame_id: odom
child_frame_id: base_footprint
pose:
  pose:
    position:
      x: -1.9449957037830228
      y: -0.49996257946896255
      z: 0.008531088509702127
    orientation:
      x: 0.00004917458558157318
      y: 0.0028685582213862425
      z: 0.00007199101122259052
      w: 0.9999958818779632
  covariance: [0.00001, 0, 0, 0, 0, 0, 0, 0.00001, 0, 0, 0, 0, 0, 0, 1000000000000, 0, 0, 0, 0, 0, 0, 1000000000000, 0, 0, 0, 0, 0, 0, 1000000000000, 0, 0, 0, 0, 0, 0, 0.001]
twist:
  twist:
    linear:
      x: 0.000004469686849078112
      y: -0.000000008240988365296166
      z: 0
    angular:
      x: 0
      y: 0
      z: -0.00000004852452080298494
  covariance: [0.00001, 0, 0, 0, 0, 0, 0, 0.00001, 0, 0, 0, 0, 0, 0, 1000000000000, 0, 0, 0, 0, 0, 0, 1000000000000, 0, 0, 0, 0, 0, 0, 1000000000000, 0, 0, 0, 0, 0, 0, 0.001]
---
header:
  stamp:
    sec: 5687
    nanosec: 563000000
  frame_id: odom
child_frame_id: base_footprint
pose:
  pose:
    position:
      x: -1.9449956907721686
      y: -0.4999625794755759
      z: 0.008532276648398143
    orientation:
      x: 0.00004917442214621471
      y: 0.002869097551442082
      z: 0.00007199146025779784
      w: 0.9999958803306872
  covariance: [0.00001, 0, 0, 0, 0, 0, 0, 0.00001, 0, 0, 0, 0, 0, 0, 1000000000000, 0, 0, 0, 0, 0, 0, 1000000000000, 0, 0, 0, 0, 0, 0, 1000000000000, 0, 0, 0, 0, 0, 0, 0.001]
twist:
  twist:
    linear:
      x: 0.0000019909356973011135
      y: 0.00000000035415005319719087
      z: 0
    angular:
      x: 0
      y: 0
      z: -0.00000005893124782004413
  covariance: [0.00001, 0, 0, 0, 0, 0, 0, 0.00001, 0, 0, 0, 0, 0, 0, 1000000000000, 0, 0, 0, 0, 0, 0, 1000000000000, 0, 0, 0, 0, 0, 0, 1000000000000, 0, 0, 0, 0, 0, 0, 0.001]
---
header:
  stamp:
    sec: 5687
    nanosec: 597000000
  frame_id: odom
child_frame_id: base_footprint
pose:
  pose:
    position:
      x: -1.9449957030641876
      y: -0.49996257941144023
      z: 0.008526005404568012
    orientation:
      x: 0.000049174656671577575
      y: 0.0028683850126110006
      z: 0.00007199182483972889
      w: 0.9999958823747473
  covariance: [0.00001, 0, 0, 0, 0, 0, 0, 0.00001, 0, 0, 0, 0, 0, 0, 1000000000000, 0, 0, 0, 0, 0, 0, 1000000000000, 0, 0, 0, 0, 0, 0, 1000000000000, 0, 0, 0, 0, 0, 0, 0.001]
twist:
  twist:
    linear:
      x: 0.00000174585810517411
      y: -0.00000002645639188566736
      z: 0
    angular:
      x: 0
      y: 0
      z: -0.00000007178452733574055
  covariance: [0.00001, 0, 0, 0, 0, 0, 0, 0.00001, 0, 0, 0, 0, 0, 0, 1000000000000, 0, 0, 0, 0, 0, 0, 1000000000000, 0, 0, 0, 0, 0, 0, 1000000000000, 0, 0, 0, 0, 0, 0, 0.001]
---
header:
  stamp:
    sec: 5687
    nanosec: 631000000
  frame_id: odom
child_frame_id: base_footprint
pose:
  pose:
    position:
      x: -1.944995715843068
      y: -0.4999625794980635
      z: 0.008532043449672157
    orientation:
      x: 0.00004917507038668928
      y: 0.002867642706109574
      z: 0.00007199220494390977
      w: 0.9999958845036538
  covariance: [0.00001, 0, 0, 0, 0, 0, 0, 0.00001, 0, 0, 0, 0, 0, 0, 1000000000000, 0, 0, 0, 0, 0, 0, 1000000000000, 0, 0, 0, 0, 0, 0, 1000000000000, 0, 0, 0, 0, 0, 0, 0.001]
twist:
  twist:
    linear:
      x: 0.0000036970213542003158
      y: -0.000000005659706885717884
      z: 0
    angular:
      x: 0
      y: 0
      z: -0.00000005770060611107284
  covariance: [0.00001, 0, 0, 0, 0, 0, 0, 0.00001, 0, 0, 0, 0, 0, 0, 1000000000000, 0, 0, 0, 0, 0, 0, 1000000000000, 0, 0, 0, 0, 0, 0, 1000000000000, 0, 0, 0, 0, 0, 0, 0.001]
---
header:
  stamp:
    sec: 5687
    nanosec: 665000000
  frame_id: odom
child_frame_id: base_footprint
pose:
  pose:
    position:
      x: -1.9449957331046253
      y: -0.4999625793813345
      z: 0.00852880747606125
    orientation:
      x: 0.0000491754160860829
      y: 0.002866688180153071
      z: 0.00007199257003108575
      w: 0.9999958872404058
  covariance: [0.00001, 0, 0, 0, 0, 0, 0, 0.00001, 0, 0, 0, 0, 0, 0, 1000000000000, 0, 0, 0, 0, 0, 0, 1000000000000, 0, 0, 0, 0, 0, 0, 1000000000000, 0, 0, 0, 0, 0, 0, 0.001]
twist:
  twist:
    linear:
      x: 0.0000017031004182463577
      y: -0.000000024502076608474503
      z: 0
    angular:
      x: 0
      y: 0
      z: -0.00000007198997209649883
  covariance: [0.00001, 0, 0, 0, 0, 0, 0, 0.00001, 0, 0, 0, 0, 0, 0, 1000000000000, 0, 0, 0, 0, 0, 0, 1000000000000, 0, 0, 0, 0, 0, 0, 1000000000000, 0, 0, 0, 0, 0, 0, 0.001]
---
header:
  stamp:
    sec: 5687
    nanosec: 699000000
  frame_id: odom
child_frame_id: base_footprint
pose:
  pose:
    position:
      x: -1.9449957365753172
      y: -0.4999625794580025
      z: 0.00853019310184398
    orientation:
      x: 0.00004917554202779393
      y: 0.0028663991164669623
      z: 0.00007199297518801744
      w: 0.9999958880689873
  covariance: [0.00001, 0, 0, 0, 0, 0, 0, 0.00001, 0, 0, 0, 0, 0, 0, 1000000000000, 0, 0, 0, 0, 0, 0, 1000000000000, 0, 0, 0, 0, 0, 0, 1000000000000, 0, 0, 0, 0, 0, 0, 0.001]
twist:
  twist:
    linear:
      x: 0.0000011122209837406546
      y: -0.00000000856732397939587
      z: 0
    angular:
      x: 0
      y: 0
      z: -0.00000007155511295756555
  covariance: [0.00001, 0, 0, 0, 0, 0, 0, 0.00001, 0, 0, 0, 0, 0, 0, 1000000000000, 0, 0, 0, 0, 0, 0, 1000000000000, 0, 0, 0, 0, 0, 0, 1000000000000, 0, 0, 0, 0, 0, 0, 0.001]
---
header:
  stamp:
    sec: 5687
    nanosec: 733000000
  frame_id: odom
child_frame_id: base_footprint
pose:
  pose:
    position:
      x: -1.9449957314212343
      y: -0.49996257950423056
      z: 0.008533870007910511
    orientation:
      x: 0.000049175515013722304
      y: 0.0028665569052260197
      z: 0.00007199341523122111
      w: 0.9999958876166571
  covariance: [0.00001, 0, 0, 0, 0, 0, 0, 0.00001, 0, 0, 0, 0, 0, 0, 1000000000000, 0, 0, 0, 0, 0, 0, 1000000000000, 0, 0, 0, 0, 0, 0, 1000000000000, 0, 0, 0, 0, 0, 0, 0.001]
twist:
  twist:
    linear:
      x: 0.000002711400192853182
      y: -0.0000000010111867420537187
      z: 0
    angular:
      x: 0
      y: 0
      z: -0.00000004995251876038477
  covariance: [0.00001, 0, 0, 0, 0, 0, 0, 0.00001, 0, 0, 0, 0, 0, 0, 1000000000000, 0, 0, 0, 0, 0, 0, 1000000000000, 0, 0, 0, 0, 0, 0, 1000000000000, 0, 0, 0, 0, 0, 0, 0.001]
---
header:
  stamp:
    sec: 5687
    nanosec: 767000000
  frame_id: odom
child_frame_id: base_footprint
pose:
  pose:
    position:
      x: -1.9449957217284888
      y: -0.4999625794981294
      z: 0.008534522914535152
    orientation:
      x: 0.0000491753534203473
      y: 0.0028669484966040346
      z: 0.00007199385221612232
      w: 0.9999958864940335
  covariance: [0.00001, 0, 0, 0, 0, 0, 0, 0.00001, 0, 0, 0, 0, 0, 0, 1000000000000, 0, 0, 0, 0, 0, 0, 1000000000000, 0, 0, 0, 0, 0, 0, 1000000000000, 0, 0, 0, 0, 0, 0, 0.001]
twist:
  twist:
    linear:
      x: 0.000004642846818371424
      y: -0.00000000279042056040562
      z: 0
    angular:
      x: 0
      y: 0
      z: -0.00000003868163518511737
  covariance: [0.00001, 0, 0, 0, 0, 0, 0, 0.00001, 0, 0, 0, 0, 0, 0, 1000000000000, 0, 0, 0, 0, 0, 0, 1000000000000, 0, 0, 0, 0, 0, 0, 1000000000000, 0, 0, 0, 0, 0, 0, 0.001]
---
header:
  stamp:
    sec: 5687
    nanosec: 801000000
  frame_id: odom
child_frame_id: base_footprint
pose:
  pose:
    position:
      x: -1.9449957056306866
      y: -0.4999625794813777
      z: 0.008531717365497779
    orientation:
      x: 0.00004917503019660931
      y: 0.0028676474621305943
      z: 0.0000719943063987488
      w: 0.9999958844898659
  covariance: [0.00001, 0, 0, 0, 0, 0, 0, 0.00001, 0, 0, 0, 0, 0, 0, 1000000000000, 0, 0, 0, 0, 0, 0, 1000000000000, 0, 0, 0, 0, 0, 0, 1000000000000, 0, 0, 0, 0, 0, 0, 0.001]
twist:
  twist:
    linear:
      x: 0.00000447783335850631
      y: -0.000000013768644621055773
      z: 0
    angular:
      x: 0
      y: 0
      z: -0.00000004845916225177798
  covariance: [0.00001, 0, 0, 0, 0, 0, 0, 0.00001, 0, 0, 0, 0, 0, 0, 1000000000000, 0, 0, 0, 0, 0, 0, 1000000000000, 0, 0, 0, 0, 0, 0, 1000000000000, 0, 0, 0, 0, 0, 0, 0.001]
---
header:
  stamp:
    sec: 5687
    nanosec: 835000000
  frame_id: odom
child_frame_id: base_footprint
pose:
  pose:
    position:
      x: -1.944995686606072
      y: -0.49996257946191625
      z: 0.00852867051159354
    orientation:
      x: 0.00004917466890053815
      y: 0.0028684822007334428
      z: 0.00007199481161330673
      w: 0.9999958820957531
  covariance: [0.00001, 0, 0, 0, 0, 0, 0, 0.00001, 0, 0, 0, 0, 0, 0, 1000000000000, 0, 0, 0, 0, 0, 0, 1000000000000, 0, 0, 0, 0, 0, 0, 1000000000000, 0, 0, 0, 0, 0, 0, 0.001]
twist:
  twist:
    linear:
      x: 0.0000011151162813911486
      y: -0.000000007415290401713516
      z: 0
    angular:
      x: 0
      y: 0
      z: -0.00000006975675143859554
  covariance: [0.00001, 0, 0, 0, 0, 0, 0, 0.00001, 0, 0, 0, 0, 0, 0, 1000000000000, 0, 0, 0, 0, 0, 0, 1000000000000, 0, 0, 0, 0, 0, 0, 1000000000000, 0, 0, 0, 0, 0, 0, 0.001]
---
header:
  stamp:
    sec: 5687
    nanosec: 869000000
  frame_id: odom
child_frame_id: base_footprint
pose:
  pose:
    position:
      x: -1.944995687451001
      y: -0.4999625794827929
      z: 0.008528493989659623
    orientation:
      x: 0.000049174751059928206
      y: 0.002868342923612814
      z: 0.00007199522372012484
      w: 0.9999958824952251
  covariance: [0.00001, 0, 0, 0, 0, 0, 0, 0.00001, 0, 0, 0, 0, 0, 0, 1000000000000, 0, 0, 0, 0, 0, 0, 1000000000000, 0, 0, 0, 0, 0, 0, 1000000000000, 0, 0, 0, 0, 0, 0, 0.001]
twist:
  twist:
    linear:
      x: 0.0000030906269394875756
      y: -0.000000015960442901699326
      z: 0
    angular:
      x: 0
      y: 0
      z: -0.0000000622057398310661
  covariance: [0.00001, 0, 0, 0, 0, 0, 0, 0.00001, 0, 0, 0, 0, 0, 0, 1000000000000, 0, 0, 0, 0, 0, 0, 1000000000000, 0, 0, 0, 0, 0, 0, 1000000000000, 0, 0, 0, 0, 0, 0, 0.001]
---
header:
  stamp:
    sec: 5687
    nanosec: 903000000
  frame_id: odom
child_frame_id: base_footprint
pose:
  pose:
    position:
      x: -1.9449956887614763
      y: -0.4999625795156838
      z: 0.008534538653916221
    orientation:
      x: 0.00004917493264771609
      y: 0.002868176602829391
      z: 0.0000719956004268396
      w: 0.9999958829722424
  covariance: [0.00001, 0, 0, 0, 0, 0, 0, 0.00001, 0, 0, 0, 0, 0, 0, 1000000000000, 0, 0, 0, 0, 0, 0, 1000000000000, 0, 0, 0, 0, 0, 0, 1000000000000, 0, 0, 0, 0, 0, 0, 0.001]
twist:
  twist:
    linear:
      x: 0.0000033557217633986173
      y: 0.000000002824487712086695
      z: 0
    angular:
      x: 0
      y: 0
      z: -0.00000005136767293975974
  covariance: [0.00001, 0, 0, 0, 0, 0, 0, 0.00001, 0, 0, 0, 0, 0, 0, 1000000000000, 0, 0, 0, 0, 0, 0, 1000000000000, 0, 0, 0, 0, 0, 0, 1000000000000, 0, 0, 0, 0, 0, 0, 0.001]
---
header:
  stamp:
    sec: 5687
    nanosec: 937000000
  frame_id: odom
child_frame_id: base_footprint
pose:
  pose:
    position:
      x: -1.9449957119692194
      y: -0.49996257941053734
      z: 0.008528806277812929
    orientation:
      x: 0.000049175367880162134
      y: 0.00286692017300971
      z: 0.00007199595680880164
      w: 0.9999958865750834
  covariance: [0.00001, 0, 0, 0, 0, 0, 0, 0.00001, 0, 0, 0, 0, 0, 0, 1000000000000, 0, 0, 0, 0, 0, 0, 1000000000000, 0, 0, 0, 0, 0, 0, 1000000000000, 0, 0, 0, 0, 0, 0, 0.001]
twist:
  twist:
    linear:
      x: 0.0000016906714838090392
      y: -0.00000002348577236493567
      z: 0
    angular:
      x: 0
      y: 0
      z: -0.00000007171551769543787
  covariance: [0.00001, 0, 0, 0, 0, 0, 0, 0.00001, 0, 0, 0, 0, 0, 0, 1000000000000, 0, 0, 0, 0, 0, 0, 1000000000000, 0, 0, 0, 0, 0, 0, 1000000000000, 0, 0, 0, 0, 0, 0, 0.001]
---
header:
  stamp:
    sec: 5687
    nanosec: 971000000
  frame_id: odom
child_frame_id: base_footprint
pose:
  pose:
    position:
      x: -1.9449957157744855
      y: -0.49996257948289163
      z: 0.008530204070062301
    orientation:
      x: 0.000049175504232908177
      y: 0.002866615489389482
      z: 0.00007199636431056714
      w: 0.9999958874485082
  covariance: [0.00001, 0, 0, 0, 0, 0, 0, 0.00001, 0, 0, 0, 0, 0, 0, 1000000000000, 0, 0, 0, 0, 0, 0, 1000000000000, 0, 0, 0, 0, 0, 0, 1000000000000, 0, 0, 0, 0, 0, 0, 0.001]
twist:
  twist:
    linear:
      x: 0.0000011027846025617521
      y: -0.0000000085909707991771
      z: 0
    angular:
      x: 0
      y: 0
      z: -0.00000007172617857123427
  covariance: [0.00001, 0, 0, 0, 0, 0, 0, 0.00001, 0, 0, 0, 0, 0, 0, 1000000000000, 0, 0, 0, 0, 0, 0, 1000000000000, 0, 0, 0, 0, 0, 0, 1000000000000, 0, 0, 0, 0, 0, 0, 0.001]
---
header:
  stamp:
    sec: 5688
    nanosec: 5000000
  frame_id: odom
child_frame_id: base_footprint
pose:
  pose:
    position:
      x: -1.9449957109565268
      y: -0.4999625795294362
      z: 0.008533870322719149
    orientation:
      x: 0.00004917548716789423
      y: 0.0028667564545977616
      z: 0.00007199679994515023
      w: 0.999995887044373
  covariance: [0.00001, 0, 0, 0, 0, 0, 0, 0.00001, 0, 0, 0, 0, 0, 0, 1000000000000, 0, 0, 0, 0, 0, 0, 1000000000000, 0, 0, 0, 0, 0, 0, 1000000000000, 0, 0, 0, 0, 0, 0, 0.001]
twist:
  twist:
    linear:
      x: 0.0000027013688206265605
      y: -0.0000000010170321111818507
      z: 0
    angular:
      x: 0
      y: 0
      z: -0.00000005026397923939869
  covariance: [0.00001, 0, 0, 0, 0, 0, 0, 0.00001, 0, 0, 0, 0, 0, 0, 1000000000000, 0, 0, 0, 0, 0, 0, 1000000000000, 0, 0, 0, 0, 0, 0, 1000000000000, 0, 0, 0, 0, 0, 0, 0.001]
---
header:
  stamp:
    sec: 5688
    nanosec: 39000000
  frame_id: odom
child_frame_id: base_footprint
pose:
  pose:
    position:
      x: -1.9449957015993469
      y: -0.49996257952354994
      z: 0.008534523056911388
    orientation:
      x: 0.0000491753351032819
      y: 0.0028671312603569805
      z: 0.00007199723525512023
      w: 0.9999958859697975
  covariance: [0.00001, 0, 0, 0, 0, 0, 0, 0.00001, 0, 0, 0, 0, 0, 0, 1000000000000, 0, 0, 0, 0, 0, 0, 1000000000000, 0, 0, 0, 0, 0, 0, 1000000000000, 0, 0, 0, 0, 0, 0, 0.001]
twist:
  twist:
    linear:
      x: 0.000004632938401037642
      y: -0.0000000027955030568503217
      z: 0
    angular:
      x: 0
      y: 0
      z: -0.00000003868240915822761
  covariance: [0.00001, 0, 0, 0, 0, 0, 0, 0.00001, 0, 0, 0, 0, 0, 0, 1000000000000, 0, 0, 0, 0, 0, 0, 1000000000000, 0, 0, 0, 0, 0, 0, 1000000000000, 0, 0, 0, 0, 0, 0, 0.001]
---
header:
  stamp:
    sec: 5688
    nanosec: 73000000
  frame_id: odom
child_frame_id: base_footprint
pose:
  pose:
    position:
      x: -1.9449956858353734
      y: -0.49996257950700157
      z: 0.008531717499149421
    orientation:
      x: 0.00004917502081948848
      y: 0.002867813535566832
      z: 0.00007199769087922661
      w: 0.9999958840133669
  covariance: [0.00001, 0, 0, 0, 0, 0, 0, 0.00001, 0, 0, 0, 0, 0, 0, 1000000000000, 0, 0, 0, 0, 0, 0, 1000000000000, 0, 0, 0, 0, 0, 0, 1000000000000, 0, 0, 0, 0, 0, 0, 0.001]
twist:
  twist:
    linear:
      x: 0.000004468273196722632
      y: -0.000000013772138048171662
      z: 0
    angular:
      x: 0
      y: 0
      z: -0.000000048460945022241827
  covariance: [0.00001, 0, 0, 0, 0, 0, 0, 0.00001, 0, 0, 0, 0, 0, 0, 1000000000000, 0, 0, 0, 0, 0, 0, 1000000000000, 0, 0, 0, 0, 0, 0, 1000000000000, 0, 0, 0, 0, 0, 0, 0.001]
---
header:
  stamp:
    sec: 5688
    nanosec: 107000000
  frame_id: odom
child_frame_id: base_footprint
pose:
  pose:
    position:
      x: -1.9449956733121212
      y: -0.4999625795374832
      z: 0.008532243559939147
    orientation:
      x: 0.00004917483971542495
      y: 0.0028683232954191816
      z: 0.00007199817745032529
      w: 0.9999958825513087
  covariance: [0.00001, 0, 0, 0, 0, 0, 0, 0.00001, 0, 0, 0, 0, 0, 0, 1000000000000, 0, 0, 0, 0, 0, 0, 1000000000000, 0, 0, 0, 0, 0, 0, 1000000000000, 0, 0, 0, 0, 0, 0, 0.001]
twist:
  twist:
    linear:
      x: 0.0000019749202769931455
      y: 0.00000000043129688012328833
      z: 0
    angular:
      x: 0
      y: 0
      z: -0.000000056302264584725295
  covariance: [0.00001, 0, 0, 0, 0, 0, 0, 0.00001, 0, 0, 0, 0, 0, 0, 1000000000000, 0, 0, 0, 0, 0, 0, 1000000000000, 0, 0, 0, 0, 0, 0, 1000000000000, 0, 0, 0, 0, 0, 0, 0.001]
---
header:
  stamp:
    sec: 5688
    nanosec: 141000000
  frame_id: odom
child_frame_id: base_footprint
pose:
  pose:
    position:
      x: -1.9449956861757483
      y: -0.4999625794729406
      z: 0.008526004728069898
    orientation:
      x: 0.000049175066256328734
      y: 0.0028675826138087825
      z: 0.0000719985583711336
      w: 0.9999958846755188
  covariance: [0.00001, 0, 0, 0, 0, 0, 0, 0.00001, 0, 0, 0, 0, 0, 0, 1000000000000, 0, 0, 0, 0, 0, 0, 1000000000000, 0, 0, 0, 0, 0, 0, 1000000000000, 0, 0, 0, 0, 0, 0, 0.001]
twist:
  twist:
    linear:
      x: 0.000001726258552956791
      y: -0.000000026467749573503276
      z: 0
    angular:
      x: 0
      y: 0
      z: -0.0000000727657201759692
  covariance: [0.00001, 0, 0, 0, 0, 0, 0, 0.00001, 0, 0, 0, 0, 0, 0, 1000000000000, 0, 0, 0, 0, 0, 0, 1000000000000, 0, 0, 0, 0, 0, 0, 1000000000000, 0, 0, 0, 0, 0, 0, 0.001]
---
header:
  stamp:
    sec: 5688
    nanosec: 175000000
  frame_id: odom
child_frame_id: base_footprint
pose:
  pose:
    position:
      x: -1.9449956879103765
      y: -0.49996257953719203
      z: 0.008534849561630425
    orientation:
      x: 0.000049175277268226854
      y: 0.0028673982265472577
      z: 0.00007199892069371013
      w: 0.9999958852042131
  covariance: [0.00001, 0, 0, 0, 0, 0, 0, 0.00001, 0, 0, 0, 0, 0, 0, 1000000000000, 0, 0, 0, 0, 0, 0, 1000000000000, 0, 0, 0, 0, 0, 0, 1000000000000, 0, 0, 0, 0, 0, 0, 0.001]
twist:
  twist:
    linear:
      x: 0.0000033610712812104324
      y: -0.00000000044811187426058893
      z: 0
    angular:
      x: 0
      y: 0
      z: -0.00000005069397573857978
  covariance: [0.00001, 0, 0, 0, 0, 0, 0, 0.00001, 0, 0, 0, 0, 0, 0, 1000000000000, 0, 0, 0, 0, 0, 0, 1000000000000, 0, 0, 0, 0, 0, 0, 1000000000000, 0, 0, 0, 0, 0, 0, 0.001]
---
header:
  stamp:
    sec: 5688
    nanosec: 209000000
  frame_id: odom
child_frame_id: base_footprint
pose:
  pose:
    position:
      x: -1.9449957113653977
      y: -0.49996257944446304
      z: 0.008528787430691118
    orientation:
      x: 0.00004917569512513738
      y: 0.0028661270336841713
      z: 0.00007199929967745309
      w: 0.9999958888483885
  covariance: [0.00001, 0, 0, 0, 0, 0, 0, 0.00001, 0, 0, 0, 0, 0, 0, 1000000000000, 0, 0, 0, 0, 0, 0, 1000000000000, 0, 0, 0, 0, 0, 0, 1000000000000, 0, 0, 0, 0, 0, 0, 0.001]
twist:
  twist:
    linear:
      x: 0.000001680791265378518
      y: -0.00000002344073862715572
      z: 0
    angular:
      x: 0
      y: 0
      z: -0.00000007057785364129446
  covariance: [0.00001, 0, 0, 0, 0, 0, 0, 0.00001, 0, 0, 0, 0, 0, 0, 1000000000000, 0, 0, 0, 0, 0, 0, 1000000000000, 0, 0, 0, 0, 0, 0, 1000000000000, 0, 0, 0, 0, 0, 0, 0.001]
---
header:
  stamp:
    sec: 5688
    nanosec: 243000000
  frame_id: odom
child_frame_id: base_footprint
pose:
  pose:
    position:
      x: -1.944995715439
      y: -0.4999625795164066
      z: 0.008530203594765551
    orientation:
      x: 0.00004917581905598351
      y: 0.0028658088242212968
      z: 0.00007199971004526736
      w: 0.9999958897603349
  covariance: [0.00001, 0, 0, 0, 0, 0, 0, 0.00001, 0, 0, 0, 0, 0, 0, 1000000000000, 0, 0, 0, 0, 0, 0, 1000000000000, 0, 0, 0, 0, 0, 0, 1000000000000, 0, 0, 0, 0, 0, 0, 0.001]
twist:
  twist:
    linear:
      x: 0.0000010938344518170939
      y: -0.000000008590003479826812
      z: 0
    angular:
      x: 0
      y: 0
      z: -0.00000007248940092558058
  covariance: [0.00001, 0, 0, 0, 0, 0, 0, 0.00001, 0, 0, 0, 0, 0, 0, 1000000000000, 0, 0, 0, 0, 0, 0, 1000000000000, 0, 0, 0, 0, 0, 0, 1000000000000, 0, 0, 0, 0, 0, 0, 0.001]
---
header:
  stamp:
    sec: 5688
    nanosec: 277000000
  frame_id: odom
child_frame_id: base_footprint
pose:
  pose:
    position:
      x: -1.9449957108888984
      y: -0.49996257956270573
      z: 0.008533870177013066
    orientation:
      x: 0.00004917578946973904
      y: 0.002865936360876623
      z: 0.0000720001313167547
      w: 0.9999958893948008
  covariance: [0.00001, 0, 0, 0, 0, 0, 0, 0.00001, 0, 0, 0, 0, 0, 0, 1000000000000, 0, 0, 0, 0, 0, 0, 1000000000000, 0, 0, 0, 0, 0, 0, 1000000000000, 0, 0, 0, 0, 0, 0, 0.001]
twist:
  twist:
    linear:
      x: 0.000002693812504540884
      y: -0.0000000010092900571503493
      z: 0
    angular:
      x: 0
      y: 0
      z: -0.000000050860140446666055
  covariance: [0.00001, 0, 0, 0, 0, 0, 0, 0.00001, 0, 0, 0, 0, 0, 0, 1000000000000, 0, 0, 0, 0, 0, 0, 1000000000000, 0, 0, 0, 0, 0, 0, 1000000000000, 0, 0, 0, 0, 0, 0, 0.001]
---
header:
  stamp:
    sec: 5688
    nanosec: 311000000
  frame_id: odom
child_frame_id: base_footprint
pose:
  pose:
    position:
      x: -1.944995701800962
      y: -0.49996257955658496
      z: 0.008534522911683249
    orientation:
      x: 0.000049175624994662966
      y: 0.0028662977337273817
      z: 0.00007200056719160629
      w: 0.9999958883590362
  covariance: [0.00001, 0, 0, 0, 0, 0, 0, 0.00001, 0, 0, 0, 0, 0, 0, 1000000000000, 0, 0, 0, 0, 0, 0, 1000000000000, 0, 0, 0, 0, 0, 0, 1000000000000, 0, 0, 0, 0, 0, 0, 0.001]
twist:
  twist:
    linear:
      x: 0.000004625199029671186
      y: -0.000000002789542306336763
      z: 0
    angular:
      x: 0
      y: 0
      z: -0.0000000382687398008286
  covariance: [0.00001, 0, 0, 0, 0, 0, 0, 0.00001, 0, 0, 0, 0, 0, 0, 1000000000000, 0, 0, 0, 0, 0, 0, 1000000000000, 0, 0, 0, 0, 0, 0, 1000000000000, 0, 0, 0, 0, 0, 0, 0.001]
---
header:
  stamp:
    sec: 5688
    nanosec: 345000000
  frame_id: odom
child_frame_id: base_footprint
pose:
  pose:
    position:
      x: -1.9449956863059763
      y: -0.4999625795398133
      z: 0.008531717348228308
    orientation:
      x: 0.00004917529844731438
      y: 0.002866966570836594
      z: 0.00007200102917120993
      w: 0.9999958864417012
  covariance: [0.00001, 0, 0, 0, 0, 0, 0, 0.00001, 0, 0, 0, 0, 0, 0, 1000000000000, 0, 0, 0, 0, 0, 0, 1000000000000, 0, 0, 0, 0, 0, 0, 1000000000000, 0, 0, 0, 0, 0, 0, 0.001]
twist:
  twist:
    linear:
      x: 0.000004459738957638974
      y: -0.000000013768117061836187
      z: 0
    angular:
      x: 0
      y: 0
      z: -0.00000004838624640381594
  covariance: [0.00001, 0, 0, 0, 0, 0, 0, 0.00001, 0, 0, 0, 0, 0, 0, 1000000000000, 0, 0, 0, 0, 0, 0, 1000000000000, 0, 0, 0, 0, 0, 0, 1000000000000, 0, 0, 0, 0, 0, 0, 0.001]
---
header:
  stamp:
    sec: 5688
    nanosec: 379000000
  frame_id: odom
child_frame_id: base_footprint
pose:
  pose:
    position:
      x: -1.944995666366073
      y: -0.4999625794896929
      z: 0.00852584551973564
    orientation:
      x: 0.000049174859563570495
      y: 0.0028678564448364275
      z: 0.00007200151541717426
      w: 0.9999958838900422
  covariance: [0.00001, 0, 0, 0, 0, 0, 0, 0.00001, 0, 0, 0, 0, 0, 0, 1000000000000, 0, 0, 0, 0, 0, 0, 1000000000000, 0, 0, 0, 0, 0, 0, 1000000000000, 0, 0, 0, 0, 0, 0, 0.001]
twist:
  twist:
    linear:
      x: 0.0000024521278742966584
      y: -0.000000026756927108105087
      z: 0
    angular:
      x: 0
      y: 0
      z: -0.00000006178360714948247
  covariance: [0.00001, 0, 0, 0, 0, 0, 0, 0.00001, 0, 0, 0, 0, 0, 0, 1000000000000, 0, 0, 0, 0, 0, 0, 1000000000000, 0, 0, 0, 0, 0, 0, 1000000000000, 0, 0, 0, 0, 0, 0, 0.001]
---
header:
  stamp:
    sec: 5688
    nanosec: 413000000
  frame_id: odom
child_frame_id: base_footprint
pose:
  pose:
    position:
      x: -1.9449956544705909
      y: -0.4999625795663215
      z: 0.008532025433649547
    orientation:
      x: 0.000049174774096956756
      y: 0.002868345614865406
      z: 0.00007200197319459401
      w: 0.9999958824870187
  covariance: [0.00001, 0, 0, 0, 0, 0, 0, 0.00001, 0, 0, 0, 0, 0, 0, 1000000000000, 0, 0, 0, 0, 0, 0, 1000000000000, 0, 0, 0, 0, 0, 0, 1000000000000, 0, 0, 0, 0, 0, 0, 0.001]
twist:
  twist:
    linear:
      x: 0.000004405896644291897
      y: -0.000000005442358183491036
      z: 0
    angular:
      x: 0
      y: 0
      z: -0.00000005133069257411657
  covariance: [0.00001, 0, 0, 0, 0, 0, 0, 0.00001, 0, 0, 0, 0, 0, 0, 1000000000000, 0, 0, 0, 0, 0, 0, 1000000000000, 0, 0, 0, 0, 0, 0, 1000000000000, 0, 0, 0, 0, 0, 0, 0.001]
---
header:
  stamp:
    sec: 5688
    nanosec: 447000000
  frame_id: odom
child_frame_id: base_footprint
pose:
  pose:
    position:
      x: -1.944995650111783
      y: -0.4999625795653159
      z: 0.008533387630817367
    orientation:
      x: 0.00004917477757738266
      y: 0.002868454708399871
      z: 0.00007200238607072463
      w: 0.9999958821740635
  covariance: [0.00001, 0, 0, 0, 0, 0, 0, 0.00001, 0, 0, 0, 0, 0, 0, 1000000000000, 0, 0, 0, 0, 0, 0, 1000000000000, 0, 0, 0, 0, 0, 0, 1000000000000, 0, 0, 0, 0, 0, 0, 0.001]
twist:
  twist:
    linear:
      x: 0.000001942512266881469
      y: 0.000000000296653420200923
      z: 0
    angular:
      x: 0
      y: 0
      z: -0.00000006013130125433983
  covariance: [0.00001, 0, 0, 0, 0, 0, 0, 0.00001, 0, 0, 0, 0, 0, 0, 1000000000000, 0, 0, 0, 0, 0, 0, 1000000000000, 0, 0, 0, 0, 0, 0, 1000000000000, 0, 0, 0, 0, 0, 0, 0.001]
---
header:
  stamp:
    sec: 5688
    nanosec: 481000000
  frame_id: odom
child_frame_id: base_footprint
pose:
  pose:
    position:
      x: -1.944995670962077
      y: -0.4999625795031662
      z: 0.008526923921911343
    orientation:
      x: 0.00004917516164968878
      y: 0.0028673151440734407
      z: 0.00007200273924937701
      w: 0.9999958854421721
  covariance: [0.00001, 0, 0, 0, 0, 0, 0, 0.00001, 0, 0, 0, 0, 0, 0, 1000000000000, 0, 0, 0, 0, 0, 0, 1000000000000, 0, 0, 0, 0, 0, 0, 1000000000000, 0, 0, 0, 0, 0, 0, 0.001]
twist:
  twist:
    linear:
      x: 0.0000016981471630708179
      y: -0.000000027424259350461908
      z: 0
    angular:
      x: 0
      y: 0
      z: -0.00000007219452183178679
  covariance: [0.00001, 0, 0, 0, 0, 0, 0, 0.00001, 0, 0, 0, 0, 0, 0, 1000000000000, 0, 0, 0, 0, 0, 0, 1000000000000, 0, 0, 0, 0, 0, 0, 1000000000000, 0, 0, 0, 0, 0, 0, 0.001]
---
header:
  stamp:
    sec: 5688
    nanosec: 515000000
  frame_id: odom
child_frame_id: base_footprint
pose:
  pose:
    position:
      x: -1.9449956805158661
      y: -0.4999625795885912
      z: 0.008535558139075815
    orientation:
      x: 0.00004917552076467139
      y: 0.002866736177685765
      z: 0.00007200312026138838
      w: 0.9999958871020453
  covariance: [0.00001, 0, 0, 0, 0, 0, 0, 0.00001, 0, 0, 0, 0, 0, 0, 1000000000000, 0, 0, 0, 0, 0, 0, 1000000000000, 0, 0, 0, 0, 0, 0, 1000000000000, 0, 0, 0, 0, 0, 0, 0.001]
twist:
  twist:
    linear:
      x: 0.0000033112254472186673
      y: 0.0000000036845205556193276
      z: 0
    angular:
      x: 0
      y: 0
      z: -0.00000004991135405181429
  covariance: [0.00001, 0, 0, 0, 0, 0, 0, 0.00001, 0, 0, 0, 0, 0, 0, 1000000000000, 0, 0, 0, 0, 0, 0, 1000000000000, 0, 0, 0, 0, 0, 0, 1000000000000, 0, 0, 0, 0, 0, 0, 0.001]
---
header:
  stamp:
    sec: 5688
    nanosec: 549000000
  frame_id: odom
child_frame_id: base_footprint
pose:
  pose:
    position:
      x: -1.9449957043218236
      y: -0.49996257956023055
      z: 0.00853061277567671
    orientation:
      x: 0.00004917594768862138
      y: 0.00286544477531032
      z: 0.0000720034817242564
      w: 0.9999958908032897
  covariance: [0.00001, 0, 0, 0, 0, 0, 0, 0.00001, 0, 0, 0, 0, 0, 0, 1000000000000, 0, 0, 0, 0, 0, 0, 1000000000000, 0, 0, 0, 0, 0, 0, 1000000000000, 0, 0, 0, 0, 0, 0, 0.001]
twist:
  twist:
    linear:
      x: 0.0000030359317969539655
      y: -0.000000018373434596055872
      z: 0
    angular:
      x: 0
      y: 0
      z: -0.00000006293651498466007
  covariance: [0.00001, 0, 0, 0, 0, 0, 0, 0.00001, 0, 0, 0, 0, 0, 0, 1000000000000, 0, 0, 0, 0, 0, 0, 1000000000000, 0, 0, 0, 0, 0, 0, 1000000000000, 0, 0, 0, 0, 0, 0, 0.001]
---
header:
  stamp:
    sec: 5688
    nanosec: 583000000
  frame_id: odom
child_frame_id: base_footprint
pose:
  pose:
    position:
      x: -1.9449957119306607
      y: -0.4999625795200057
      z: 0.008528895727321364
    orientation:
      x: 0.00004917607769579489
      y: 0.002864965877283189
      z: 0.00007200386954313381
      w: 0.9999958921754021
  covariance: [0.00001, 0, 0, 0, 0, 0, 0, 0.00001, 0, 0, 0, 0, 0, 0, 1000000000000, 0, 0, 0, 0, 0, 0, 1000000000000, 0, 0, 0, 0, 0, 0, 1000000000000, 0, 0, 0, 0, 0, 0, 0.001]
twist:
  twist:
    linear:
      x: 0.000002399527506420904
      y: -0.000000028789050090757446
      z: 0
    angular:
      x: 0
      y: 0
      z: -0.00000006483930905450282
  covariance: [0.00001, 0, 0, 0, 0, 0, 0, 0.00001, 0, 0, 0, 0, 0, 0, 1000000000000, 0, 0, 0, 0, 0, 0, 1000000000000, 0, 0, 0, 0, 0, 0, 1000000000000, 0, 0, 0, 0, 0, 0, 0.001]
---
header:
  stamp:
    sec: 5688
    nanosec: 617000000
  frame_id: odom
child_frame_id: base_footprint
pose:
  pose:
    position:
      x: -1.9449957089829404
      y: -0.49996257951914863
      z: 0.008529060280824374
    orientation:
      x: 0.00004917601826762219
      y: 0.002865007811022393
      z: 0.00007200431500020461
      w: 0.9999958920552329
  covariance: [0.00001, 0, 0, 0, 0, 0, 0, 0.00001, 0, 0, 0, 0, 0, 0, 1000000000000, 0, 0, 0, 0, 0, 0, 1000000000000, 0, 0, 0, 0, 0, 0, 1000000000000, 0, 0, 0, 0, 0, 0, 0.001]
twist:
  twist:
    linear:
      x: 0.0000016818910796304346
      y: -0.00000001818243285491707
      z: 0
    angular:
      x: 0
      y: 0
      z: -0.00000006710787167261494
  covariance: [0.00001, 0, 0, 0, 0, 0, 0, 0.00001, 0, 0, 0, 0, 0, 0, 1000000000000, 0, 0, 0, 0, 0, 0, 1000000000000, 0, 0, 0, 0, 0, 0, 1000000000000, 0, 0, 0, 0, 0, 0, 0.001]
---
header:
  stamp:
    sec: 5688
    nanosec: 651000000
  frame_id: odom
child_frame_id: base_footprint
pose:
  pose:
    position:
      x: -1.9449956955615335
      y: -0.499962579604638
      z: 0.008532280297004605
    orientation:
      x: 0.00004917579715335363
      y: 0.002865565774915058
      z: 0.00007200477635888478
      w: 0.9999958904564773
  covariance: [0.00001, 0, 0, 0, 0, 0, 0, 0.00001, 0, 0, 0, 0, 0, 0, 1000000000000, 0, 0, 0, 0, 0, 0, 1000000000000, 0, 0, 0, 0, 0, 0, 1000000000000, 0, 0, 0, 0, 0, 0, 0.001]
twist:
  twist:
    linear:
      x: 0.000001970810167035855
      y: -0.0000000017641799567818388
      z: 0
    angular:
      x: 0
      y: 0
      z: -0.00000005547414052724097
  covariance: [0.00001, 0, 0, 0, 0, 0, 0, 0.00001, 0, 0, 0, 0, 0, 0, 1000000000000, 0, 0, 0, 0, 0, 0, 1000000000000, 0, 0, 0, 0, 0, 0, 1000000000000, 0, 0, 0, 0, 0, 0, 0.001]
---
header:
  stamp:
    sec: 5688
    nanosec: 685000000
  frame_id: odom
child_frame_id: base_footprint
pose:
  pose:
    position:
      x: -1.9449956764945973
      y: -0.49996257959126067
      z: 0.008534690761969523
    orientation:
      x: 0.00004917545485994648
      y: 0.002866427097165775
      z: 0.00007200521776045402
      w: 0.9999958879879057
  covariance: [0.00001, 0, 0, 0, 0, 0, 0, 0.00001, 0, 0, 0, 0, 0, 0, 1000000000000, 0, 0, 0, 0, 0, 0, 1000000000000, 0, 0, 0, 0, 0, 0, 1000000000000, 0, 0, 0, 0, 0, 0, 0.001]
twist:
  twist:
    linear:
      x: 0.000004105687558450843
      y: -0.0000000002136095609092468
      z: 0
    angular:
      x: 0
      y: 0
      z: -0.00000004098459535645176
  covariance: [0.00001, 0, 0, 0, 0, 0, 0, 0.00001, 0, 0, 0, 0, 0, 0, 1000000000000, 0, 0, 0, 0, 0, 0, 1000000000000, 0, 0, 0, 0, 0, 0, 1000000000000, 0, 0, 0, 0, 0, 0, 0.001]
---
header:
  stamp:
    sec: 5688
    nanosec: 719000000
  frame_id: odom
child_frame_id: base_footprint
pose:
  pose:
    position:
      x: -1.9449956525995082
      y: -0.49996257957697227
      z: 0.008533071186595957
    orientation:
      x: 0.00004917498129184257
      y: 0.002867520539420216
      z: 0.00007200569200240586
      w: 0.9999958848530117
  covariance: [0.00001, 0, 0, 0, 0, 0, 0, 0.00001, 0, 0, 0, 0, 0, 0, 1000000000000, 0, 0, 0, 0, 0, 0, 1000000000000, 0, 0, 0, 0, 0, 0, 1000000000000, 0, 0, 0, 0, 0, 0, 0.001]
twist:
  twist:
    linear:
      x: 0.00000512932597015326
      y: -0.000000010637017810201273
      z: 0
    angular:
      x: 0
      y: 0
      z: -0.00000004226933836988453
  covariance: [0.00001, 0, 0, 0, 0, 0, 0, 0.00001, 0, 0, 0, 0, 0, 0, 1000000000000, 0, 0, 0, 0, 0, 0, 1000000000000, 0, 0, 0, 0, 0, 0, 1000000000000, 0, 0, 0, 0, 0, 0, 0.001]
---
header:
  stamp:
    sec: 5688
    nanosec: 753000000
  frame_id: odom
child_frame_id: base_footprint
pose:
  pose:
    position:
      x: -1.9449956301225233
      y: -0.49996257950892065
      z: 0.008527276173858993
    orientation:
      x: 0.0000491745076529803
      y: 0.0028685346453779107
      z: 0.00007200620950845243
      w: 0.9999958819445017
  covariance: [0.00001, 0, 0, 0, 0, 0, 0, 0.00001, 0, 0, 0, 0, 0, 0, 1000000000000, 0, 0, 0, 0, 0, 0, 1000000000000, 0, 0, 0, 0, 0, 0, 1000000000000, 0, 0, 0, 0, 0, 0, 0.001]
twist:
  twist:
    linear:
      x: 0.0000016930874974938844
      y: -0.000000016942381518401676
      z: 0
    angular:
      x: 0
      y: 0
      z: -0.00000006621708970497535
  covariance: [0.00001, 0, 0, 0, 0, 0, 0, 0.00001, 0, 0, 0, 0, 0, 0, 1000000000000, 0, 0, 0, 0, 0, 0, 1000000000000, 0, 0, 0, 0, 0, 0, 1000000000000, 0, 0, 0, 0, 0, 0, 0.001]
---
header:
  stamp:
    sec: 5688
    nanosec: 787000000
  frame_id: odom
child_frame_id: base_footprint
pose:
  pose:
    position:
      x: -1.9449956215721964
      y: -0.499962579577389
      z: 0.008529729919068134
    orientation:
      x: 0.00004917444839442405
      y: 0.0028688577265444585
      z: 0.00007200663829445325
      w: 0.9999958810176482
  covariance: [0.00001, 0, 0, 0, 0, 0, 0, 0.00001, 0, 0, 0, 0, 0, 0, 1000000000000, 0, 0, 0, 0, 0, 0, 1000000000000, 0, 0, 0, 0, 0, 0, 1000000000000, 0, 0, 0, 0, 0, 0, 0.001]
twist:
  twist:
    linear:
      x: 0.000003742702038151922
      y: -0.000000011561535274672974
      z: 0
    angular:
      x: 0
      y: 0
      z: -0.00000005742541670933727
  covariance: [0.00001, 0, 0, 0, 0, 0, 0, 0.00001, 0, 0, 0, 0, 0, 0, 1000000000000, 0, 0, 0, 0, 0, 0, 1000000000000, 0, 0, 0, 0, 0, 0, 1000000000000, 0, 0, 0, 0, 0, 0, 0.001]
---
header:
  stamp:
    sec: 5688
    nanosec: 821000000
  frame_id: odom
child_frame_id: base_footprint
pose:
  pose:
    position:
      x: -1.9449956163684248
      y: -0.49996257959415025
      z: 0.00853379882123419
    orientation:
      x: 0.0000491744864726368
      y: 0.002869012436847788
      z: 0.00007200703792511193
      w: 0.999995880573762
  covariance: [0.00001, 0, 0, 0, 0, 0, 0, 0.00001, 0, 0, 0, 0, 0, 0, 1000000000000, 0, 0, 0, 0, 0, 0, 1000000000000, 0, 0, 0, 0, 0, 0, 1000000000000, 0, 0, 0, 0, 0, 0, 0.001]
twist:
  twist:
    linear:
      x: 0.000002653513719308714
      y: 0.000000001639890763162315
      z: 0
    angular:
      x: 0
      y: 0
      z: -0.000000054900114722340776
  covariance: [0.00001, 0, 0, 0, 0, 0, 0, 0.00001, 0, 0, 0, 0, 0, 0, 1000000000000, 0, 0, 0, 0, 0, 0, 1000000000000, 0, 0, 0, 0, 0, 0, 1000000000000, 0, 0, 0, 0, 0, 0, 0.001]
---
header:
  stamp:
    sec: 5688
    nanosec: 855000000
  frame_id: odom
child_frame_id: base_footprint
pose:
  pose:
    position:
      x: -1.9449956375992798
      y: -0.49996257950079137
      z: 0.008525855935930273
    orientation:
      x: 0.00004917487240568035
      y: 0.0028678507830911366
      z: 0.00007200741245993778
      w: 0.9999958839058541
  covariance: [0.00001, 0, 0, 0, 0, 0, 0, 0.00001, 0, 0, 0, 0, 0, 0, 1000000000000, 0, 0, 0, 0, 0, 0, 1000000000000, 0, 0, 0, 0, 0, 0, 1000000000000, 0, 0, 0, 0, 0, 0, 0.001]
twist:
  twist:
    linear:
      x: 0.000000966883945113021
      y: -0.000000022366869666841308
      z: 0
    angular:
      x: 0
      y: 0
      z: -0.00000007597365519502193
  covariance: [0.00001, 0, 0, 0, 0, 0, 0, 0.00001, 0, 0, 0, 0, 0, 0, 1000000000000, 0, 0, 0, 0, 0, 0, 1000000000000, 0, 0, 0, 0, 0, 0, 1000000000000, 0, 0, 0, 0, 0, 0, 0.001]
---
header:
  stamp:
    sec: 5688
    nanosec: 889000000
  frame_id: odom
child_frame_id: base_footprint
pose:
  pose:
    position:
      x: -1.944995650734971
      y: -0.49996257960452484
      z: 0.008534686606333865
    orientation:
      x: 0.00004917531543756756
      y: 0.0028670979531261053
      z: 0.00007200777534914775
      w: 0.9999958860645357
  covariance: [0.00001, 0, 0, 0, 0, 0, 0, 0.00001, 0, 0, 0, 0, 0, 0, 1000000000000, 0, 0, 0, 0, 0, 0, 1000000000000, 0, 0, 0, 0, 0, 0, 1000000000000, 0, 0, 0, 0, 0, 0, 0.001]
twist:
  twist:
    linear:
      x: 0.000003843857028315775
      y: -0.000000002967663935414049
      z: 0
    angular:
      x: 0
      y: 0
      z: -0.00000004837447921063065
  covariance: [0.00001, 0, 0, 0, 0, 0, 0, 0.00001, 0, 0, 0, 0, 0, 0, 1000000000000, 0, 0, 0, 0, 0, 0, 1000000000000, 0, 0, 0, 0, 0, 0, 1000000000000, 0, 0, 0, 0, 0, 0, 0.001]
---
header:
  stamp:
    sec: 5688
    nanosec: 923000000
  frame_id: odom
child_frame_id: base_footprint
pose:
  pose:
    position:
      x: -1.9449956615560249
      y: -0.49996257960018736
      z: 0.008531731551267175
    orientation:
      x: 0.000049175526667728705
      y: 0.0028664510503788425
      z: 0.00007200815155884522
      w: 0.9999958879190302
  covariance: [0.00001, 0, 0, 0, 0, 0, 0, 0.00001, 0, 0, 0, 0, 0, 0, 1000000000000, 0, 0, 0, 0, 0, 0, 1000000000000, 0, 0, 0, 0, 0, 0, 1000000000000, 0, 0, 0, 0, 0, 0, 0.001]
twist:
  twist:
    linear:
      x: 0.000003702886873288372
      y: -0.000000013990732740719805
      z: 0
    angular:
      x: 0
      y: 0
      z: -0.00000005598621777305431
  covariance: [0.00001, 0, 0, 0, 0, 0, 0, 0.00001, 0, 0, 0, 0, 0, 0, 1000000000000, 0, 0, 0, 0, 0, 0, 1000000000000, 0, 0, 0, 0, 0, 0, 1000000000000, 0, 0, 0, 0, 0, 0, 0.001]
---
header:
  stamp:
    sec: 5688
    nanosec: 957000000
  frame_id: odom
child_frame_id: base_footprint
pose:
  pose:
    position:
      x: -1.9449956620877304
      y: -0.4999625795704048
      z: 0.008529542540348314
    orientation:
      x: 0.00004917553198579211
      y: 0.0028663239176974897
      z: 0.00007200858920652604
      w: 0.9999958882834115
  covariance: [0.00001, 0, 0, 0, 0, 0, 0, 0.00001, 0, 0, 0, 0, 0, 0, 1000000000000, 0, 0, 0, 0, 0, 0, 1000000000000, 0, 0, 0, 0, 0, 0, 1000000000000, 0, 0, 0, 0, 0, 0, 0.001]
twist:
  twist:
    linear:
      x: 0.000003073954442406547
      y: -0.000000023564720151655862
      z: 0
    angular:
      x: 0
      y: 0
      z: -0.00000005825168036912862
  covariance: [0.00001, 0, 0, 0, 0, 0, 0, 0.00001, 0, 0, 0, 0, 0, 0, 1000000000000, 0, 0, 0, 0, 0, 0, 1000000000000, 0, 0, 0, 0, 0, 0, 1000000000000, 0, 0, 0, 0, 0, 0, 0.001]
---
header:
  stamp:
    sec: 5688
    nanosec: 991000000
  frame_id: odom
child_frame_id: base_footprint
pose:
  pose:
    position:
      x: -1.9449956523130913
      y: -0.49996257950785
      z: 0.008528683308727112
    orientation:
      x: 0.00004917534919812253
      y: 0.0028667166268460972
      z: 0.00007200904328102966
      w: 0.9999958871576744
  covariance: [0.00001, 0, 0, 0, 0, 0, 0, 0.00001, 0, 0, 0, 0, 0, 0, 1000000000000, 0, 0, 0, 0, 0, 0, 1000000000000, 0, 0, 0, 0, 0, 0, 1000000000000, 0, 0, 0, 0, 0, 0, 0.001]
twist:
  twist:
    linear:
      x: 0.000002389625692243464
      y: -0.000000024199000457461485
      z: 0
    angular:
      x: 0
      y: 0
      z: -0.00000006315923201477927
  covariance: [0.00001, 0, 0, 0, 0, 0, 0, 0.00001, 0, 0, 0, 0, 0, 0, 1000000000000, 0, 0, 0, 0, 0, 0, 1000000000000, 0, 0, 0, 0, 0, 0, 1000000000000, 0, 0, 0, 0, 0, 0, 0.001]
---
header:
  stamp:
    sec: 5689
    nanosec: 25000000
  frame_id: odom
child_frame_id: base_footprint
pose:
  pose:
    position:
      x: -1.9449956317845793
      y: -0.49996257957263157
      z: 0.00853018359419977
    orientation:
      x: 0.000049175002137121374
      y: 0.0028676254752094286
      z: 0.00007200951329859672
      w: 0.9999958845518232
  covariance: [0.00001, 0, 0, 0, 0, 0, 0, 0.00001, 0, 0, 0, 0, 0, 0, 1000000000000, 0, 0, 0, 0, 0, 0, 1000000000000, 0, 0, 0, 0, 0, 0, 1000000000000, 0, 0, 0, 0, 0, 0, 0.001]
twist:
  twist:
    linear:
      x: 0.0000018043408838299189
      y: -0.00000000837089263478055
      z: 0
    angular:
      x: 0
      y: 0
      z: -0.00000006563087780102652
  covariance: [0.00001, 0, 0, 0, 0, 0, 0, 0.00001, 0, 0, 0, 0, 0, 0, 1000000000000, 0, 0, 0, 0, 0, 0, 1000000000000, 0, 0, 0, 0, 0, 0, 1000000000000, 0, 0, 0, 0, 0, 0, 0.001]
---
header:
  stamp:
    sec: 5689
    nanosec: 59000000
  frame_id: odom
child_frame_id: base_footprint
pose:
  pose:
    position:
      x: -1.9449956234403167
      y: -0.49996257961392077
      z: 0.008529670307245121
    orientation:
      x: 0.000049174880614669734
      y: 0.0028679409552493816
      z: 0.00007200996334225972
      w: 0.9999958836470646
  covariance: [0.00001, 0, 0, 0, 0, 0, 0, 0.00001, 0, 0, 0, 0, 0, 0, 1000000000000, 0, 0, 0, 0, 0, 0, 1000000000000, 0, 0, 0, 0, 0, 0, 1000000000000, 0, 0, 0, 0, 0, 0, 0.001]
twist:
  twist:
    linear:
      x: 0.000003731664035320095
      y: -0.000000011453837453991024
      z: 0
    angular:
      x: 0
      y: 0
      z: -0.000000054440064998764034
  covariance: [0.00001, 0, 0, 0, 0, 0, 0, 0.00001, 0, 0, 0, 0, 0, 0, 1000000000000, 0, 0, 0, 0, 0, 0, 1000000000000, 0, 0, 0, 0, 0, 0, 1000000000000, 0, 0, 0, 0, 0, 0, 0.001]
---
header:
  stamp:
    sec: 5689
    nanosec: 93000000
  frame_id: odom
child_frame_id: base_footprint
pose:
  pose:
    position:
      x: -1.9449956184700306
      y: -0.4999625796298853
      z: 0.008533797338767217
    orientation:
      x: 0.0000491749024612003
      y: 0.0028680839029712273
      z: 0.00007201039172710764
      w: 0.9999958832370552
  covariance: [0.00001, 0, 0, 0, 0, 0, 0, 0.00001, 0, 0, 0, 0, 0, 0, 1000000000000, 0, 0, 0, 0, 0, 0, 1000000000000, 0, 0, 0, 0, 0, 0, 1000000000000, 0, 0, 0, 0, 0, 0, 0.001]
twist:
  twist:
    linear:
      x: 0.000002647680795044205
      y: 0.0000000016536746664158813
      z: 0
    angular:
      x: 0
      y: 0
      z: -0.000000055086358110960306
  covariance: [0.00001, 0, 0, 0, 0, 0, 0, 0.00001, 0, 0, 0, 0, 0, 0, 1000000000000, 0, 0, 0, 0, 0, 0, 1000000000000, 0, 0, 0, 0, 0, 0, 1000000000000, 0, 0, 0, 0, 0, 0, 0.001]
---
header:
  stamp:
    sec: 5689
    nanosec: 127000000
  frame_id: odom
child_frame_id: base_footprint
pose:
  pose:
    position:
      x: -1.944995635648251
      y: -0.4999625795548602
      z: 0.008529030632084315
    orientation:
      x: 0.00004917522878404417
      y: 0.0028671310198022776
      z: 0.00007201073801541309
      w: 0.9999958859695203
  covariance: [0.00001, 0, 0, 0, 0, 0, 0, 0.00001, 0, 0, 0, 0, 0, 0, 1000000000000, 0, 0, 0, 0, 0, 0, 1000000000000, 0, 0, 0, 0, 0, 0, 1000000000000, 0, 0, 0, 0, 0, 0, 0.001]
twist:
  twist:
    linear:
      x: 0.0000023793292808787384
      y: -0.00000002812931098123033
      z: 0
    angular:
      x: 0
      y: 0
      z: -0.00000006836799803314501
  covariance: [0.00001, 0, 0, 0, 0, 0, 0, 0.00001, 0, 0, 0, 0, 0, 0, 1000000000000, 0, 0, 0, 0, 0, 0, 1000000000000, 0, 0, 0, 0, 0, 0, 1000000000000, 0, 0, 0, 0, 0, 0, 0.001]
---
header:
  stamp:
    sec: 5689
    nanosec: 161000000
  frame_id: odom
child_frame_id: base_footprint
pose:
  pose:
    position:
      x: -1.9449956472773398
      y: -0.4999625796524146
      z: 0.008534228513564045
    orientation:
