---
header:
  stamp:
    sec: 36
    nanosec: 808000000
  frame_id: odom
child_frame_id: base_footprint
pose:
  pose:
    position:
      x: -1.9997706659453611
      y: -0.5000009972611305
      z: 0.008529030019440388
    orientation:
      x: 0.00004935756206566122
      y: 0.0028594775900250766
      z: 0.0000007094527349510172
      w: 0.9999959104672578
  covariance:
    - 0.00001
    - 0
    - 0
    - 0
    - 0
    - 0
    - 0
    - 0.00001
    - 0
    - 0
    - 0
    - 0
    - 0
    - 0
    - 1000000000000
    - 0
    - 0
    - 0
    - 0
    - 0
    - 0
    - 1000000000000
    - 0
    - 0
    - 0
    - 0
    - 0
    - 0
    - 1000000000000
    - 0
    - 0
    - 0
    - 0
    - 0
    - 0
    - 0.001
twist:
  twist:
    linear:
      x: 0.004834956388251327
      y: -0.00000003012568538103284
      z: 0
    angular:
      x: 0
      y: 0
      z: 0.000004528083507017723
  covariance:
    - 0.00001
    - 0
    - 0
    - 0
    - 0
    - 0
    - 0
    - 0.00001
    - 0
    - 0
    - 0
    - 0
    - 0
    - 0
    - 1000000000000
    - 0
    - 0
    - 0
    - 0
    - 0
    - 0
    - 1000000000000
    - 0
    - 0
    - 0
    - 0
    - 0
    - 0
    - 1000000000000
    - 0
    - 0
    - 0
    - 0
    - 0
    - 0
    - 0.001
---
header:
  stamp:
    sec: 36
    nanosec: 842000000
  frame_id: odom
child_frame_id: base_footprint
pose:
  pose:
    position:
      x: -1.999600865223753
      y: -0.5000009978997165
      z: 0.008530124659754302
    orientation:
      x: 0.000049356760118329126
      y: 0.002852795833654474
      z: 0.0000007141257126952937
      w: 0.9999959295513817
  covariance:
    - 0.00001
    - 0
    - 0
    - 0
    - 0
    - 0
    - 0
    - 0.00001
    - 0
    - 0
    - 0
    - 0
    - 0
    - 0
    - 1000000000000
    - 0
    - 0
    - 0
    - 0
    - 0
    - 0
    - 1000000000000
    - 0
    - 0
    - 0
    - 0
    - 0
    - 0
    - 1000000000000
    - 0
    - 0
    - 0
    - 0
    - 0
    - 0
    - 0.001
twist:
  twist:
    linear:
      x: 0.0048470229032732196
      y: -0.0000000666225444649293
      z: 0
    angular:
      x: 0
      y: 0
      z: -0.000003610715275459585
  covariance:
    - 0.00001
    - 0
    - 0
    - 0
    - 0
    - 0
    - 0
    - 0.00001
    - 0
    - 0
    - 0
    - 0
    - 0
    - 0
    - 1000000000000
    - 0
    - 0
    - 0
    - 0
    - 0
    - 0
    - 1000000000000
    - 0
    - 0
    - 0
    - 0
    - 0
    - 0
    - 1000000000000
    - 0
    - 0
    - 0
    - 0
    - 0
    - 0
    - 0.001
---
header:
  stamp:
    sec: 36
    nanosec: 876000000
  frame_id: odom
child_frame_id: base_footprint
pose:
  pose:
    position:
      x: -1.9994309734782048
      y: -0.5000009984455778
      z: 0.008533727085275184
    orientation:
      x: 0.00004935570321236867
      y: 0.0028471922587405135
      z: 0.0000006498826668899443
      w: 0.9999959455216976
  covariance:
    - 0.00001
    - 0
    - 0
    - 0
    - 0
    - 0
    - 0
    - 0.00001
    - 0
    - 0
    - 0
    - 0
    - 0
    - 0
    - 1000000000000
    - 0
    - 0
    - 0
    - 0
    - 0
    - 0
    - 1000000000000
    - 0
    - 0
    - 0
    - 0
    - 0
    - 0
    - 1000000000000
    - 0
    - 0
    - 0
    - 0
    - 0
    - 0
    - 0.001
twist:
  twist:
    linear:
      x: 0.004874355038907277
      y: -0.000000048686666104414966
      z: 0
    angular:
      x: 0
      y: 0
      z: -0.0000020472861527446208
  covariance:
    - 0.00001
    - 0
    - 0
    - 0
    - 0
    - 0
    - 0
    - 0.00001
    - 0
    - 0
    - 0
    - 0
    - 0
    - 0
    - 1000000000000
    - 0
    - 0
    - 0
    - 0
    - 0
    - 0
    - 1000000000000
    - 0
    - 0
    - 0
    - 0
    - 0
    - 0
    - 1000000000000
    - 0
    - 0
    - 0
    - 0
    - 0
    - 0
    - 0.001
---
header:
  stamp:
    sec: 36
    nanosec: 910000000
  frame_id: odom
child_frame_id: base_footprint
pose:
  pose:
    position:
      x: -1.9990912258108848
      y: -0.5000009994843904
      z: 0.008533805400906118
    orientation:
      x: 0.00004935290765067664
      y: 0.0028367029286981336
      z: 0.0000007617349990605503
      w: 0.9999959753320034
  covariance:
    - 0.00001
    - 0
    - 0
    - 0
    - 0
    - 0
    - 0
    - 0.00001
    - 0
    - 0
    - 0
    - 0
    - 0
    - 0
    - 1000000000000
    - 0
    - 0
    - 0
    - 0
    - 0
    - 0
    - 1000000000000
    - 0
    - 0
    - 0
    - 0
    - 0
    - 0
    - 1000000000000
    - 0
    - 0
    - 0
    - 0
    - 0
    - 0
    - 0.001
twist:
  twist:
    linear:
      x: 0.009743248280013536
      y: -0.000000053400412421854655
      z: 0
    angular:
      x: 0
      y: 0
      z: 0.000007221885021760614
  covariance:
    - 0.00001
    - 0
    - 0
    - 0
    - 0
    - 0
    - 0
    - 0.00001
    - 0
    - 0
    - 0
    - 0
    - 0
    - 0
    - 1000000000000
    - 0
    - 0
    - 0
    - 0
    - 0
    - 0
    - 1000000000000
    - 0
    - 0
    - 0
    - 0
    - 0
    - 0
    - 1000000000000
    - 0
    - 0
    - 0
    - 0
    - 0
    - 0
    - 0.001
---
header:
  stamp:
    sec: 36
    nanosec: 944000000
  frame_id: odom
child_frame_id: base_footprint
pose:
  pose:
    position:
      x: -1.9987514798037944
      y: -0.5000010005838266
      z: 0.008534178862787054
    orientation:
      x: 0.00004934904760061824
      y: 0.002828261052034278
      z: 0.0000008010336368454402
      w: 0.9999959992437227
  covariance:
    - 0.00001
    - 0
    - 0
    - 0
    - 0
    - 0
    - 0
    - 0.00001
    - 0
    - 0
    - 0
    - 0
    - 0
    - 0
    - 1000000000000
    - 0
    - 0
    - 0
    - 0
    - 0
    - 0
    - 1000000000000
    - 0
    - 0
    - 0
    - 0
    - 0
    - 0
    - 1000000000000
    - 0
    - 0
    - 0
    - 0
    - 0
    - 0
    - 0.001
twist:
  twist:
    linear:
      x: 0.00975543574737588
      y: -0.00000010708747653599286
      z: 0
    angular:
      x: 0
      y: 0
      z: -0.0000030532865043297286
  covariance:
    - 0.00001
    - 0
    - 0
    - 0
    - 0
    - 0
    - 0
    - 0.00001
    - 0
    - 0
    - 0
    - 0
    - 0
    - 0
    - 1000000000000
    - 0
    - 0
    - 0
    - 0
    - 0
    - 0
    - 1000000000000
    - 0
    - 0
    - 0
    - 0
    - 0
    - 0
    - 1000000000000
    - 0
    - 0
    - 0
    - 0
    - 0
    - 0
    - 0.001
---
header:
  stamp:
    sec: 36
    nanosec: 978000000
  frame_id: odom
child_frame_id: base_footprint
pose:
  pose:
    position:
      x: -1.9984115657292436
      y: -0.5000010016115681
      z: 0.008538741203565136
    orientation:
      x: 0.000049344060429861094
      y: 0.002824136028287486
      z: 0.0000007198685269542877
      w: 0.9999960109022131
  covariance:
    - 0.00001
    - 0
    - 0
    - 0
    - 0
    - 0
    - 0
    - 0.00001
    - 0
    - 0
    - 0
    - 0
    - 0
    - 0
    - 1000000000000
    - 0
    - 0
    - 0
    - 0
    - 0
    - 0
    - 1000000000000
    - 0
    - 0
    - 0
    - 0
    - 0
    - 0
    - 1000000000000
    - 0
    - 0
    - 0
    - 0
    - 0
    - 0
    - 0.001
twist:
  twist:
    linear:
      x: 0.009805557938446712
      y: -0.00000008193744165562601
      z: 0
    angular:
      x: 0
      y: 0
      z: -0.000003615348650050904
  covariance:
    - 0.00001
    - 0
    - 0
    - 0
    - 0
    - 0
    - 0
    - 0.00001
    - 0
    - 0
    - 0
    - 0
    - 0
    - 0
    - 1000000000000
    - 0
    - 0
    - 0
    - 0
    - 0
    - 0
    - 1000000000000
    - 0
    - 0
    - 0
    - 0
    - 0
    - 0
    - 1000000000000
    - 0
    - 0
    - 0
    - 0
    - 0
    - 0
    - 0.001
---
header:
  stamp:
    sec: 37
    nanosec: 12000000
  frame_id: odom
child_frame_id: base_footprint
pose:
  pose:
    position:
      x: -1.9980714991459818
      y: -0.50000100257078
      z: 0.008540039962266592
    orientation:
      x: 0.000049337380045281234
      y: 0.00282433616881386
      z: 0.0000007082849769553005
      w: 0.9999960103373048
  covariance:
    - 0.00001
    - 0
    - 0
    - 0
    - 0
    - 0
    - 0
    - 0.00001
    - 0
    - 0
    - 0
    - 0
    - 0
    - 0
    - 1000000000000
    - 0
    - 0
    - 0
    - 0
    - 0
    - 0
    - 1000000000000
    - 0
    - 0
    - 0
    - 0
    - 0
    - 0
    - 1000000000000
    - 0
    - 0
    - 0
    - 0
    - 0
    - 0
    - 0.001
twist:
  twist:
    linear:
      x: 0.010029678363807519
      y: -0.000000052410999780146205
      z: 0
    angular:
      x: 0
      y: 0
      z: 0.0000026453581515478186
  covariance:
    - 0.00001
    - 0
    - 0
    - 0
    - 0
    - 0
    - 0
    - 0.00001
    - 0
    - 0
    - 0
    - 0
    - 0
    - 0
    - 1000000000000
    - 0
    - 0
    - 0
    - 0
    - 0
    - 0
    - 1000000000000
    - 0
    - 0
    - 0
    - 0
    - 0
    - 0
    - 1000000000000
    - 0
    - 0
    - 0
    - 0
    - 0
    - 0
    - 0.001
---
header:
  stamp:
    sec: 37
    nanosec: 46000000
  frame_id: odom
child_frame_id: base_footprint
pose:
  pose:
    position:
      x: -1.9977314222224183
      y: -0.5000010034368755
      z: 0.008533540835723613
    orientation:
      x: 0.00004932918216740942
      y: 0.0028284384182646815
      z: 0.0000007469729632548721
      w: 0.999995998743089
  covariance:
    - 0.00001
    - 0
    - 0
    - 0
    - 0
    - 0
    - 0
    - 0.00001
    - 0
    - 0
    - 0
    - 0
    - 0
    - 0
    - 1000000000000
    - 0
    - 0
    - 0
    - 0
    - 0
    - 0
    - 1000000000000
    - 0
    - 0
    - 0
    - 0
    - 0
    - 0
    - 1000000000000
    - 0
    - 0
    - 0
    - 0
    - 0
    - 0
    - 0.001
twist:
  twist:
    linear:
      x: 0.009858485586992127
      y: -0.00000008242740676381417
      z: 0
    angular:
      x: 0
      y: 0
      z: 0.0000008493012378498348
  covariance:
    - 0.00001
    - 0
    - 0
    - 0
    - 0
    - 0
    - 0
    - 0.00001
    - 0
    - 0
    - 0
    - 0
    - 0
    - 0
    - 1000000000000
    - 0
    - 0
    - 0
    - 0
    - 0
    - 0
    - 1000000000000
    - 0
    - 0
    - 0
    - 0
    - 0
    - 0
    - 1000000000000
    - 0
    - 0
    - 0
    - 0
    - 0
    - 0
    - 0.001
---
header:
  stamp:
    sec: 37
    nanosec: 80000000
  frame_id: odom
child_frame_id: base_footprint
pose:
  pose:
    position:
      x: -1.9973912727082266
      y: -0.5000010045146732
      z: 0.008536657224484873
    orientation:
      x: 0.0000493202289871999
      y: 0.0028365493613042242
      z: 0.0000007359344371686996
      w: 0.99999597576925
  covariance:
    - 0.00001
    - 0
    - 0
    - 0
    - 0
    - 0
    - 0
    - 0.00001
    - 0
    - 0
    - 0
    - 0
    - 0
    - 0
    - 1000000000000
    - 0
    - 0
    - 0
    - 0
    - 0
    - 0
    - 1000000000000
    - 0
    - 0
    - 0
    - 0
    - 0
    - 0
    - 1000000000000
    - 0
    - 0
    - 0
    - 0
    - 0
    - 0
    - 0.001
twist:
  twist:
    linear:
      x: 0.009893098380262415
      y: -0.00000007327598791018851
      z: 0
    angular:
      x: 0
      y: 0
      z: -0.0000016264956710106035
  covariance:
    - 0.00001
    - 0
    - 0
    - 0
    - 0
    - 0
    - 0
    - 0.00001
    - 0
    - 0
    - 0
    - 0
    - 0
    - 0
    - 1000000000000
    - 0
    - 0
    - 0
    - 0
    - 0
    - 0
    - 1000000000000
    - 0
    - 0
    - 0
    - 0
    - 0
    - 0
    - 1000000000000
    - 0
    - 0
    - 0
    - 0
    - 0
    - 0
    - 0.001
---
header:
  stamp:
    sec: 37
    nanosec: 114000000
  frame_id: odom
child_frame_id: base_footprint
pose:
  pose:
    position:
      x: -1.9970510183808827
      y: -0.500001005473791
      z: 0.008537484074331811
    orientation:
      x: 0.00004931083299526308
      y: 0.002847460495989383
      z: 0.0000007112788174186868
      w: 0.9999959447601074
  covariance:
    - 0.00001
    - 0
    - 0
    - 0
    - 0
    - 0
    - 0
    - 0.00001
    - 0
    - 0
    - 0
    - 0
    - 0
    - 0
    - 1000000000000
    - 0
    - 0
    - 0
    - 0
    - 0
    - 0
    - 1000000000000
    - 0
    - 0
    - 0
    - 0
    - 0
    - 0
    - 1000000000000
    - 0
    - 0
    - 0
    - 0
    - 0
    - 0
    - 0.001
twist:
  twist:
    linear:
      x: 0.010025133593720986
      y: -0.00000004434186904216152
      z: 0
    angular:
      x: 0
      y: 0
      z: -0.00000018925402678718686
  covariance:
    - 0.00001
    - 0
    - 0
    - 0
    - 0
    - 0
    - 0
    - 0.00001
    - 0
    - 0
    - 0
    - 0
    - 0
    - 0
    - 1000000000000
    - 0
    - 0
    - 0
    - 0
    - 0
    - 0
    - 1000000000000
    - 0
    - 0
    - 0
    - 0
    - 0
    - 0
    - 1000000000000
    - 0
    - 0
    - 0
    - 0
    - 0
    - 0
    - 0.001
---
header:
  stamp:
    sec: 37
    nanosec: 148000000
  frame_id: odom
child_frame_id: base_footprint
pose:
  pose:
    position:
      x: -1.9967108097560244
      y: -0.5000010064243249
      z: 0.008530996016982732
    orientation:
      x: 0.000049301663554503215
      y: 0.002858599976612306
      z: 0.0000007176608464044503
      w: 0.9999959129791506
  covariance:
    - 0.00001
    - 0
    - 0
    - 0
    - 0
    - 0
    - 0
    - 0.00001
    - 0
    - 0
    - 0
    - 0
    - 0
    - 0
    - 1000000000000
    - 0
    - 0
    - 0
    - 0
    - 0
    - 0
    - 1000000000000
    - 0
    - 0
    - 0
    - 0
    - 0
    - 0
    - 1000000000000
    - 0
    - 0
    - 0
    - 0
    - 0
    - 0
    - 0.001
twist:
  twist:
    linear:
      x: 0.009925406368940955
      y: -0.00000006467720912650254
      z: 0
    angular:
      x: 0
      y: 0
      z: 0.0000009259296410210872
  covariance:
    - 0.00001
    - 0
    - 0
    - 0
    - 0
    - 0
    - 0
    - 0.00001
    - 0
    - 0
    - 0
    - 0
    - 0
    - 0
    - 1000000000000
    - 0
    - 0
    - 0
    - 0
    - 0
    - 0
    - 1000000000000
    - 0
    - 0
    - 0
    - 0
    - 0
    - 0
    - 1000000000000
    - 0
    - 0
    - 0
    - 0
    - 0
    - 0
    - 0.001
---
header:
  stamp:
    sec: 37
    nanosec: 182000000
  frame_id: odom
child_frame_id: base_footprint
pose:
  pose:
    position:
      x: -1.9963705634936588
      y: -0.5000010074633573
      z: 0.008534586762082106
    orientation:
      x: 0.000049292958717278
      y: 0.002870340512239821
      z: 0.0000007271944454590021
      w: 0.9999958793490198
  covariance:
    - 0.00001
    - 0
    - 0
    - 0
    - 0
    - 0
    - 0
    - 0.00001
    - 0
    - 0
    - 0
    - 0
    - 0
    - 0
    - 1000000000000
    - 0
    - 0
    - 0
    - 0
    - 0
    - 0
    - 1000000000000
    - 0
    - 0
    - 0
    - 0
    - 0
    - 0
    - 1000000000000
    - 0
    - 0
    - 0
    - 0
    - 0
    - 0
    - 0.001
twist:
  twist:
    linear:
      x: 0.010021179432340013
      y: -0.00000004095746475394432
      z: 0
    angular:
      x: 0
      y: 0
      z: 0.0000002806600124446365
  covariance:
    - 0.00001
    - 0
    - 0
    - 0
    - 0
    - 0
    - 0
    - 0.00001
    - 0
    - 0
    - 0
    - 0
    - 0
    - 0
    - 1000000000000
    - 0
    - 0
    - 0
    - 0
    - 0
    - 0
    - 1000000000000
    - 0
    - 0
    - 0
    - 0
    - 0
    - 0
    - 1000000000000
    - 0
    - 0
    - 0
    - 0
    - 0
    - 0
    - 0.001
---
header:
  stamp:
    sec: 37
    nanosec: 216000000
  frame_id: odom
child_frame_id: base_footprint
pose:
  pose:
    position:
      x: -1.9960303801872616
      y: -0.5000010083862964
      z: 0.008525430234076122
    orientation:
      x: 0.000049285510742197565
      y: 0.0028796289026133447
      z: 0.0000007183601613795701
      w: 0.9999958526453026
  covariance:
    - 0.00001
    - 0
    - 0
    - 0
    - 0
    - 0
    - 0
    - 0.00001
    - 0
    - 0
    - 0
    - 0
    - 0
    - 0
    - 1000000000000
    - 0
    - 0
    - 0
    - 0
    - 0
    - 0
    - 1000000000000
    - 0
    - 0
    - 0
    - 0
    - 0
    - 0
    - 1000000000000
    - 0
    - 0
    - 0
    - 0
    - 0
    - 0
    - 0.001
twist:
  twist:
    linear:
      x: 0.009944476548498438
      y: -0.00000007313022759031871
      z: 0
    angular:
      x: 0
      y: 0
      z: -0.0000008926047502832727
  covariance:
    - 0.00001
    - 0
    - 0
    - 0
    - 0
    - 0
    - 0
    - 0.00001
    - 0
    - 0
    - 0
    - 0
    - 0
    - 0
    - 1000000000000
    - 0
    - 0
    - 0
    - 0
    - 0
    - 0
    - 1000000000000
    - 0
    - 0
    - 0
    - 0
    - 0
    - 0
    - 1000000000000
    - 0
    - 0
    - 0
    - 0
    - 0
    - 0
    - 0.001
---
header:
  stamp:
    sec: 37
    nanosec: 250000000
  frame_id: odom
child_frame_id: base_footprint
pose:
  pose:
    position:
      x: -1.9956902289280247
      y: -0.5000010095442506
      z: 0.008531927581960154
    orientation:
      x: 0.000049279549770081565
      y: 0.0028866630387992523
      z: 0.000000714025243770858
      w: 0.9999958323650737
  covariance:
    - 0.00001
    - 0
    - 0
    - 0
    - 0
    - 0
    - 0
    - 0.00001
    - 0
    - 0
    - 0
    - 0
    - 0
    - 0
    - 1000000000000
    - 0
    - 0
    - 0
    - 0
    - 0
    - 0
    - 1000000000000
    - 0
    - 0
    - 0
    - 0
    - 0
    - 0
    - 1000000000000
    - 0
    - 0
    - 0
    - 0
    - 0
    - 0
    - 0.001
twist:
  twist:
    linear:
      x: 0.010015250319141572
      y: -0.00000004057373839463309
      z: 0
    angular:
      x: 0
      y: 0
      z: 0.0000003530656141816161
  covariance:
    - 0.00001
    - 0
    - 0
    - 0
    - 0
    - 0
    - 0
    - 0.00001
    - 0
    - 0
    - 0
    - 0
    - 0
    - 0
    - 1000000000000
    - 0
    - 0
    - 0
    - 0
    - 0
    - 0
    - 1000000000000
    - 0
    - 0
    - 0
    - 0
    - 0
    - 0
    - 1000000000000
    - 0
    - 0
    - 0
    - 0
    - 0
    - 0
    - 0.001
---
header:
  stamp:
    sec: 37
    nanosec: 284000000
  frame_id: odom
child_frame_id: base_footprint
pose:
  pose:
    position:
      x: -1.9953501814536694
      y: -0.5000010106021213
      z: 0.008524637647404272
    orientation:
      x: 0.00004927525250771153
      y: 0.0028893535226597374
      z: 0.0000007186473336119305
      w: 0.9999958245951102
  covariance:
    - 0.00001
    - 0
    - 0
    - 0
    - 0
    - 0
    - 0
    - 0.00001
    - 0
    - 0
    - 0
    - 0
    - 0
    - 0
    - 1000000000000
    - 0
    - 0
    - 0
    - 0
    - 0
    - 0
    - 1000000000000
    - 0
    - 0
    - 0
    - 0
    - 0
    - 0
    - 1000000000000
    - 0
    - 0
    - 0
    - 0
    - 0
    - 0
    - 0.001
twist:
  twist:
    linear:
      x: 0.009959800781857122
      y: -0.0000000656620063841061
      z: 0
    angular:
      x: 0
      y: 0
      z: 0.00000011295873808209152
  covariance:
    - 0.00001
    - 0
    - 0
    - 0
    - 0
    - 0
    - 0
    - 0.00001
    - 0
    - 0
    - 0
    - 0
    - 0
    - 0
    - 1000000000000
    - 0
    - 0
    - 0
    - 0
    - 0
    - 0
    - 1000000000000
    - 0
    - 0
    - 0
    - 0
    - 0
    - 0
    - 1000000000000
    - 0
    - 0
    - 0
    - 0
    - 0
    - 0
    - 0.001
---
header:
  stamp:
    sec: 37
    nanosec: 318000000
  frame_id: odom
child_frame_id: base_footprint
pose:
  pose:
    position:
      x: -1.9948404108090823
      y: -0.5000010123386295
      z: 0.00852990222107331
    orientation:
      x: 0.000049271960543794206
      y: 0.002882024333087881
      z: 0.0000008170033164662517
      w: 0.9999958457450461
  covariance:
    - 0.00001
    - 0
    - 0
    - 0
    - 0
    - 0
    - 0
    - 0.00001
    - 0
    - 0
    - 0
    - 0
    - 0
    - 0
    - 1000000000000
    - 0
    - 0
    - 0
    - 0
    - 0
    - 0
    - 1000000000000
    - 0
    - 0
    - 0
    - 0
    - 0
    - 0
    - 1000000000000
    - 0
    - 0
    - 0
    - 0
    - 0
    - 0
    - 0.001
twist:
  twist:
    linear:
      x: 0.015023170391933051
      y: -0.00000007068346184821022
      z: 0
    angular:
      x: 0
      y: 0
      z: 0.000005061703099576656
  covariance:
    - 0.00001
    - 0
    - 0
    - 0
    - 0
    - 0
    - 0
    - 0.00001
    - 0
    - 0
    - 0
    - 0
    - 0
    - 0
    - 1000000000000
    - 0
    - 0
    - 0
    - 0
    - 0
    - 0
    - 1000000000000
    - 0
    - 0
    - 0
    - 0
    - 0
    - 0
    - 1000000000000
    - 0
    - 0
    - 0
    - 0
    - 0
    - 0
    - 0.001
---
header:
  stamp:
    sec: 37
    nanosec: 352000000
  frame_id: odom
child_frame_id: base_footprint
pose:
  pose:
    position:
      x: -1.9941609734725223
      y: -0.5000010144560452
      z: 0.008528452707046724
    orientation:
      x: 0.00004926924798198979
      y: 0.002864422482905412
      z: 0.000000923818548914545
      w: 0.9999958963193435
  covariance:
    - 0.00001
    - 0
    - 0
    - 0
    - 0
    - 0
    - 0
    - 0.00001
    - 0
    - 0
    - 0
    - 0
    - 0
    - 0
    - 1000000000000
    - 0
    - 0
    - 0
    - 0
    - 0
    - 0
    - 1000000000000
    - 0
    - 0
    - 0
    - 0
    - 0
    - 0
    - 1000000000000
    - 0
    - 0
    - 0
    - 0
    - 0
    - 0
    - 0.001
twist:
  twist:
    linear:
      x: 0.01961886391844233
      y: -0.000000130748355622986
      z: 0
    angular:
      x: 0
      y: 0
      z: 0.000001292331006180703
  covariance:
    - 0.00001
    - 0
    - 0
    - 0
    - 0
    - 0
    - 0
    - 0.00001
    - 0
    - 0
    - 0
    - 0
    - 0
    - 0
    - 1000000000000
    - 0
    - 0
    - 0
    - 0
    - 0
    - 0
    - 1000000000000
    - 0
    - 0
    - 0
    - 0
    - 0
    - 0
    - 1000000000000
    - 0
    - 0
    - 0
    - 0
    - 0
    - 0
    - 0.001
---
header:
  stamp:
    sec: 37
    nanosec: 386000000
  frame_id: odom
child_frame_id: base_footprint
pose:
  pose:
    position:
      x: -1.9933116865162561
      y: -0.5000010169422123
      z: 0.00853781369293988
    orientation:
      x: 0.000049266550915939975
      y: 0.0028390219820654703
      z: 0.0000009681364423202773
      w: 0.999995968754902
  covariance:
    - 0.00001
    - 0
    - 0
    - 0
    - 0
    - 0
    - 0
    - 0.00001
    - 0
    - 0
    - 0
    - 0
    - 0
    - 0
    - 1000000000000
    - 0
    - 0
    - 0
    - 0
    - 0
    - 0
    - 1000000000000
    - 0
    - 0
    - 0
    - 0
    - 0
    - 0
    - 1000000000000
    - 0
    - 0
    - 0
    - 0
    - 0
    - 0
    - 0.001
twist:
  twist:
    linear:
      x: 0.02451356703004725
      y: -0.00000015443876298632593
      z: 0
    angular:
      x: 0
      y: 0
      z: 0.0000014874977962239201
  covariance:
    - 0.00001
    - 0
    - 0
    - 0
    - 0
    - 0
    - 0
    - 0.00001
    - 0
    - 0
    - 0
    - 0
    - 0
    - 0
    - 1000000000000
    - 0
    - 0
    - 0
    - 0
    - 0
    - 0
    - 1000000000000
    - 0
    - 0
    - 0
    - 0
    - 0
    - 0
    - 1000000000000
    - 0
    - 0
    - 0
    - 0
    - 0
    - 0
    - 0.001
---
header:
  stamp:
    sec: 37
    nanosec: 420000000
  frame_id: odom
child_frame_id: base_footprint
pose:
  pose:
    position:
      x: -1.9922923035018922
      y: -0.5000010195659915
      z: 0.008537569348071926
    orientation:
      x: 0.00004926208265816763
      y: 0.0028084751601747983
      z: 0.0000010403465605684425
      w: 0.9999960550119383
  covariance:
    - 0.00001
    - 0
    - 0
    - 0
    - 0
    - 0
    - 0
    - 0.00001
    - 0
    - 0
    - 0
    - 0
    - 0
    - 0
    - 1000000000000
    - 0
    - 0
    - 0
    - 0
    - 0
    - 0
    - 1000000000000
    - 0
    - 0
    - 0
    - 0
    - 0
    - 0
    - 1000000000000
    - 0
    - 0
    - 0
    - 0
    - 0
    - 0
    - 0.001
twist:
  twist:
    linear:
      x: 0.029378278392295808
      y: -0.00000020744846249075448
      z: 0
    angular:
      x: 0
      y: 0
      z: 0.0000022441615380469774
  covariance:
    - 0.00001
    - 0
    - 0
    - 0
    - 0
    - 0
    - 0
    - 0.00001
    - 0
    - 0
    - 0
    - 0
    - 0
    - 0
    - 1000000000000
    - 0
    - 0
    - 0
    - 0
    - 0
    - 0
    - 1000000000000
    - 0
    - 0
    - 0
    - 0
    - 0
    - 0
    - 1000000000000
    - 0
    - 0
    - 0
    - 0
    - 0
    - 0
    - 0.001
---
header:
  stamp:
    sec: 37
    nanosec: 454000000
  frame_id: odom
child_frame_id: base_footprint
pose:
  pose:
    position:
      x: -1.9911031598801494
      y: -0.5000010225182379
      z: 0.008540856783072029
    orientation:
      x: 0.00004925441282474584
      y: 0.0027766216926105166
      z: 0.000001150129588567338
      w: 0.9999961439648936
  covariance:
    - 0.00001
    - 0
    - 0
    - 0
    - 0
    - 0
    - 0
    - 0.00001
    - 0
    - 0
    - 0
    - 0
    - 0
    - 0
    - 1000000000000
    - 0
    - 0
    - 0
    - 0
    - 0
    - 0
    - 1000000000000
    - 0
    - 0
    - 0
    - 0
    - 0
    - 0
    - 1000000000000
    - 0
    - 0
    - 0
    - 0
    - 0
    - 0
    - 0.001
twist:
  twist:
    linear:
      x: 0.034330421544906675
      y: -0.00000024807042309451593
      z: 0
    angular:
      x: 0
      y: 0
      z: 0.0000024247647796260373
  covariance:
    - 0.00001
    - 0
    - 0
    - 0
    - 0
    - 0
    - 0
    - 0.00001
    - 0
    - 0
    - 0
    - 0
    - 0
    - 0
    - 1000000000000
    - 0
    - 0
    - 0
    - 0
    - 0
    - 0
    - 1000000000000
    - 0
    - 0
    - 0
    - 0
    - 0
    - 0
    - 1000000000000
    - 0
    - 0
    - 0
    - 0
    - 0
    - 0
    - 0.001
---
header:
  stamp:
    sec: 37
    nanosec: 488000000
  frame_id: odom
child_frame_id: base_footprint
pose:
  pose:
    position:
      x: -1.9897439779192458
      y: -0.5000010255950359
      z: 0.008552672890354064
    orientation:
      x: 0.00004924289104077915
      y: 0.0027467380644341562
      z: 0.000001213788481221533
      w: 0.9999962264947152
  covariance:
    - 0.00001
    - 0
    - 0
    - 0
    - 0
    - 0
    - 0
    - 0.00001
    - 0
    - 0
    - 0
    - 0
    - 0
    - 0
    - 1000000000000
    - 0
    - 0
    - 0
    - 0
    - 0
    - 0
    - 1000000000000
    - 0
    - 0
    - 0
    - 0
    - 0
    - 0
    - 1000000000000
    - 0
    - 0
    - 0
    - 0
    - 0
    - 0
    - 0.001
twist:
  twist:
    linear:
      x: 0.03998405013745015
      y: -0.00000019133653233962563
      z: 0
    angular:
      x: 0
      y: 0
      z: 0.000004414502644079512
  covariance:
    - 0.00001
    - 0
    - 0
    - 0
    - 0
    - 0
    - 0
    - 0.00001
    - 0
    - 0
    - 0
    - 0
    - 0
    - 0
    - 1000000000000
    - 0
    - 0
    - 0
    - 0
    - 0
    - 0
    - 1000000000000
    - 0
    - 0
    - 0
    - 0
    - 0
    - 0
    - 1000000000000
    - 0
    - 0
    - 0
    - 0
    - 0
    - 0
    - 0.001
---
header:
  stamp:
    sec: 37
    nanosec: 522000000
  frame_id: odom
child_frame_id: base_footprint
pose:
  pose:
    position:
      x: -1.9882144935953534
      y: -0.5000010284572878
      z: 0.008549149446353637
    orientation:
      x: 0.00004922611011327006
      y: 0.0027222084371160363
      z: 0.0000012646428429530975
      w: 0.9999962935713391
  covariance:
    - 0.00001
    - 0
    - 0
    - 0
    - 0
    - 0
    - 0
    - 0.00001
    - 0
    - 0
    - 0
    - 0
    - 0
    - 0
    - 1000000000000
    - 0
    - 0
    - 0
    - 0
    - 0
    - 0
    - 1000000000000
    - 0
    - 0
    - 0
    - 0
    - 0
    - 0
    - 1000000000000
    - 0
    - 0
    - 0
    - 0
    - 0
    - 0
    - 0.001
twist:
  twist:
    linear:
      x: 0.0442473292546717
      y: -0.00000031124259653517767
      z: 0
    angular:
      x: 0
      y: 0
      z: 0.0000005572688454098245
  covariance:
    - 0.00001
    - 0
    - 0
    - 0
    - 0
    - 0
    - 0
    - 0.00001
    - 0
    - 0
    - 0
    - 0
    - 0
    - 0
    - 1000000000000
    - 0
    - 0
    - 0
    - 0
    - 0
    - 0
    - 1000000000000
    - 0
    - 0
    - 0
    - 0
    - 0
    - 0
    - 1000000000000
    - 0
    - 0
    - 0
    - 0
    - 0
    - 0
    - 0.001
---
header:
  stamp:
    sec: 37
    nanosec: 556000000
  frame_id: odom
child_frame_id: base_footprint
pose:
  pose:
    position:
      x: -1.9865148544947266
      y: -0.5000010316013035
      z: 0.008557458339821971
    orientation:
      x: 0.00004920348980350338
      y: 0.0027066794633052475
      z: 0.0000013257283090920057
      w: 0.9999963357250576
  covariance:
    - 0.00001
    - 0
    - 0
    - 0
    - 0
    - 0
    - 0
    - 0.00001
    - 0
    - 0
    - 0
    - 0
    - 0
    - 0
    - 1000000000000
    - 0
    - 0
    - 0
    - 0
    - 0
    - 0
    - 1000000000000
    - 0
    - 0
    - 0
    - 0
    - 0
    - 0
    - 1000000000000
    - 0
    - 0
    - 0
    - 0
    - 0
    - 0
    - 0.001
twist:
  twist:
    linear:
      x: 0.049301963558553895
      y: -0.00000027604120088727076
      z: 0
    angular:
      x: 0
      y: 0
      z: 0.000003454403093185579
  covariance:
    - 0.00001
    - 0
    - 0
    - 0
    - 0
    - 0
    - 0
    - 0.00001
    - 0
    - 0
    - 0
    - 0
    - 0
    - 0
    - 1000000000000
    - 0
    - 0
    - 0
    - 0
    - 0
    - 0
    - 1000000000000
    - 0
    - 0
    - 0
    - 0
    - 0
    - 0
    - 1000000000000
    - 0
    - 0
    - 0
    - 0
    - 0
    - 0
    - 0.001
---
header:
  stamp:
    sec: 37
    nanosec: 590000000
  frame_id: odom
child_frame_id: base_footprint
pose:
  pose:
    position:
      x: -1.984644965002963
      y: -0.5000010345200123
      z: 0.008557738491427653
    orientation:
      x: 0.000049174108986980716
      y: 0.0027031047186736375
      z: 0.000001386932822354168
      w: 0.9999963453957537
  covariance:
    - 0.00001
    - 0
    - 0
    - 0
    - 0
    - 0
    - 0
    - 0.00001
    - 0
    - 0
    - 0
    - 0
    - 0
    - 0
    - 1000000000000
    - 0
    - 0
    - 0
    - 0
    - 0
    - 0
    - 1000000000000
    - 0
    - 0
    - 0
    - 0
    - 0
    - 0
    - 1000000000000
    - 0
    - 0
    - 0
    - 0
    - 0
    - 0
    - 0.001
twist:
  twist:
    linear:
      x: 0.054342180590194473
      y: -0.0000003072786174307548
      z: 0
    angular:
      x: 0
      y: 0
      z: 0.0000016473901889142294
  covariance:
    - 0.00001
    - 0
    - 0
    - 0
    - 0
    - 0
    - 0
    - 0.00001
    - 0
    - 0
    - 0
    - 0
    - 0
    - 0
    - 1000000000000
    - 0
    - 0
    - 0
    - 0
    - 0
    - 0
    - 1000000000000
    - 0
    - 0
    - 0
    - 0
    - 0
    - 0
    - 1000000000000
    - 0
    - 0
    - 0
    - 0
    - 0
    - 0
    - 0.001
---
header:
  stamp:
    sec: 37
    nanosec: 624000000
  frame_id: odom
child_frame_id: base_footprint
pose:
  pose:
    position:
      x: -1.9826048421468008
      y: -0.5000010374764512
      z: 0.008557659669022702
    orientation:
      x: 0.00004913883945517297
      y: 0.002711325170885888
      z: 0.0000014189335386257316
      w: 0.9999963231428298
  covariance:
    - 0.00001
    - 0
    - 0
    - 0
    - 0
    - 0
    - 0
    - 0.00001
    - 0
    - 0
    - 0
    - 0
    - 0
    - 0
    - 1000000000000
    - 0
    - 0
    - 0
    - 0
    - 0
    - 0
    - 1000000000000
    - 0
    - 0
    - 0
    - 0
    - 0
    - 0
    - 1000000000000
    - 0
    - 0
    - 0
    - 0
    - 0
    - 0
    - 0.001
twist:
  twist:
    linear:
      x: 0.05937841451062133
      y: -0.00000032607484048932865
      z: 0
    angular:
      x: 0
      y: 0
      z: 0.0000009601673303617405
  covariance:
    - 0.00001
    - 0
    - 0
    - 0
    - 0
    - 0
    - 0
    - 0.00001
    - 0
    - 0
    - 0
    - 0
    - 0
    - 0
    - 1000000000000
    - 0
    - 0
    - 0
    - 0
    - 0
    - 0
    - 1000000000000
    - 0
    - 0
    - 0
    - 0
    - 0
    - 0
    - 1000000000000
    - 0
    - 0
    - 0
    - 0
    - 0
    - 0
    - 0.001
---
header:
  stamp:
    sec: 37
    nanosec: 658000000
  frame_id: odom
child_frame_id: base_footprint
pose:
  pose:
    position:
      x: -1.9803943824868946
      y: -0.5000010404991485
      z: 0.00855256152330002
    orientation:
      x: 0.00004909942197903655
      y: 0.002727705307856489
      z: 0.000001431484368475964
      w: 0.9999962785985512
  covariance:
    - 0.00001
    - 0
    - 0
    - 0
    - 0
    - 0
    - 0
    - 0.00001
    - 0
    - 0
    - 0
    - 0
    - 0
    - 0
    - 1000000000000
    - 0
    - 0
    - 0
    - 0
    - 0
    - 0
    - 1000000000000
    - 0
    - 0
    - 0
    - 0
    - 0
    - 0
    - 1000000000000
    - 0
    - 0
    - 0
    - 0
    - 0
    - 0
    - 0.001
twist:
  twist:
    linear:
      x: 0.06446004525916468
      y: -0.0000003270025674689545
      z: 0
    angular:
      x: 0
      y: 0
      z: -0.0000006044561448524083
  covariance:
    - 0.00001
    - 0
    - 0
    - 0
    - 0
    - 0
    - 0
    - 0.00001
    - 0
    - 0
    - 0
    - 0
    - 0
    - 0
    - 1000000000000
    - 0
    - 0
    - 0
    - 0
    - 0
    - 0
    - 1000000000000
    - 0
    - 0
    - 0
    - 0
    - 0
    - 0
    - 1000000000000
    - 0
    - 0
    - 0
    - 0
    - 0
    - 0
    - 0.001
---
header:
  stamp:
    sec: 37
    nanosec: 692000000
  frame_id: odom
child_frame_id: base_footprint
pose:
  pose:
    position:
      x: -1.978014149757925
      y: -0.5000010439498005
      z: 0.008551170061678867
    orientation:
      x: 0.00004905710495874882
      y: 0.0027497019218038553
      z: 0.0000014642793578482504
      w: 0.9999962183581484
  covariance:
    - 0.00001
    - 0
    - 0
    - 0
    - 0
    - 0
    - 0
    - 0.00001
    - 0
    - 0
    - 0
    - 0
    - 0
    - 0
    - 1000000000000
    - 0
    - 0
    - 0
    - 0
    - 0
    - 0
    - 1000000000000
    - 0
    - 0
    - 0
    - 0
    - 0
    - 0
    - 1000000000000
    - 0
    - 0
    - 0
    - 0
    - 0
    - 0
    - 0.001
twist:
  twist:
    linear:
      x: 0.06944168661597128
      y: -0.00000035875484765336613
      z: 0
    angular:
      x: 0
      y: 0
      z: 0.0000030369698116859033
  covariance:
    - 0.00001
    - 0
    - 0
    - 0
    - 0
    - 0
    - 0
    - 0.00001
    - 0
    - 0
    - 0
    - 0
    - 0
    - 0
    - 1000000000000
    - 0
    - 0
    - 0
    - 0
    - 0
    - 0
    - 1000000000000
    - 0
    - 0
    - 0
    - 0
    - 0
    - 0
    - 1000000000000
    - 0
    - 0
    - 0
    - 0
    - 0
    - 0
    - 0.001
---
header:
  stamp:
    sec: 37
    nanosec: 726000000
  frame_id: odom
child_frame_id: base_footprint
pose:
  pose:
    position:
      x: -1.9754636996276065
      y: -0.500001047490664
      z: 0.008545481183302523
    orientation:
      x: 0.0000490135063220019
      y: 0.0027735214375683
      z: 0.000001491055532240781
      w: 0.9999961525797428
  covariance:
    - 0.00001
    - 0
    - 0
    - 0
    - 0
    - 0
    - 0
    - 0.00001
    - 0
    - 0
    - 0
    - 0
    - 0
    - 0
    - 1000000000000
    - 0
    - 0
    - 0
    - 0
    - 0
    - 0
    - 1000000000000
    - 0
    - 0
    - 0
    - 0
    - 0
    - 0
    - 1000000000000
    - 0
    - 0
    - 0
    - 0
    - 0
    - 0
    - 0.001
twist:
  twist:
    linear:
      x: 0.07446156175451299
      y: -0.00000038856616910125227
      z: 0
    angular:
      x: 0
      y: 0
      z: 0.0000012572225424752643
  covariance:
    - 0.00001
    - 0
    - 0
    - 0
    - 0
    - 0
    - 0
    - 0.00001
    - 0
    - 0
    - 0
    - 0
    - 0
    - 0
    - 1000000000000
    - 0
    - 0
    - 0
    - 0
    - 0
    - 0
    - 1000000000000
    - 0
    - 0
    - 0
    - 0
    - 0
    - 0
    - 1000000000000
    - 0
    - 0
    - 0
    - 0
    - 0
    - 0
    - 0.001
---
header:
  stamp:
    sec: 37
    nanosec: 760000000
  frame_id: odom
child_frame_id: base_footprint
pose:
  pose:
    position:
      x: -1.9727431878241217
      y: -0.5000010512279524
      z: 0.008544698141456879
    orientation:
      x: 0.00004896970790828329
      y: 0.002797059022225892
      z: 0.0000015166743696960429
      w: 0.999996087022591
  covariance:
    - 0.00001
    - 0
    - 0
    - 0
    - 0
    - 0
    - 0
    - 0.00001
    - 0
    - 0
    - 0
    - 0
    - 0
    - 0
    - 1000000000000
    - 0
    - 0
    - 0
    - 0
    - 0
    - 0
    - 1000000000000
    - 0
    - 0
    - 0
    - 0
    - 0
    - 0
    - 1000000000000
    - 0
    - 0
    - 0
    - 0
    - 0
    - 0
    - 0.001
twist:
  twist:
    linear:
      x: 0.08009268348246774
      y: -0.0000003098124685271534
      z: 0
    angular:
      x: 0
      y: 0
      z: 0.0000030776699357814413
  covariance:
    - 0.00001
    - 0
    - 0
    - 0
    - 0
    - 0
    - 0
    - 0.00001
    - 0
    - 0
    - 0
    - 0
    - 0
    - 0
    - 1000000000000
    - 0
    - 0
    - 0
    - 0
    - 0
    - 0
    - 1000000000000
    - 0
    - 0
    - 0
    - 0
    - 0
    - 0
    - 1000000000000
    - 0
    - 0
    - 0
    - 0
    - 0
    - 0
    - 0.001
---
header:
  stamp:
    sec: 37
    nanosec: 794000000
  frame_id: odom
child_frame_id: base_footprint
pose:
  pose:
    position:
      x: -1.9698527003124122
      y: -0.5000010551633878
      z: 0.008535591954725849
    orientation:
      x: 0.000048926984816541134
      y: 0.002816541207865224
      z: 0.000001539772131174157
      w: 0.9999960323418308
  covariance:
    - 0.00001
    - 0
    - 0
    - 0
    - 0
    - 0
    - 0
    - 0.00001
    - 0
    - 0
    - 0
    - 0
    - 0
    - 0
    - 1000000000000
    - 0
    - 0
    - 0
    - 0
    - 0
    - 0
    - 1000000000000
    - 0
    - 0
    - 0
    - 0
    - 0
    - 0
    - 1000000000000
    - 0
    - 0
    - 0
    - 0
    - 0
    - 0
    - 0.001
twist:
  twist:
    linear:
      x: 0.08441574609337693
      y: -0.00000047195449188121287
      z: 0
    angular:
      x: 0
      y: 0
      z: -0.000003026544637275747
  covariance:
    - 0.00001
    - 0
    - 0
    - 0
    - 0
    - 0
    - 0
    - 0.00001
    - 0
    - 0
    - 0
    - 0
    - 0
    - 0
    - 1000000000000
    - 0
    - 0
    - 0
    - 0
    - 0
    - 0
    - 1000000000000
    - 0
    - 0
    - 0
    - 0
    - 0
    - 0
    - 1000000000000
    - 0
    - 0
    - 0
    - 0
    - 0
    - 0
    - 0.001
---
header:
  stamp:
    sec: 37
    nanosec: 828000000
  frame_id: odom
child_frame_id: base_footprint
pose:
  pose:
    position:
      x: -1.966792604873991
      y: -0.5000010595020105
      z: 0.008534347792123916
    orientation:
      x: 0.0000488863390027346
      y: 0.002829928052427353
      z: 0.0000015645635860409111
      w: 0.9999959945494263
  covariance:
    - 0.00001
    - 0
    - 0
    - 0
    - 0
    - 0
    - 0
    - 0.00001
    - 0
    - 0
    - 0
    - 0
    - 0
    - 0
    - 1000000000000
    - 0
    - 0
    - 0
    - 0
    - 0
    - 0
    - 1000000000000
    - 0
    - 0
    - 0
    - 0
    - 0
    - 0
    - 1000000000000
    - 0
    - 0
    - 0
    - 0
    - 0
    - 0
    - 0.001
twist:
  twist:
    linear:
      x: 0.08948735153310662
      y: -0.0000004925395921234743
      z: 0
    angular:
      x: 0
      y: 0
      z: 0.0000003969382813932931
  covariance:
    - 0.00001
    - 0
    - 0
    - 0
    - 0
    - 0
    - 0
    - 0.00001
    - 0
    - 0
    - 0
    - 0
    - 0
    - 0
    - 1000000000000
    - 0
    - 0
    - 0
    - 0
    - 0
    - 0
    - 1000000000000
    - 0
    - 0
    - 0
    - 0
    - 0
    - 0
    - 1000000000000
    - 0
    - 0
    - 0
    - 0
    - 0
    - 0
    - 0.001
---
header:
  stamp:
    sec: 37
    nanosec: 862000000
  frame_id: odom
child_frame_id: base_footprint
pose:
  pose:
    position:
      x: -1.963562491264285
      y: -0.5000010639401369
      z: 0.00853929228771807
    orientation:
      x: 0.00004884799340221418
      y: 0.0028363243308003375
      z: 0.0000016027885117634078
      w: 0.9999959764297031
  covariance:
    - 0.00001
    - 0
    - 0
    - 0
    - 0
    - 0
    - 0
    - 0.00001
    - 0
    - 0
    - 0
    - 0
    - 0
    - 0
    - 1000000000000
    - 0
    - 0
    - 0
    - 0
    - 0
    - 0
    - 1000000000000
    - 0
    - 0
    - 0
    - 0
    - 0
    - 0
    - 1000000000000
    - 0
    - 0
    - 0
    - 0
    - 0
    - 0
    - 0.001
twist:
  twist:
    linear:
      x: 0.09507143279387342
      y: -0.00000040835734181110925
      z: 0
    angular:
      x: 0
      y: 0
      z: 0.000004339061567008315
  covariance:
    - 0.00001
    - 0
    - 0
    - 0
    - 0
    - 0
    - 0
    - 0.00001
    - 0
    - 0
    - 0
    - 0
    - 0
    - 0
    - 1000000000000
    - 0
    - 0
    - 0
    - 0
    - 0
    - 0
    - 1000000000000
    - 0
    - 0
    - 0
    - 0
    - 0
    - 0
    - 1000000000000
    - 0
    - 0
    - 0
    - 0
    - 0
    - 0
    - 0.001
---
header:
  stamp:
    sec: 37
    nanosec: 896000000
  frame_id: odom
child_frame_id: base_footprint
pose:
  pose:
    position:
      x: -1.9601625272744903
      y: -0.5000010683479369
      z: 0.008532166053537217
    orientation:
      x: 0.00004881218973603938
      y: 0.0028343443599612886
      z: 0.0000016363573588552013
      w: 0.9999959820452989
  covariance:
    - 0.00001
    - 0
    - 0
    - 0
    - 0
    - 0
    - 0
    - 0.00001
    - 0
    - 0
    - 0
    - 0
    - 0
    - 0
    - 1000000000000
    - 0
    - 0
    - 0
    - 0
    - 0
    - 0
    - 1000000000000
    - 0
    - 0
    - 0
    - 0
    - 0
    - 0
    - 1000000000000
    - 0
    - 0
    - 0
    - 0
    - 0
    - 0
    - 0.001
twist:
  twist:
    linear:
      x: 0.09948907709973147
      y: -0.0000005645566578217426
      z: 0
    angular:
      x: 0
      y: 0
      z: -0.0000008242783427526259
  covariance:
    - 0.00001
    - 0
    - 0
    - 0
    - 0
    - 0
    - 0
    - 0.00001
    - 0
    - 0
    - 0
    - 0
    - 0
    - 0
    - 1000000000000
    - 0
    - 0
    - 0
    - 0
    - 0
    - 0
    - 1000000000000
    - 0
    - 0
    - 0
    - 0
    - 0
    - 0
    - 1000000000000
    - 0
    - 0
    - 0
    - 0
    - 0
    - 0
    - 0.001
---
header:
  stamp:
    sec: 37
    nanosec: 930000000
  frame_id: odom
child_frame_id: base_footprint
pose:
  pose:
    position:
      x: -1.956592818827847
      y: -0.5000010729402946
      z: 0.008537374582923534
    orientation:
      x: 0.000048778691700431246
      y: 0.0028253761807846725
      z: 0.0000016753891408310387
      w: 0.9999960074256644
  covariance:
    - 0.00001
    - 0
    - 0
    - 0
    - 0
    - 0
    - 0
    - 0.00001
    - 0
    - 0
    - 0
    - 0
    - 0
    - 0
    - 1000000000000
    - 0
    - 0
    - 0
    - 0
    - 0
    - 0
    - 1000000000000
    - 0
    - 0
    - 0
    - 0
    - 0
    - 0
    - 1000000000000
    - 0
    - 0
    - 0
    - 0
    - 0
    - 0
    - 0.001
twist:
  twist:
    linear:
      x: 0.10455041532291638
      y: -0.0000005530074399814981
      z: 0
    angular:
      x: 0
      y: 0
      z: 0.0000027652133434539394
  covariance:
    - 0.00001
    - 0
    - 0
    - 0
    - 0
    - 0
    - 0
    - 0.00001
    - 0
    - 0
    - 0
    - 0
    - 0
    - 0
    - 1000000000000
    - 0
    - 0
    - 0
    - 0
    - 0
    - 0
    - 1000000000000
    - 0
    - 0
    - 0
    - 0
    - 0
    - 0
    - 1000000000000
    - 0
    - 0
    - 0
    - 0
    - 0
    - 0
    - 0.001
---
header:
  stamp:
    sec: 37
    nanosec: 964000000
  frame_id: odom
child_frame_id: base_footprint
pose:
  pose:
    position:
      x: -1.9528531579593116
      y: -0.5000010773228816
      z: 0.008541749448510943
    orientation:
      x: 0.000048746805555171746
      y: 0.0028106317695131573
      z: 0.000001723866142039755
      w: 0.9999960489771114
  covariance:
    - 0.00001
    - 0
    - 0
    - 0
    - 0
    - 0
    - 0
    - 0.00001
    - 0
    - 0
    - 0
    - 0
    - 0
    - 0
    - 1000000000000
    - 0
    - 0
    - 0
    - 0
    - 0
    - 0
    - 1000000000000
    - 0
    - 0
    - 0
    - 0
    - 0
    - 0
    - 1000000000000
    - 0
    - 0
    - 0
    - 0
    - 0
    - 0
    - 0.001
twist:
  twist:
    linear:
      x: 0.1095705540573744
      y: -0.0000005677092762757945
      z: 0
    angular:
      x: 0
      y: 0
      z: 0.000004069140211883983
  covariance:
    - 0.00001
    - 0
    - 0
    - 0
    - 0
    - 0
    - 0
    - 0.00001
    - 0
    - 0
    - 0
    - 0
    - 0
    - 0
    - 1000000000000
    - 0
    - 0
    - 0
    - 0
    - 0
    - 0
    - 1000000000000
    - 0
    - 0
    - 0
    - 0
    - 0
    - 0
    - 1000000000000
    - 0
    - 0
    - 0
    - 0
    - 0
    - 0
    - 0.001
---
header:
  stamp:
    sec: 37
    nanosec: 998000000
  frame_id: odom
child_frame_id: base_footprint
pose:
  pose:
    position:
      x: -1.9489434213773773
      y: -0.5000010813425272
      z: 0.00854048050815103
    orientation:
      x: 0.00004871547728010729
      y: 0.002792715500863838
      z: 0.0000017840710571065175
      w: 0.9999960991742671
  covariance:
    - 0.00001
    - 0
    - 0
    - 0
    - 0
    - 0
    - 0
    - 0.00001
    - 0
    - 0
    - 0
    - 0
    - 0
    - 0
    - 1000000000000
    - 0
    - 0
    - 0
    - 0
    - 0
    - 0
    - 1000000000000
    - 0
    - 0
    - 0
    - 0
    - 0
    - 0
    - 1000000000000
    - 0
    - 0
    - 0
    - 0
    - 0
    - 0
    - 0.001
twist:
  twist:
    linear:
      x: 0.11452661496607038
      y: -0.0000006241442305953284
      z: 0
    angular:
      x: 0
      y: 0
      z: -0.0000003776918039441938
  covariance:
    - 0.00001
    - 0
    - 0
    - 0
    - 0
    - 0
    - 0
    - 0.00001
    - 0
    - 0
    - 0
    - 0
    - 0
    - 0
    - 1000000000000
    - 0
    - 0
    - 0
    - 0
    - 0
    - 0
    - 1000000000000
    - 0
    - 0
    - 0
    - 0
    - 0
    - 0
    - 1000000000000
    - 0
    - 0
    - 0
    - 0
    - 0
    - 0
    - 0.001
---
header:
  stamp:
    sec: 38
    nanosec: 32000000
  frame_id: odom
child_frame_id: base_footprint
pose:
  pose:
    position:
      x: -1.944863872308316
      y: -0.5000010851486221
      z: 0.008541557312805054
    orientation:
      x: 0.00004868416485793112
      y: 0.002773860097142314
      z: 0.0000018311710392141865
      w: 0.9999961516559254
  covariance:
    - 0.00001
    - 0
    - 0
    - 0
    - 0
    - 0
    - 0
    - 0.00001
    - 0
    - 0
    - 0
    - 0
    - 0
    - 0
    - 1000000000000
    - 0
    - 0
    - 0
    - 0
    - 0
    - 0
    - 1000000000000
    - 0
    - 0
    - 0
    - 0
    - 0
    - 0
    - 1000000000000
    - 0
    - 0
    - 0
    - 0
    - 0
    - 0
    - 0.001
twist:
  twist:
    linear:
      x: 0.11953473086598054
      y: -0.0000006473984744520113
      z: 0
    angular:
      x: 0
      y: 0
      z: -0.0000008270285052625305
  covariance:
    - 0.00001
    - 0
    - 0
    - 0
    - 0
    - 0
    - 0
    - 0.00001
    - 0
    - 0
    - 0
    - 0
    - 0
    - 0
    - 1000000000000
    - 0
    - 0
    - 0
    - 0
    - 0
    - 0
    - 1000000000000
    - 0
    - 0
    - 0
    - 0
    - 0
    - 0
    - 1000000000000
    - 0
    - 0
    - 0
    - 0
    - 0
    - 0
    - 0.001
---
header:
  stamp:
    sec: 38
    nanosec: 66000000
  frame_id: odom
child_frame_id: base_footprint
pose:
  pose:
    position:
      x: -1.9406143532263294
      y: -0.5000010887238752
      z: 0.008550874848660836
    orientation:
      x: 0.000048652244106069215
      y: 0.0027562163176875895
      z: 0.0000018756699190752503
      w: 0.9999962004433073
  covariance:
    - 0.00001
    - 0
    - 0
    - 0
    - 0
    - 0
    - 0
    - 0.00001
    - 0
    - 0
    - 0
    - 0
    - 0
    - 0
    - 1000000000000
    - 0
    - 0
    - 0
    - 0
    - 0
    - 0
    - 1000000000000
    - 0
    - 0
    - 0
    - 0
    - 0
    - 0
    - 1000000000000
    - 0
    - 0
    - 0
    - 0
    - 0
    - 0
    - 0.001
twist:
  twist:
    linear:
      x: 0.12460134219278145
      y: -0.0000006121706366509945
      z: 0
    angular:
      x: 0
      y: 0
      z: 0.000004396625225589702
  covariance:
    - 0.00001
    - 0
    - 0
    - 0
    - 0
    - 0
    - 0
    - 0.00001
    - 0
    - 0
    - 0
    - 0
    - 0
    - 0
    - 1000000000000
    - 0
    - 0
    - 0
    - 0
    - 0
    - 0
    - 1000000000000
    - 0
    - 0
    - 0
    - 0
    - 0
    - 0
    - 1000000000000
    - 0
    - 0
    - 0
    - 0
    - 0
    - 0
    - 0.001
---
header:
  stamp:
    sec: 38
    nanosec: 100000000
  frame_id: odom
child_frame_id: base_footprint
pose:
  pose:
    position:
      x: -1.9361946728301525
      y: -0.5000010917490677
      z: 0.008548393243146006
    orientation:
      x: 0.0000486188840411947
      y: 0.002741401153590891
      z: 0.000001930054359037476
      w: 0.9999962411690326
  covariance:
    - 0.00001
    - 0
    - 0
    - 0
    - 0
    - 0
    - 0
    - 0.00001
    - 0
    - 0
    - 0
    - 0
    - 0
    - 0
    - 1000000000000
    - 0
    - 0
    - 0
    - 0
    - 0
    - 0
    - 1000000000000
    - 0
    - 0
    - 0
    - 0
    - 0
    - 0
    - 1000000000000
    - 0
    - 0
    - 0
    - 0
    - 0
    - 0
    - 0.001
twist:
  twist:
    linear:
      x: 0.1295960022238546
      y: -0.0000006547649635007949
      z: 0
    angular:
      x: 0
      y: 0
      z: 0.000002792764458234524
  covariance:
    - 0.00001
    - 0
    - 0
    - 0
    - 0
    - 0
    - 0
    - 0.00001
    - 0
    - 0
    - 0
    - 0
    - 0
    - 0
    - 1000000000000
    - 0
    - 0
    - 0
    - 0
    - 0
    - 0
    - 1000000000000
    - 0
    - 0
    - 0
    - 0
    - 0
    - 0
    - 1000000000000
    - 0
    - 0
    - 0
    - 0
    - 0
    - 0
    - 0.001
---
header:
  stamp:
    sec: 38
    nanosec: 134000000
  frame_id: odom
child_frame_id: base_footprint
pose:
  pose:
    position:
      x: -1.931604892191704
      y: -0.5000010943862953
      z: 0.008553987339908376
    orientation:
      x: 0.00004858325529000087
      y: 0.0027329837927092156
      z: 0.0000019908729812415746
      w: 0.9999962642106682
  covariance:
    - 0.00001
    - 0
    - 0
    - 0
    - 0
    - 0
    - 0
    - 0.00001
    - 0
    - 0
    - 0
    - 0
    - 0
    - 0
    - 1000000000000
    - 0
    - 0
    - 0
    - 0
    - 0
    - 0
    - 1000000000000
    - 0
    - 0
    - 0
    - 0
    - 0
    - 0
    - 1000000000000
    - 0
    - 0
    - 0
    - 0
    - 0
    - 0
    - 0.001
twist:
  twist:
    linear:
      x: 0.1346177977135861
      y: -0.000000625496709839765
      z: 0
    angular:
      x: 0
      y: 0
      z: 0.0000035374015698442092
  covariance:
    - 0.00001
    - 0
    - 0
    - 0
    - 0
    - 0
    - 0
    - 0.00001
    - 0
    - 0
    - 0
    - 0
    - 0
    - 0
    - 1000000000000
    - 0
    - 0
    - 0
    - 0
    - 0
    - 0
    - 1000000000000
    - 0
    - 0
    - 0
    - 0
    - 0
    - 0
    - 1000000000000
    - 0
    - 0
    - 0
    - 0
    - 0
    - 0
    - 0.001
---
header:
  stamp:
    sec: 38
    nanosec: 168000000
  frame_id: odom
child_frame_id: base_footprint
pose:
  pose:
    position:
      x: -1.9268449593598909
      y: -0.5000010964454489
      z: 0.008548835457739417
    orientation:
      x: 0.000048545572183013233
      y: 0.0027305173305233626
      z: 0.0000020257441720815236
      w: 0.999996270950213
  covariance:
    - 0.00001
    - 0
    - 0
    - 0
    - 0
    - 0
    - 0
    - 0.00001
    - 0
    - 0
    - 0
    - 0
    - 0
    - 0
    - 1000000000000
    - 0
    - 0
    - 0
    - 0
    - 0
    - 0
    - 1000000000000
    - 0
    - 0
    - 0
    - 0
    - 0
    - 0
    - 1000000000000
    - 0
    - 0
    - 0
    - 0
    - 0
    - 0
    - 0.001
twist:
  twist:
    linear:
      x: 0.1396054870185756
      y: -0.0000006795159245673607
      z: 0
    angular:
      x: 0
      y: 0
      z: 0.00000015519204101012315
  covariance:
    - 0.00001
    - 0
    - 0
    - 0
    - 0
    - 0
    - 0
    - 0.00001
    - 0
    - 0
    - 0
    - 0
    - 0
    - 0
    - 1000000000000
    - 0
    - 0
    - 0
    - 0
    - 0
    - 0
    - 1000000000000
    - 0
    - 0
    - 0
    - 0
    - 0
    - 0
    - 1000000000000
    - 0
    - 0
    - 0
    - 0
    - 0
    - 0
    - 0.001
---
header:
  stamp:
    sec: 38
    nanosec: 202000000
  frame_id: odom
child_frame_id: base_footprint
pose:
  pose:
    position:
      x: -1.9219149390964074
      y: -0.5000010983743417
      z: 0.008552411699185492
    orientation:
      x: 0.00004850607352634303
      y: 0.002734559141129342
      z: 0.0000020618927443145834
      w: 0.9999962599076125
  covariance:
    - 0.00001
    - 0
    - 0
    - 0
    - 0
    - 0
    - 0
    - 0.00001
    - 0
    - 0
    - 0
    - 0
    - 0
    - 0
    - 1000000000000
    - 0
    - 0
    - 0
    - 0
    - 0
    - 0
    - 1000000000000
    - 0
    - 0
    - 0
    - 0
    - 0
    - 0
    - 1000000000000
    - 0
    - 0
    - 0
    - 0
    - 0
    - 0
    - 0.001
twist:
  twist:
    linear:
      x: 0.14463158232992465
      y: -0.0000006509045616581013
      z: 0
    angular:
      x: 0
      y: 0
      z: 0.0000028505571993671326
  covariance:
    - 0.00001
    - 0
    - 0
    - 0
    - 0
    - 0
    - 0
    - 0.00001
    - 0
    - 0
    - 0
    - 0
    - 0
    - 0
    - 1000000000000
    - 0
    - 0
    - 0
    - 0
    - 0
    - 0
    - 1000000000000
    - 0
    - 0
    - 0
    - 0
    - 0
    - 0
    - 1000000000000
    - 0
    - 0
    - 0
    - 0
    - 0
    - 0
    - 0.001
---
header:
  stamp:
    sec: 38
    nanosec: 236000000
  frame_id: odom
child_frame_id: base_footprint
pose:
  pose:
    position:
      x: -1.916814774190965
      y: -0.5000010998315729
      z: 0.008548317446798785
    orientation:
      x: 0.00004846504433505638
      y: 0.0027441103665422663
      z: 0.0000021039933576348356
      w: 0.9999962337454122
  covariance:
    - 0.00001
    - 0
    - 0
    - 0
    - 0
    - 0
    - 0
    - 0.00001
    - 0
    - 0
    - 0
    - 0
    - 0
    - 0
    - 1000000000000
    - 0
    - 0
    - 0
    - 0
    - 0
    - 0
    - 1000000000000
    - 0
    - 0
    - 0
    - 0
    - 0
    - 0
    - 1000000000000
    - 0
    - 0
    - 0
    - 0
    - 0
    - 0
    - 0.001
twist:
  twist:
    linear:
      x: 0.14962679870399814
      y: -0.0000007056071571141754
      z: 0
    angular:
      x: 0
      y: 0
      z: 0.0000014621445879884002
  covariance:
    - 0.00001
    - 0
    - 0
    - 0
    - 0
    - 0
    - 0
    - 0.00001
    - 0
    - 0
    - 0
    - 0
    - 0
    - 0
    - 1000000000000
    - 0
    - 0
    - 0
    - 0
    - 0
    - 0
    - 1000000000000
    - 0
    - 0
    - 0
    - 0
    - 0
    - 0
    - 1000000000000
    - 0
    - 0
    - 0
    - 0
    - 0
    - 0
    - 0.001
---
header:
  stamp:
    sec: 38
    nanosec: 270000000
  frame_id: odom
child_frame_id: base_footprint
pose:
  pose:
    position:
      x: -1.9115445210666697
      y: -0.5000011010376232
      z: 0.008543174495243723
    orientation:
      x: 0.000048423313031270346
      y: 0.002757779421175832
      z: 0.0000021365167557181146
      w: 0.9999961961444065
  covariance:
    - 0.00001
    - 0
    - 0
    - 0
    - 0
    - 0
    - 0
    - 0.00001
    - 0
    - 0
    - 0
    - 0
    - 0
    - 0
    - 1000000000000
    - 0
    - 0
    - 0
    - 0
    - 0
    - 0
    - 1000000000000
    - 0
    - 0
    - 0
    - 0
    - 0
    - 0
    - 1000000000000
    - 0
    - 0
    - 0
    - 0
    - 0
    - 0
    - 0.001
twist:
  twist:
    linear:
      x: 0.154617414055154
      y: -0.000000768738251977311
      z: 0
    angular:
      x: 0
      y: 0
      z: -0.0000008970212445689294
  covariance:
    - 0.00001
    - 0
    - 0
    - 0
    - 0
    - 0
    - 0
    - 0.00001
    - 0
    - 0
    - 0
    - 0
    - 0
    - 0
    - 1000000000000
    - 0
    - 0
    - 0
    - 0
    - 0
    - 0
    - 1000000000000
    - 0
    - 0
    - 0
    - 0
    - 0
    - 0
    - 1000000000000
    - 0
    - 0
    - 0
    - 0
    - 0
    - 0
    - 0.001
---
header:
  stamp:
    sec: 38
    nanosec: 304000000
  frame_id: odom
child_frame_id: base_footprint
pose:
  pose:
    position:
      x: -1.9061042065374594
      y: -0.5000011021365041
      z: 0.008542317507485395
    orientation:
      x: 0.00004838213045761659
      y: 0.002772797949503449
      z: 0.000002159268670243286
      w: 0.9999961546156257
  covariance:
    - 0.00001
    - 0
    - 0
    - 0
    - 0
    - 0
    - 0
    - 0.00001
    - 0
    - 0
    - 0
    - 0
    - 0
    - 0
    - 1000000000000
    - 0
    - 0
    - 0
    - 0
    - 0
    - 0
    - 1000000000000
    - 0
    - 0
    - 0
    - 0
    - 0
    - 0
    - 1000000000000
    - 0
    - 0
    - 0
    - 0
    - 0
    - 0
    - 0.001
twist:
  twist:
    linear:
      x: 0.15959766586585666
      y: -0.0000008076436728767791
      z: 0
    angular:
      x: 0
      y: 0
      z: -0.0000014137944091880998
  covariance:
    - 0.00001
    - 0
    - 0
    - 0
    - 0
    - 0
    - 0
    - 0.00001
    - 0
    - 0
    - 0
    - 0
    - 0
    - 0
    - 1000000000000
    - 0
    - 0
    - 0
    - 0
    - 0
    - 0
    - 1000000000000
    - 0
    - 0
    - 0
    - 0
    - 0
    - 0
    - 1000000000000
    - 0
    - 0
    - 0
    - 0
    - 0
    - 0
    - 0.001
---
header:
  stamp:
    sec: 38
    nanosec: 338000000
  frame_id: odom
child_frame_id: base_footprint
pose:
  pose:
    position:
      x: -1.9004939662271678
      y: -0.5000011031749068
      z: 0.008540581001172257
    orientation:
      x: 0.00004834196805455382
      y: 0.0027876508797614707
      z: 0.000002197049925921326
      w: 0.9999961133228468
  covariance:
    - 0.00001
    - 0
    - 0
    - 0
    - 0
    - 0
    - 0
    - 0.00001
    - 0
    - 0
    - 0
    - 0
    - 0
    - 0
    - 1000000000000
    - 0
    - 0
    - 0
    - 0
    - 0
    - 0
    - 1000000000000
    - 0
    - 0
    - 0
    - 0
    - 0
    - 0
    - 1000000000000
    - 0
    - 0
    - 0
    - 0
    - 0
    - 0
    - 0.001
twist:
  twist:
    linear:
      x: 0.16460921700492934
      y: -0.0000008591580722270734
      z: 0
    angular:
      x: 0
      y: 0
      z: 0.00000005388782479623967
  covariance:
    - 0.00001
    - 0
    - 0
    - 0
    - 0
    - 0
    - 0
    - 0.00001
    - 0
    - 0
    - 0
    - 0
    - 0
    - 0
    - 1000000000000
    - 0
    - 0
    - 0
    - 0
    - 0
    - 0
    - 1000000000000
    - 0
    - 0
    - 0
    - 0
    - 0
    - 0
    - 1000000000000
    - 0
    - 0
    - 0
    - 0
    - 0
    - 0
    - 0.001
---
header:
  stamp:
    sec: 38
    nanosec: 372000000
  frame_id: odom
child_frame_id: base_footprint
pose:
  pose:
    position:
      x: -1.8947137854461644
      y: -0.5000011041499828
      z: 0.008541792372400239
    orientation:
      x: 0.00004830349855713764
      y: 0.002800918733518319
      z: 0.000002231866672339464
      w: 0.9999960762503217
  covariance:
    - 0.00001
    - 0
    - 0
    - 0
    - 0
    - 0
    - 0
    - 0.00001
    - 0
    - 0
    - 0
    - 0
    - 0
    - 0
    - 1000000000000
    - 0
    - 0
    - 0
    - 0
    - 0
    - 0
    - 1000000000000
    - 0
    - 0
    - 0
    - 0
    - 0
    - 0
    - 1000000000000
    - 0
    - 0
    - 0
    - 0
    - 0
    - 0
    - 0.001
twist:
  twist:
    linear:
      x: 0.16964078359142148
      y: -0.0000008754438386746944
      z: 0
    angular:
      x: 0
      y: 0
      z: 0.0000018777859972008624
  covariance:
    - 0.00001
    - 0
    - 0
    - 0
    - 0
    - 0
    - 0
    - 0.00001
    - 0
    - 0
    - 0
    - 0
    - 0
    - 0
    - 1000000000000
    - 0
    - 0
    - 0
    - 0
    - 0
    - 0
    - 1000000000000
    - 0
    - 0
    - 0
    - 0
    - 0
    - 0
    - 1000000000000
    - 0
    - 0
    - 0
    - 0
    - 0
    - 0
    - 0.001
---
header:
  stamp:
    sec: 38
    nanosec: 406000000
  frame_id: odom
child_frame_id: base_footprint
pose:
  pose:
    position:
      x: -1.8887635446635325
      y: -0.5000011048555989
      z: 0.008537724845927852
    orientation:
      x: 0.00004826724633794359
      y: 0.0028110079601329887
      z: 0.000002260707946477518
      w: 0.9999960479418958
  covariance:
    - 0.00001
    - 0
    - 0
    - 0
    - 0
    - 0
    - 0
    - 0.00001
    - 0
    - 0
    - 0
    - 0
    - 0
    - 0
    - 1000000000000
    - 0
    - 0
    - 0
    - 0
    - 0
    - 0
    - 1000000000000
    - 0
    - 0
    - 0
    - 0
    - 0
    - 0
    - 1000000000000
    - 0
    - 0
    - 0
    - 0
    - 0
    - 0
    - 0.001
twist:
  twist:
    linear:
      x: 0.17460335450302725
      y: -0.0000009373716022701046
      z: 0
    angular:
      x: 0
      y: 0
      z: -0.000001263112710090943
  covariance:
    - 0.00001
    - 0
    - 0
    - 0
    - 0
    - 0
    - 0
    - 0.00001
    - 0
    - 0
    - 0
    - 0
    - 0
    - 0
    - 1000000000000
    - 0
    - 0
    - 0
    - 0
    - 0
    - 0
    - 1000000000000
    - 0
    - 0
    - 0
    - 0
    - 0
    - 0
    - 1000000000000
    - 0
    - 0
    - 0
    - 0
    - 0
    - 0
    - 0.001
---
header:
  stamp:
    sec: 38
    nanosec: 440000000
  frame_id: odom
child_frame_id: base_footprint
pose:
  pose:
    position:
      x: -1.8826435343626293
      y: -0.5000011056505721
      z: 0.00853600884097068
    orientation:
      x: 0.00004823401037427073
      y: 0.002816063250896845
      z: 0.0000022838783817571984
      w: 0.99999603372015
  covariance:
    - 0.00001
    - 0
