---
header:
  stamp:
    sec: 292
    nanosec: 91000000
  frame_id: odom
child_frame_id: base_footprint
pose:
  pose:
    position:
      x: -5.806753184365519
      y: 3.1645091702713612
      z: 0.008535639347717821
    orientation:
      x: 0.00009885055986278325
      y: 0.0028668660826379447
      z: -0.025600591342231967
      w: 0.9996681354481392
  covariance:
    - 0.00001
    - 0
    - 0
    - 0
    - 0
    - 0
    - 0
    - 0.00001
    - 0
    - 0
    - 0
    - 0
    - 0
    - 0
    - 1000000000000
    - 0
    - 0
    - 0
    - 0
    - 0
    - 0
    - 1000000000000
    - 0
    - 0
    - 0
    - 0
    - 0
    - 0
    - 1000000000000
    - 0
    - 0
    - 0
    - 0
    - 0
    - 0
    - 0.001
twist:
  twist:
    linear:
      x: 0.0000035653300852756933
      y: 0.0000014155478592642551
      z: 0
    angular:
      x: 0
      y: 0
      z: 0.0000013755450190959317
  covariance:
    - 0.00001
    - 0
    - 0
    - 0
    - 0
    - 0
    - 0
    - 0.00001
    - 0
    - 0
    - 0
    - 0
    - 0
    - 0
    - 1000000000000
    - 0
    - 0
    - 0
    - 0
    - 0
    - 0
    - 1000000000000
    - 0
    - 0
    - 0
    - 0
    - 0
    - 0
    - 1000000000000
    - 0
    - 0
    - 0
    - 0
    - 0
    - 0
    - 0.001
---
header:
  stamp:
    sec: 292
    nanosec: 125000000
  frame_id: odom
child_frame_id: base_footprint
pose:
  pose:
    position:
      x: -5.8067532086653815
      y: 3.16450916889349
      z: 0.008527381795766256
    orientation:
      x: 0.0000988199781959646
      y: 0.0028655489010590354
      z: -0.025600574776359578
      w: 0.9996681396519685
  covariance:
    - 0.00001
    - 0
    - 0
    - 0
    - 0
    - 0
    - 0
    - 0.00001
    - 0
    - 0
    - 0
    - 0
    - 0
    - 0
    - 1000000000000
    - 0
    - 0
    - 0
    - 0
    - 0
    - 0
    - 1000000000000
    - 0
    - 0
    - 0
    - 0
    - 0
    - 0
    - 1000000000000
    - 0
    - 0
    - 0
    - 0
    - 0
    - 0
    - 0.001
twist:
  twist:
    linear:
      x: 0.000000490260837319504
      y: -0.000003040977529539947
      z: 0
    angular:
      x: 0
      y: 0
      z: -0.00000024620934719943877
  covariance:
    - 0.00001
    - 0
    - 0
    - 0
    - 0
    - 0
    - 0
    - 0.00001
    - 0
    - 0
    - 0
    - 0
    - 0
    - 0
    - 1000000000000
    - 0
    - 0
    - 0
    - 0
    - 0
    - 0
    - 1000000000000
    - 0
    - 0
    - 0
    - 0
    - 0
    - 0
    - 1000000000000
    - 0
    - 0
    - 0
    - 0
    - 0
    - 0
    - 0.001
---
header:
  stamp:
    sec: 292
    nanosec: 159000000
  frame_id: odom
child_frame_id: base_footprint
pose:
  pose:
    position:
      x: -5.8067532200773115
      y: 3.1645091708363395
      z: 0.008533935440294356
    orientation:
      x: 0.0000988053647150253
      y: 0.0028648732415405683
      z: -0.025600558770617857
      w: 0.999668141999855
  covariance:
    - 0.00001
    - 0
    - 0
    - 0
    - 0
    - 0
    - 0
    - 0.00001
    - 0
    - 0
    - 0
    - 0
    - 0
    - 0
    - 1000000000000
    - 0
    - 0
    - 0
    - 0
    - 0
    - 0
    - 1000000000000
    - 0
    - 0
    - 0
    - 0
    - 0
    - 0
    - 1000000000000
    - 0
    - 0
    - 0
    - 0
    - 0
    - 0
    - 0.001
twist:
  twist:
    linear:
      x: 0.0000021808959508245612
      y: 0.0000015924735715803835
      z: 0
    angular:
      x: 0
      y: 0
      z: 0.0000017720062984285287
  covariance:
    - 0.00001
    - 0
    - 0
    - 0
    - 0
    - 0
    - 0
    - 0.00001
    - 0
    - 0
    - 0
    - 0
    - 0
    - 0
    - 1000000000000
    - 0
    - 0
    - 0
    - 0
    - 0
    - 0
    - 1000000000000
    - 0
    - 0
    - 0
    - 0
    - 0
    - 0
    - 1000000000000
    - 0
    - 0
    - 0
    - 0
    - 0
    - 0
    - 0.001
---
header:
  stamp:
    sec: 292
    nanosec: 193000000
  frame_id: odom
child_frame_id: base_footprint
pose:
  pose:
    position:
      x: -5.8067532271311
      y: 3.1645091677367803
      z: 0.008534528825049075
    orientation:
      x: 0.00009879833283102922
      y: 0.002864438507015956
      z: -0.025600528989085124
      w: 0.9996681440090046
  covariance:
    - 0.00001
    - 0
    - 0
    - 0
    - 0
    - 0
    - 0
    - 0.00001
    - 0
    - 0
    - 0
    - 0
    - 0
    - 0
    - 1000000000000
    - 0
    - 0
    - 0
    - 0
    - 0
    - 0
    - 1000000000000
    - 0
    - 0
    - 0
    - 0
    - 0
    - 0
    - 1000000000000
    - 0
    - 0
    - 0
    - 0
    - 0
    - 0
    - 0.001
twist:
  twist:
    linear:
      x: 0.000004117158338833386
      y: 0.0000012647499884517974
      z: 0
    angular:
      x: 0
      y: 0
      z: 0.000001611058080785257
  covariance:
    - 0.00001
    - 0
    - 0
    - 0
    - 0
    - 0
    - 0
    - 0.00001
    - 0
    - 0
    - 0
    - 0
    - 0
    - 0
    - 1000000000000
    - 0
    - 0
    - 0
    - 0
    - 0
    - 0
    - 1000000000000
    - 0
    - 0
    - 0
    - 0
    - 0
    - 0
    - 1000000000000
    - 0
    - 0
    - 0
    - 0
    - 0
    - 0
    - 0.001
---
header:
  stamp:
    sec: 292
    nanosec: 227000000
  frame_id: odom
child_frame_id: base_footprint
pose:
  pose:
    position:
      x: -5.8067532276085165
      y: 3.164509165331485
      z: 0.00853172160779846
    orientation:
      x: 0.00009880079727451388
      y: 0.002864314546375794
      z: -0.025600517323297798
      w: 0.9996681446626984
  covariance:
    - 0.00001
    - 0
    - 0
    - 0
    - 0
    - 0
    - 0
    - 0.00001
    - 0
    - 0
    - 0
    - 0
    - 0
    - 0
    - 1000000000000
    - 0
    - 0
    - 0
    - 0
    - 0
    - 0
    - 1000000000000
    - 0
    - 0
    - 0
    - 0
    - 0
    - 0
    - 1000000000000
    - 0
    - 0
    - 0
    - 0
    - 0
    - 0
    - 0.001
twist:
  twist:
    linear:
      x: 0.000003971157173482846
      y: -0.0000030943668504976947
      z: 0
    angular:
      x: 0
      y: 0
      z: 0.0000006009887178020838
  covariance:
    - 0.00001
    - 0
    - 0
    - 0
    - 0
    - 0
    - 0
    - 0.00001
    - 0
    - 0
    - 0
    - 0
    - 0
    - 0
    - 1000000000000
    - 0
    - 0
    - 0
    - 0
    - 0
    - 0
    - 1000000000000
    - 0
    - 0
    - 0
    - 0
    - 0
    - 0
    - 1000000000000
    - 0
    - 0
    - 0
    - 0
    - 0
    - 0
    - 0.001
---
header:
  stamp:
    sec: 292
    nanosec: 261000000
  frame_id: odom
child_frame_id: base_footprint
pose:
  pose:
    position:
      x: -5.806753217799846
      y: 3.164509162597212
      z: 0.008529539937467228
    orientation:
      x: 0.00009881762492944824
      y: 0.0028647089697024335
      z: -0.02560051149873009
      w: 0.9996681436799911
  covariance:
    - 0.00001
    - 0
    - 0
    - 0
    - 0
    - 0
    - 0
    - 0.00001
    - 0
    - 0
    - 0
    - 0
    - 0
    - 0
    - 1000000000000
    - 0
    - 0
    - 0
    - 0
    - 0
    - 0
    - 1000000000000
    - 0
    - 0
    - 0
    - 0
    - 0
    - 0
    - 1000000000000
    - 0
    - 0
    - 0
    - 0
    - 0
    - 0
    - 0.001
twist:
  twist:
    linear:
      x: 0.0000033428490513579038
      y: -0.00000480489592989615
      z: 0
    angular:
      x: 0
      y: 0
      z: 0.0000010038895552929876
  covariance:
    - 0.00001
    - 0
    - 0
    - 0
    - 0
    - 0
    - 0
    - 0.00001
    - 0
    - 0
    - 0
    - 0
    - 0
    - 0
    - 1000000000000
    - 0
    - 0
    - 0
    - 0
    - 0
    - 0
    - 1000000000000
    - 0
    - 0
    - 0
    - 0
    - 0
    - 0
    - 1000000000000
    - 0
    - 0
    - 0
    - 0
    - 0
    - 0
    - 0.001
---
header:
  stamp:
    sec: 292
    nanosec: 295000000
  frame_id: odom
child_frame_id: base_footprint
pose:
  pose:
    position:
      x: -5.8067531977942
      y: 3.164509159250449
      z: 0.008528680929519849
    orientation:
      x: 0.00009884845113456453
      y: 0.0028656205126567557
      z: -0.025600493472997865
      w: 0.9996681415259767
  covariance:
    - 0.00001
    - 0
    - 0
    - 0
    - 0
    - 0
    - 0
    - 0.00001
    - 0
    - 0
    - 0
    - 0
    - 0
    - 0
    - 1000000000000
    - 0
    - 0
    - 0
    - 0
    - 0
    - 0
    - 1000000000000
    - 0
    - 0
    - 0
    - 0
    - 0
    - 0
    - 1000000000000
    - 0
    - 0
    - 0
    - 0
    - 0
    - 0
    - 0.001
twist:
  twist:
    linear:
      x: 0.0000026583529786815533
      y: -0.000004478751467596878
      z: 0
    angular:
      x: 0
      y: 0
      z: 0.0000006808939180624183
  covariance:
    - 0.00001
    - 0
    - 0
    - 0
    - 0
    - 0
    - 0
    - 0.00001
    - 0
    - 0
    - 0
    - 0
    - 0
    - 0
    - 1000000000000
    - 0
    - 0
    - 0
    - 0
    - 0
    - 0
    - 1000000000000
    - 0
    - 0
    - 0
    - 0
    - 0
    - 0
    - 1000000000000
    - 0
    - 0
    - 0
    - 0
    - 0
    - 0
    - 0.001
---
header:
  stamp:
    sec: 292
    nanosec: 329000000
  frame_id: odom
child_frame_id: base_footprint
pose:
  pose:
    position:
      x: -5.806753171416413
      y: 3.1645091654290254
      z: 0.008535498472577351
    orientation:
      x: 0.00009888708677184754
      y: 0.002866808477415781
      z: -0.025600476031238904
      w: 0.9996681385627292
  covariance:
    - 0.00001
    - 0
    - 0
    - 0
    - 0
    - 0
    - 0
    - 0.00001
    - 0
    - 0
    - 0
    - 0
    - 0
    - 0
    - 1000000000000
    - 0
    - 0
    - 0
    - 0
    - 0
    - 0
    - 1000000000000
    - 0
    - 0
    - 0
    - 0
    - 0
    - 0
    - 1000000000000
    - 0
    - 0
    - 0
    - 0
    - 0
    - 0
    - 0.001
twist:
  twist:
    linear:
      x: 0.000004318169007034201
      y: 0.0000014103112311972046
      z: 0
    angular:
      x: 0
      y: 0
      z: 0.00000011566017541773304
  covariance:
    - 0.00001
    - 0
    - 0
    - 0
    - 0
    - 0
    - 0
    - 0.00001
    - 0
    - 0
    - 0
    - 0
    - 0
    - 0
    - 1000000000000
    - 0
    - 0
    - 0
    - 0
    - 0
    - 0
    - 1000000000000
    - 0
    - 0
    - 0
    - 0
    - 0
    - 0
    - 1000000000000
    - 0
    - 0
    - 0
    - 0
    - 0
    - 0
    - 0.001
---
header:
  stamp:
    sec: 292
    nanosec: 363000000
  frame_id: odom
child_frame_id: base_footprint
pose:
  pose:
    position:
      x: -5.80675317041458
      y: 3.164509162951341
      z: 0.008527371114438385
    orientation:
      x: 0.00009889211855006933
      y: 0.0028667538865507817
      z: -0.02560048032503546
      w: 0.9996681386088236
  covariance:
    - 0.00001
    - 0
    - 0
    - 0
    - 0
    - 0
    - 0
    - 0.00001
    - 0
    - 0
    - 0
    - 0
    - 0
    - 0
    - 1000000000000
    - 0
    - 0
    - 0
    - 0
    - 0
    - 0
    - 1000000000000
    - 0
    - 0
    - 0
    - 0
    - 0
    - 0
    - 1000000000000
    - 0
    - 0
    - 0
    - 0
    - 0
    - 0
    - 0.001
twist:
  twist:
    linear:
      x: 0.0000012173971252176005
      y: -0.0000029258973005273663
      z: 0
    angular:
      x: 0
      y: 0
      z: -0.0000008636904736619492
  covariance:
    - 0.00001
    - 0
    - 0
    - 0
    - 0
    - 0
    - 0
    - 0.00001
    - 0
    - 0
    - 0
    - 0
    - 0
    - 0
    - 1000000000000
    - 0
    - 0
    - 0
    - 0
    - 0
    - 0
    - 1000000000000
    - 0
    - 0
    - 0
    - 0
    - 0
    - 0
    - 1000000000000
    - 0
    - 0
    - 0
    - 0
    - 0
    - 0
    - 0.001
---
header:
  stamp:
    sec: 292
    nanosec: 397000000
  frame_id: odom
child_frame_id: base_footprint
pose:
  pose:
    position:
      x: -5.8067531774987335
      y: 3.1645091605042945
      z: 0.00852973639372936
    orientation:
      x: 0.00009888516760419058
      y: 0.0028663019663809496
      z: -0.02560046627521174
      w: 0.9996681402651846
  covariance:
    - 0.00001
    - 0
    - 0
    - 0
    - 0
    - 0
    - 0
    - 0.00001
    - 0
    - 0
    - 0
    - 0
    - 0
    - 0
    - 1000000000000
    - 0
    - 0
    - 0
    - 0
    - 0
    - 0
    - 1000000000000
    - 0
    - 0
    - 0
    - 0
    - 0
    - 0
    - 1000000000000
    - 0
    - 0
    - 0
    - 0
    - 0
    - 0
    - 0.001
twist:
  twist:
    linear:
      x: 0.0000032621635345391915
      y: -0.0000030953723052538696
      z: 0
    angular:
      x: 0
      y: 0
      z: 0.0000018237391911786754
  covariance:
    - 0.00001
    - 0
    - 0
    - 0
    - 0
    - 0
    - 0
    - 0.00001
    - 0
    - 0
    - 0
    - 0
    - 0
    - 0
    - 1000000000000
    - 0
    - 0
    - 0
    - 0
    - 0
    - 0
    - 1000000000000
    - 0
    - 0
    - 0
    - 0
    - 0
    - 0
    - 1000000000000
    - 0
    - 0
    - 0
    - 0
    - 0
    - 0
    - 0.001
---
header:
  stamp:
    sec: 292
    nanosec: 431000000
  frame_id: odom
child_frame_id: base_footprint
pose:
  pose:
    position:
      x: -5.806753187569016
      y: 3.1645091651727135
      z: 0.008533802819729914
    orientation:
      x: 0.0000988726107166973
      y: 0.002865684772520003
      z: -0.025600439280528724
      w: 0.9996681427271931
  covariance:
    - 0.00001
    - 0
    - 0
    - 0
    - 0
    - 0
    - 0
    - 0.00001
    - 0
    - 0
    - 0
    - 0
    - 0
    - 0
    - 1000000000000
    - 0
    - 0
    - 0
    - 0
    - 0
    - 0
    - 1000000000000
    - 0
    - 0
    - 0
    - 0
    - 0
    - 0
    - 1000000000000
    - 0
    - 0
    - 0
    - 0
    - 0
    - 0
    - 0.001
twist:
  twist:
    linear:
      x: 0.000002160072907350588
      y: 0.0000013698263712289804
      z: 0
    angular:
      x: 0
      y: 0
      z: 0.000001315913625873665
  covariance:
    - 0.00001
    - 0
    - 0
    - 0
    - 0
    - 0
    - 0
    - 0.00001
    - 0
    - 0
    - 0
    - 0
    - 0
    - 0
    - 1000000000000
    - 0
    - 0
    - 0
    - 0
    - 0
    - 0
    - 1000000000000
    - 0
    - 0
    - 0
    - 0
    - 0
    - 0
    - 1000000000000
    - 0
    - 0
    - 0
    - 0
    - 0
    - 0
    - 0.001
---
header:
  stamp:
    sec: 292
    nanosec: 465000000
  frame_id: odom
child_frame_id: base_footprint
pose:
  pose:
    position:
      x: -5.806753195042414
      y: 3.1645091612680774
      z: 0.008534550087360072
    orientation:
      x: 0.00009886404287608385
      y: 0.0028652322179975355
      z: -0.025600414490972747
      w: 0.9996681446600809
  covariance:
    - 0.00001
    - 0
    - 0
    - 0
    - 0
    - 0
    - 0
    - 0.00001
    - 0
    - 0
    - 0
    - 0
    - 0
    - 0
    - 1000000000000
    - 0
    - 0
    - 0
    - 0
    - 0
    - 0
    - 1000000000000
    - 0
    - 0
    - 0
    - 0
    - 0
    - 0
    - 1000000000000
    - 0
    - 0
    - 0
    - 0
    - 0
    - 0
    - 0.001
twist:
  twist:
    linear:
      x: 0.00000410491595211713
      y: 0.0000012626018085144037
      z: 0
    angular:
      x: 0
      y: 0
      z: 0.0000017626985789880468
  covariance:
    - 0.00001
    - 0
    - 0
    - 0
    - 0
    - 0
    - 0
    - 0.00001
    - 0
    - 0
    - 0
    - 0
    - 0
    - 0
    - 1000000000000
    - 0
    - 0
    - 0
    - 0
    - 0
    - 0
    - 1000000000000
    - 0
    - 0
    - 0
    - 0
    - 0
    - 0
    - 1000000000000
    - 0
    - 0
    - 0
    - 0
    - 0
    - 0
    - 0.001
---
header:
  stamp:
    sec: 292
    nanosec: 499000000
  frame_id: odom
child_frame_id: base_footprint
pose:
  pose:
    position:
      x: -5.806753195936813
      y: 3.1645091589076024
      z: 0.00853172226956148
    orientation:
      x: 0.00009886510324750567
      y: 0.002865088455482271
      z: -0.025600396206137587
      w: 0.9996681455402701
  covariance:
    - 0.00001
    - 0
    - 0
    - 0
    - 0
    - 0
    - 0
    - 0.00001
    - 0
    - 0
    - 0
    - 0
    - 0
    - 0
    - 1000000000000
    - 0
    - 0
    - 0
    - 0
    - 0
    - 0
    - 1000000000000
    - 0
    - 0
    - 0
    - 0
    - 0
    - 0
    - 1000000000000
    - 0
    - 0
    - 0
    - 0
    - 0
    - 0
    - 0.001
twist:
  twist:
    linear:
      x: 0.0000039607119477060006
      y: -0.0000030910568709660343
      z: 0
    angular:
      x: 0
      y: 0
      z: 0.0000009901082207674523
  covariance:
    - 0.00001
    - 0
    - 0
    - 0
    - 0
    - 0
    - 0
    - 0.00001
    - 0
    - 0
    - 0
    - 0
    - 0
    - 0
    - 1000000000000
    - 0
    - 0
    - 0
    - 0
    - 0
    - 0
    - 1000000000000
    - 0
    - 0
    - 0
    - 0
    - 0
    - 0
    - 1000000000000
    - 0
    - 0
    - 0
    - 0
    - 0
    - 0
    - 0.001
---
header:
  stamp:
    sec: 292
    nanosec: 533000000
  frame_id: odom
child_frame_id: base_footprint
pose:
  pose:
    position:
      x: -5.806753186528431
      y: 3.164509156210984
      z: 0.008529540246434405
    orientation:
      x: 0.00009888078852292163
      y: 0.0028654631230652745
      z: -0.025600388936186585
      w: 0.9996681446510118
  covariance:
    - 0.00001
    - 0
    - 0
    - 0
    - 0
    - 0
    - 0
    - 0.00001
    - 0
    - 0
    - 0
    - 0
    - 0
    - 0
    - 1000000000000
    - 0
    - 0
    - 0
    - 0
    - 0
    - 0
    - 1000000000000
    - 0
    - 0
    - 0
    - 0
    - 0
    - 0
    - 1000000000000
    - 0
    - 0
    - 0
    - 0
    - 0
    - 0
    - 0.001
twist:
  twist:
    linear:
      x: 0.0000033332055307746807
      y: -0.0000047935897387991874
      z: 0
    angular:
      x: 0
      y: 0
      z: 0.0000008160469157236127
  covariance:
    - 0.00001
    - 0
    - 0
    - 0
    - 0
    - 0
    - 0
    - 0.00001
    - 0
    - 0
    - 0
    - 0
    - 0
    - 0
    - 1000000000000
    - 0
    - 0
    - 0
    - 0
    - 0
    - 0
    - 1000000000000
    - 0
    - 0
    - 0
    - 0
    - 0
    - 0
    - 1000000000000
    - 0
    - 0
    - 0
    - 0
    - 0
    - 0
    - 0.001
---
header:
  stamp:
    sec: 292
    nanosec: 567000000
  frame_id: odom
child_frame_id: base_footprint
pose:
  pose:
    position:
      x: -5.8067531692642325
      y: 3.1645091585566583
      z: 0.00852623601450273
    orientation:
      x: 0.00009890707073338598
      y: 0.0028662075895304773
      z: -0.025600374939714603
      w: 0.9996681428726191
  covariance:
    - 0.00001
    - 0
    - 0
    - 0
    - 0
    - 0
    - 0
    - 0.00001
    - 0
    - 0
    - 0
    - 0
    - 0
    - 0
    - 1000000000000
    - 0
    - 0
    - 0
    - 0
    - 0
    - 0
    - 1000000000000
    - 0
    - 0
    - 0
    - 0
    - 0
    - 0
    - 1000000000000
    - 0
    - 0
    - 0
    - 0
    - 0
    - 0
    - 0.001
twist:
  twist:
    linear:
      x: 0.0000012246034098536164
      y: -0.0000029831216531916018
      z: 0
    angular:
      x: 0
      y: 0
      z: 0.00000022004944930039582
  covariance:
    - 0.00001
    - 0
    - 0
    - 0
    - 0
    - 0
    - 0
    - 0.00001
    - 0
    - 0
    - 0
    - 0
    - 0
    - 0
    - 1000000000000
    - 0
    - 0
    - 0
    - 0
    - 0
    - 0
    - 1000000000000
    - 0
    - 0
    - 0
    - 0
    - 0
    - 0
    - 1000000000000
    - 0
    - 0
    - 0
    - 0
    - 0
    - 0
    - 0.001
---
header:
  stamp:
    sec: 292
    nanosec: 601000000
  frame_id: odom
child_frame_id: base_footprint
pose:
  pose:
    position:
      x: -5.806753158884815
      y: 3.1645091564772927
      z: 0.008533220668279724
    orientation:
      x: 0.00009892467176937654
      y: 0.002866633063544931
      z: -0.02560036912335359
      w: 0.9996681417998357
  covariance:
    - 0.00001
    - 0
    - 0
    - 0
    - 0
    - 0
    - 0
    - 0.00001
    - 0
    - 0
    - 0
    - 0
    - 0
    - 0
    - 1000000000000
    - 0
    - 0
    - 0
    - 0
    - 0
    - 0
    - 1000000000000
    - 0
    - 0
    - 0
    - 0
    - 0
    - 0
    - 1000000000000
    - 0
    - 0
    - 0
    - 0
    - 0
    - 0
    - 0.001
twist:
  twist:
    linear:
      x: 0.000004637567783898284
      y: -0.000002481543010633383
      z: 0
    angular:
      x: 0
      y: 0
      z: 0.0000004788704184759527
  covariance:
    - 0.00001
    - 0
    - 0
    - 0
    - 0
    - 0
    - 0
    - 0.00001
    - 0
    - 0
    - 0
    - 0
    - 0
    - 0
    - 1000000000000
    - 0
    - 0
    - 0
    - 0
    - 0
    - 0
    - 1000000000000
    - 0
    - 0
    - 0
    - 0
    - 0
    - 0
    - 1000000000000
    - 0
    - 0
    - 0
    - 0
    - 0
    - 0
    - 0.001
---
header:
  stamp:
    sec: 292
    nanosec: 635000000
  frame_id: odom
child_frame_id: base_footprint
pose:
  pose:
    position:
      x: -5.80675315799971
      y: 3.1645091617809515
      z: 0.008530153293627525
    orientation:
      x: 0.00009892812882747127
      y: 0.0028665426220853617
      z: -0.02560035555108443
      w: 0.9996681424064084
  covariance:
    - 0.00001
    - 0
    - 0
    - 0
    - 0
    - 0
    - 0
    - 0.00001
    - 0
    - 0
    - 0
    - 0
    - 0
    - 0
    - 1000000000000
    - 0
    - 0
    - 0
    - 0
    - 0
    - 0
    - 1000000000000
    - 0
    - 0
    - 0
    - 0
    - 0
    - 0
    - 1000000000000
    - 0
    - 0
    - 0
    - 0
    - 0
    - 0
    - 0.001
twist:
  twist:
    linear:
      x: 0.000000719171464819996
      y: 0.0000009424209017193512
      z: 0
    angular:
      x: 0
      y: 0
      z: 0.0000009598446560809997
  covariance:
    - 0.00001
    - 0
    - 0
    - 0
    - 0
    - 0
    - 0
    - 0.00001
    - 0
    - 0
    - 0
    - 0
    - 0
    - 0
    - 1000000000000
    - 0
    - 0
    - 0
    - 0
    - 0
    - 0
    - 1000000000000
    - 0
    - 0
    - 0
    - 0
    - 0
    - 0
    - 1000000000000
    - 0
    - 0
    - 0
    - 0
    - 0
    - 0
    - 0.001
---
header:
  stamp:
    sec: 292
    nanosec: 669000000
  frame_id: odom
child_frame_id: base_footprint
pose:
  pose:
    position:
      x: -5.806753171865633
      y: 3.16450915422419
      z: 0.008530676839170682
    orientation:
      x: 0.00009891277576668448
      y: 0.00286578229534092
      z: -0.02560034024896423
      w: 0.9996681449797408
  covariance:
    - 0.00001
    - 0
    - 0
    - 0
    - 0
    - 0
    - 0
    - 0.00001
    - 0
    - 0
    - 0
    - 0
    - 0
    - 0
    - 1000000000000
    - 0
    - 0
    - 0
    - 0
    - 0
    - 0
    - 1000000000000
    - 0
    - 0
    - 0
    - 0
    - 0
    - 0
    - 1000000000000
    - 0
    - 0
    - 0
    - 0
    - 0
    - 0
    - 0.001
twist:
  twist:
    linear:
      x: 0.000003271654119526504
      y: -0.000003878735927644079
      z: 0
    angular:
      x: 0
      y: 0
      z: 0.0000016122194964134524
  covariance:
    - 0.00001
    - 0
    - 0
    - 0
    - 0
    - 0
    - 0
    - 0.00001
    - 0
    - 0
    - 0
    - 0
    - 0
    - 0
    - 1000000000000
    - 0
    - 0
    - 0
    - 0
    - 0
    - 0
    - 1000000000000
    - 0
    - 0
    - 0
    - 0
    - 0
    - 0
    - 1000000000000
    - 0
    - 0
    - 0
    - 0
    - 0
    - 0
    - 0.001
---
header:
  stamp:
    sec: 292
    nanosec: 703000000
  frame_id: odom
child_frame_id: base_footprint
pose:
  pose:
    position:
      x: -5.806753182065008
      y: 3.1645091601635187
      z: 0.008533775153813837
    orientation:
      x: 0.00009890059206803866
      y: 0.0028651493448355295
      z: -0.025600318163433524
      w: 0.9996681473608308
  covariance:
    - 0.00001
    - 0
    - 0
    - 0
    - 0
    - 0
    - 0
    - 0.00001
    - 0
    - 0
    - 0
    - 0
    - 0
    - 0
    - 1000000000000
    - 0
    - 0
    - 0
    - 0
    - 0
    - 0
    - 1000000000000
    - 0
    - 0
    - 0
    - 0
    - 0
    - 0
    - 1000000000000
    - 0
    - 0
    - 0
    - 0
    - 0
    - 0
    - 0.001
twist:
  twist:
    linear:
      x: 0.000002151776751781841
      y: 0.0000013641170478644565
      z: 0
    angular:
      x: 0
      y: 0
      z: 0.0000008314439414911741
  covariance:
    - 0.00001
    - 0
    - 0
    - 0
    - 0
    - 0
    - 0
    - 0.00001
    - 0
    - 0
    - 0
    - 0
    - 0
    - 0
    - 1000000000000
    - 0
    - 0
    - 0
    - 0
    - 0
    - 0
    - 1000000000000
    - 0
    - 0
    - 0
    - 0
    - 0
    - 0
    - 1000000000000
    - 0
    - 0
    - 0
    - 0
    - 0
    - 0
    - 0.001
---
header:
  stamp:
    sec: 292
    nanosec: 737000000
  frame_id: odom
child_frame_id: base_footprint
pose:
  pose:
    position:
      x: -5.806583735599766
      y: 3.164500482157624
      z: 0.008529821773199261
    orientation:
      x: 0.00009868746849338121
      y: 0.0028570899720304407
      z: -0.0256002870679924
      w: 0.9996681712446944
  covariance:
    - 0.00001
    - 0
    - 0
    - 0
    - 0
    - 0
    - 0
    - 0.00001
    - 0
    - 0
    - 0
    - 0
    - 0
    - 0
    - 1000000000000
    - 0
    - 0
    - 0
    - 0
    - 0
    - 0
    - 1000000000000
    - 0
    - 0
    - 0
    - 0
    - 0
    - 0
    - 1000000000000
    - 0
    - 0
    - 0
    - 0
    - 0
    - 0
    - 0.001
twist:
  twist:
    linear:
      x: 0.004820560880885542
      y: -0.0000033065248435211404
      z: 0
    angular:
      x: 0
      y: 0
      z: -0.0000007493280491430634
  covariance:
    - 0.00001
    - 0
    - 0
    - 0
    - 0
    - 0
    - 0
    - 0.00001
    - 0
    - 0
    - 0
    - 0
    - 0
    - 0
    - 1000000000000
    - 0
    - 0
    - 0
    - 0
    - 0
    - 0
    - 1000000000000
    - 0
    - 0
    - 0
    - 0
    - 0
    - 0
    - 1000000000000
    - 0
    - 0
    - 0
    - 0
    - 0
    - 0
    - 0.001
---
header:
  stamp:
    sec: 292
    nanosec: 771000000
  frame_id: odom
child_frame_id: base_footprint
pose:
  pose:
    position:
      x: -5.806414082440087
      y: 3.164491781466945
      z: 0.008537871438302782
    orientation:
      x: 0.0000984818177868223
      y: 0.002849940203357593
      z: -0.02560030135087988
      w: 0.9996681913079525
  covariance:
    - 0.00001
    - 0
    - 0
    - 0
    - 0
    - 0
    - 0
    - 0.00001
    - 0
    - 0
    - 0
    - 0
    - 0
    - 0
    - 1000000000000
    - 0
    - 0
    - 0
    - 0
    - 0
    - 0
    - 1000000000000
    - 0
    - 0
    - 0
    - 0
    - 0
    - 0
    - 1000000000000
    - 0
    - 0
    - 0
    - 0
    - 0
    - 0
    - 0.001
twist:
  twist:
    linear:
      x: 0.005021988148819544
      y: 0.0000006086186672769997
      z: 0
    angular:
      x: 0
      y: 0
      z: 0.0000012310004270688846
  covariance:
    - 0.00001
    - 0
    - 0
    - 0
    - 0
    - 0
    - 0
    - 0.00001
    - 0
    - 0
    - 0
    - 0
    - 0
    - 0
    - 1000000000000
    - 0
    - 0
    - 0
    - 0
    - 0
    - 0
    - 1000000000000
    - 0
    - 0
    - 0
    - 0
    - 0
    - 0
    - 1000000000000
    - 0
    - 0
    - 0
    - 0
    - 0
    - 0
    - 0.001
---
header:
  stamp:
    sec: 292
    nanosec: 805000000
  frame_id: odom
child_frame_id: base_footprint
pose:
  pose:
    position:
      x: -5.806244395612258
      y: 3.164483084376982
      z: 0.008535825888887565
    orientation:
      x: 0.00009827774857021307
      y: 0.0028431745739756656
      z: -0.025600261109283737
      w: 0.999668211623718
  covariance:
    - 0.00001
    - 0
    - 0
    - 0
    - 0
    - 0
    - 0
    - 0.00001
    - 0
    - 0
    - 0
    - 0
    - 0
    - 0
    - 1000000000000
    - 0
    - 0
    - 0
    - 0
    - 0
    - 0
    - 1000000000000
    - 0
    - 0
    - 0
    - 0
    - 0
    - 0
    - 1000000000000
    - 0
    - 0
    - 0
    - 0
    - 0
    - 0
    - 0.001
twist:
  twist:
    linear:
      x: 0.0050147784743825126
      y: 0.0000007409016634972801
      z: 0
    angular:
      x: 0
      y: 0
      z: 0.000004186529464269679
  covariance:
    - 0.00001
    - 0
    - 0
    - 0
    - 0
    - 0
    - 0
    - 0.00001
    - 0
    - 0
    - 0
    - 0
    - 0
    - 0
    - 1000000000000
    - 0
    - 0
    - 0
    - 0
    - 0
    - 0
    - 1000000000000
    - 0
    - 0
    - 0
    - 0
    - 0
    - 0
    - 1000000000000
    - 0
    - 0
    - 0
    - 0
    - 0
    - 0
    - 0.001
---
header:
  stamp:
    sec: 292
    nanosec: 839000000
  frame_id: odom
child_frame_id: base_footprint
pose:
  pose:
    position:
      x: -5.805905259228135
      y: 3.164465712900353
      z: 0.008533363483268119
    orientation:
      x: 0.00009794506761823524
      y: 0.002831893574190883
      z: -0.02560018104264968
      w: 0.9996682457276173
  covariance:
    - 0.00001
    - 0
    - 0
    - 0
    - 0
    - 0
    - 0
    - 0.00001
    - 0
    - 0
    - 0
    - 0
    - 0
    - 0
    - 1000000000000
    - 0
    - 0
    - 0
    - 0
    - 0
    - 0
    - 1000000000000
    - 0
    - 0
    - 0
    - 0
    - 0
    - 0
    - 1000000000000
    - 0
    - 0
    - 0
    - 0
    - 0
    - 0
    - 0.001
twist:
  twist:
    linear:
      x: 0.009711397019699966
      y: -0.000004873964132845682
      z: 0
    angular:
      x: 0
      y: 0
      z: 0.000001281024088162002
  covariance:
    - 0.00001
    - 0
    - 0
    - 0
    - 0
    - 0
    - 0
    - 0.00001
    - 0
    - 0
    - 0
    - 0
    - 0
    - 0
    - 1000000000000
    - 0
    - 0
    - 0
    - 0
    - 0
    - 0
    - 1000000000000
    - 0
    - 0
    - 0
    - 0
    - 0
    - 0
    - 1000000000000
    - 0
    - 0
    - 0
    - 0
    - 0
    - 0
    - 0.001
---
header:
  stamp:
    sec: 292
    nanosec: 873000000
  frame_id: odom
child_frame_id: base_footprint
pose:
  pose:
    position:
      x: -5.805565860522702
      y: 3.16444830879042
      z: 0.008538740015718317
    orientation:
      x: 0.00009769542786975832
      y: 0.0028244167974373242
      z: -0.025600199670163512
      w: 0.9996682664275213
  covariance:
    - 0.00001
    - 0
    - 0
    - 0
    - 0
    - 0
    - 0
    - 0.00001
    - 0
    - 0
    - 0
    - 0
    - 0
    - 0
    - 1000000000000
    - 0
    - 0
    - 0
    - 0
    - 0
    - 0
    - 1000000000000
    - 0
    - 0
    - 0
    - 0
    - 0
    - 0
    - 1000000000000
    - 0
    - 0
    - 0
    - 0
    - 0
    - 0
    - 0.001
twist:
  twist:
    linear:
      x: 0.00976968995722995
      y: -0.0000039225681516465594
      z: 0
    angular:
      x: 0
      y: 0
      z: -0.0000014157923711165355
  covariance:
    - 0.00001
    - 0
    - 0
    - 0
    - 0
    - 0
    - 0
    - 0.00001
    - 0
    - 0
    - 0
    - 0
    - 0
    - 0
    - 1000000000000
    - 0
    - 0
    - 0
    - 0
    - 0
    - 0
    - 1000000000000
    - 0
    - 0
    - 0
    - 0
    - 0
    - 0
    - 1000000000000
    - 0
    - 0
    - 0
    - 0
    - 0
    - 0
    - 0.001
---
header:
  stamp:
    sec: 292
    nanosec: 907000000
  frame_id: odom
child_frame_id: base_footprint
pose:
  pose:
    position:
      x: -5.805226300780928
      y: 3.1644309041229888
      z: 0.008540060891271049
    orientation:
      x: 0.00009754378860310804
      y: 0.002821052287859294
      z: -0.02560019598125665
      w: 0.999668276037066
  covariance:
    - 0.00001
    - 0
    - 0
    - 0
    - 0
    - 0
    - 0
    - 0.00001
    - 0
    - 0
    - 0
    - 0
    - 0
    - 0
    - 1000000000000
    - 0
    - 0
    - 0
    - 0
    - 0
    - 0
    - 1000000000000
    - 0
    - 0
    - 0
    - 0
    - 0
    - 0
    - 1000000000000
    - 0
    - 0
    - 0
    - 0
    - 0
    - 0
    - 0.001
twist:
  twist:
    linear:
      x: 0.010031870344154977
      y: 0.00000065996484394299
      z: 0
    angular:
      x: 0
      y: 0
      z: 0.0000035567779377564956
  covariance:
    - 0.00001
    - 0
    - 0
    - 0
    - 0
    - 0
    - 0
    - 0.00001
    - 0
    - 0
    - 0
    - 0
    - 0
    - 0
    - 1000000000000
    - 0
    - 0
    - 0
    - 0
    - 0
    - 0
    - 1000000000000
    - 0
    - 0
    - 0
    - 0
    - 0
    - 0
    - 1000000000000
    - 0
    - 0
    - 0
    - 0
    - 0
    - 0
    - 0.001
---
header:
  stamp:
    sec: 292
    nanosec: 941000000
  frame_id: odom
child_frame_id: base_footprint
pose:
  pose:
    position:
      x: -5.804886741626769
      y: 3.1644135088504717
      z: 0.008533561240809218
    orientation:
      x: 0.00009748670703108709
      y: 0.0028214129417478482
      z: -0.025600135837465555
      w: 0.99966827656501
  covariance:
    - 0.00001
    - 0
    - 0
    - 0
    - 0
    - 0
    - 0
    - 0.00001
    - 0
    - 0
    - 0
    - 0
    - 0
    - 0
    - 1000000000000
    - 0
    - 0
    - 0
    - 0
    - 0
    - 0
    - 1000000000000
    - 0
    - 0
    - 0
    - 0
    - 0
    - 0
    - 1000000000000
    - 0
    - 0
    - 0
    - 0
    - 0
    - 0
    - 0.001
twist:
  twist:
    linear:
      x: 0.009830460909302834
      y: -0.000006294320900822954
      z: 0
    angular:
      x: 0
      y: 0
      z: 0.000003287725597582896
  covariance:
    - 0.00001
    - 0
    - 0
    - 0
    - 0
    - 0
    - 0
    - 0.00001
    - 0
    - 0
    - 0
    - 0
    - 0
    - 0
    - 1000000000000
    - 0
    - 0
    - 0
    - 0
    - 0
    - 0
    - 1000000000000
    - 0
    - 0
    - 0
    - 0
    - 0
    - 0
    - 1000000000000
    - 0
    - 0
    - 0
    - 0
    - 0
    - 0
    - 0.001
---
header:
  stamp:
    sec: 292
    nanosec: 975000000
  frame_id: odom
child_frame_id: base_footprint
pose:
  pose:
    position:
      x: -5.804547100612416
      y: 3.1643960904194737
      z: 0.008535242574870901
    orientation:
      x: 0.00009755433516570364
      y: 0.0028264474822521832
      z: -0.02560009653215252
      w: 0.9996682633430585
  covariance:
    - 0.00001
    - 0
    - 0
    - 0
    - 0
    - 0
    - 0
    - 0.00001
    - 0
    - 0
    - 0
    - 0
    - 0
    - 0
    - 1000000000000
    - 0
    - 0
    - 0
    - 0
    - 0
    - 0
    - 1000000000000
    - 0
    - 0
    - 0
    - 0
    - 0
    - 0
    - 1000000000000
    - 0
    - 0
    - 0
    - 0
    - 0
    - 0
    - 0.001
twist:
  twist:
    linear:
      x: 0.009869583066780372
      y: -0.0000058730215958996456
      z: 0
    angular:
      x: 0
      y: 0
      z: 0.0000015818589806196162
  covariance:
    - 0.00001
    - 0
    - 0
    - 0
    - 0
    - 0
    - 0
    - 0.00001
    - 0
    - 0
    - 0
    - 0
    - 0
    - 0
    - 1000000000000
    - 0
    - 0
    - 0
    - 0
    - 0
    - 0
    - 1000000000000
    - 0
    - 0
    - 0
    - 0
    - 0
    - 0
    - 1000000000000
    - 0
    - 0
    - 0
    - 0
    - 0
    - 0
    - 0.001
---
header:
  stamp:
    sec: 293
    nanosec: 9000000
  frame_id: odom
child_frame_id: base_footprint
pose:
  pose:
    position:
      x: -5.8042073397820815
      y: 3.1643786766855615
      z: 0.008539763510108002
    orientation:
      x: 0.00009774090253625946
      y: 0.0028357899843354573
      z: -0.02560009937454448
      w: 0.9996682367935344
  covariance:
    - 0.00001
    - 0
    - 0
    - 0
    - 0
    - 0
    - 0
    - 0.00001
    - 0
    - 0
    - 0
    - 0
    - 0
    - 0
    - 1000000000000
    - 0
    - 0
    - 0
    - 0
    - 0
    - 0
    - 1000000000000
    - 0
    - 0
    - 0
    - 0
    - 0
    - 0
    - 1000000000000
    - 0
    - 0
    - 0
    - 0
    - 0
    - 0
    - 0.001
twist:
  twist:
    linear:
      x: 0.010027162651498242
      y: 0.0000012985044049836558
      z: 0
    angular:
      x: 0
      y: 0
      z: 0.00000026397296197949217
  covariance:
    - 0.00001
    - 0
    - 0
    - 0
    - 0
    - 0
    - 0
    - 0.00001
    - 0
    - 0
    - 0
    - 0
    - 0
    - 0
    - 1000000000000
    - 0
    - 0
    - 0
    - 0
    - 0
    - 0
    - 1000000000000
    - 0
    - 0
    - 0
    - 0
    - 0
    - 0
    - 1000000000000
    - 0
    - 0
    - 0
    - 0
    - 0
    - 0
    - 0.001
---
header:
  stamp:
    sec: 293
    nanosec: 43000000
  frame_id: odom
child_frame_id: base_footprint
pose:
  pose:
    position:
      x: -5.803867552591201
      y: 3.1643612611728327
      z: 0.008528560918506135
    orientation:
      x: 0.00009798832538157658
      y: 0.0028471694040194564
      z: -0.025600095874522756
      w: 0.9996682045138218
  covariance:
    - 0.00001
    - 0
    - 0
    - 0
    - 0
    - 0
    - 0
    - 0.00001
    - 0
    - 0
    - 0
    - 0
    - 0
    - 0
    - 1000000000000
    - 0
    - 0
    - 0
    - 0
    - 0
    - 0
    - 1000000000000
    - 0
    - 0
    - 0
    - 0
    - 0
    - 0
    - 1000000000000
    - 0
    - 0
    - 0
    - 0
    - 0
    - 0
    - 0.001
twist:
  twist:
    linear:
      x: 0.00990923747777693
      y: -0.000007200772744332456
      z: 0
    angular:
      x: 0
      y: 0
      z: 0.0000010175174569361948
  covariance:
    - 0.00001
    - 0
    - 0
    - 0
    - 0
    - 0
    - 0
    - 0.00001
    - 0
    - 0
    - 0
    - 0
    - 0
    - 0
    - 1000000000000
    - 0
    - 0
    - 0
    - 0
    - 0
    - 0
    - 1000000000000
    - 0
    - 0
    - 0
    - 0
    - 0
    - 0
    - 1000000000000
    - 0
    - 0
    - 0
    - 0
    - 0
    - 0
    - 0.001
---
header:
  stamp:
    sec: 293
    nanosec: 77000000
  frame_id: odom
child_frame_id: base_footprint
pose:
  pose:
    position:
      x: -5.803527715853256
      y: 3.1643438444712557
      z: 0.008535576586534435
    orientation:
      x: 0.00009828822006284226
      y: 0.0028602106571092053
      z: -0.025600063219502565
      w: 0.9996681680925827
  covariance:
    - 0.00001
    - 0
    - 0
    - 0
    - 0
    - 0
    - 0
    - 0.00001
    - 0
    - 0
    - 0
    - 0
    - 0
    - 0
    - 1000000000000
    - 0
    - 0
    - 0
    - 0
    - 0
    - 0
    - 1000000000000
    - 0
    - 0
    - 0
    - 0
    - 0
    - 0
    - 1000000000000
    - 0
    - 0
    - 0
    - 0
    - 0
    - 0
    - 0.001
twist:
  twist:
    linear:
      x: 0.010023056452224142
      y: 0.0000012910251671123703
      z: 0
    angular:
      x: 0
      y: 0
      z: 0.000002682571740651844
  covariance:
    - 0.00001
    - 0
    - 0
    - 0
    - 0
    - 0
    - 0
    - 0.00001
    - 0
    - 0
    - 0
    - 0
    - 0
    - 0
    - 1000000000000
    - 0
    - 0
    - 0
    - 0
    - 0
    - 0
    - 1000000000000
    - 0
    - 0
    - 0
    - 0
    - 0
    - 0
    - 1000000000000
    - 0
    - 0
    - 0
    - 0
    - 0
    - 0
    - 0.001
---
header:
  stamp:
    sec: 293
    nanosec: 111000000
  frame_id: odom
child_frame_id: base_footprint
pose:
  pose:
    position:
      x: -5.803187944818512
      y: 3.1643264259140143
      z: 0.008527552408920246
    orientation:
      x: 0.00009856270322116547
      y: 0.002871835739043674
      z: -0.025600040686196333
      w: 0.9996681353137884
  covariance:
    - 0.00001
    - 0
    - 0
    - 0
    - 0
    - 0
    - 0
    - 0.00001
    - 0
    - 0
    - 0
    - 0
    - 0
    - 0
    - 1000000000000
    - 0
    - 0
    - 0
    - 0
    - 0
    - 0
    - 1000000000000
    - 0
    - 0
    - 0
    - 0
    - 0
    - 0
    - 1000000000000
    - 0
    - 0
    - 0
    - 0
    - 0
    - 0
    - 0.001
twist:
  twist:
    linear:
      x: 0.0099394262582844
      y: -0.000005432760789371048
      z: 0
    angular:
      x: 0
      y: 0
      z: 0.000001342036068355164
  covariance:
    - 0.00001
    - 0
    - 0
    - 0
    - 0
    - 0
    - 0
    - 0.00001
    - 0
    - 0
    - 0
    - 0
    - 0
    - 0
    - 1000000000000
    - 0
    - 0
    - 0
    - 0
    - 0
    - 0
    - 1000000000000
    - 0
    - 0
    - 0
    - 0
    - 0
    - 0
    - 1000000000000
    - 0
    - 0
    - 0
    - 0
    - 0
    - 0
    - 0.001
---
header:
  stamp:
    sec: 293
    nanosec: 145000000
  frame_id: odom
child_frame_id: base_footprint
pose:
  pose:
    position:
      x: -5.802848155716287
      y: 3.164309014535327
      z: 0.008530016874324578
    orientation:
      x: 0.00009881377416242258
      y: 0.002882105304680492
      z: -0.02560003489063431
      w: 0.9996681058823719
  covariance:
    - 0.00001
    - 0
    - 0
    - 0
    - 0
    - 0
    - 0
    - 0.00001
    - 0
    - 0
    - 0
    - 0
    - 0
    - 0
    - 1000000000000
    - 0
    - 0
    - 0
    - 0
    - 0
    - 0
    - 1000000000000
    - 0
    - 0
    - 0
    - 0
    - 0
    - 0
    - 1000000000000
    - 0
    - 0
    - 0
    - 0
    - 0
    - 0
    - 0.001
twist:
  twist:
    linear:
      x: 0.010014915006201493
      y: 0.0000011840851868674283
      z: 0
    angular:
      x: 0
      y: 0
      z: 0.00000036678595739058904
  covariance:
    - 0.00001
    - 0
    - 0
    - 0
    - 0
    - 0
    - 0
    - 0.00001
    - 0
    - 0
    - 0
    - 0
    - 0
    - 0
    - 1000000000000
    - 0
    - 0
    - 0
    - 0
    - 0
    - 0
    - 1000000000000
    - 0
    - 0
    - 0
    - 0
    - 0
    - 0
    - 1000000000000
    - 0
    - 0
    - 0
    - 0
    - 0
    - 0
    - 0.001
---
header:
  stamp:
    sec: 293
    nanosec: 179000000
  frame_id: odom
child_frame_id: base_footprint
pose:
  pose:
    position:
      x: -5.802508493061668
      y: 3.1642915995736174
      z: 0.008526175449488612
    orientation:
      x: 0.00009897981693038452
      y: 0.0028886485999136597
      z: -0.02560002289505702
      w: 0.9996680872869927
  covariance:
    - 0.00001
    - 0
    - 0
    - 0
    - 0
    - 0
    - 0
    - 0.00001
    - 0
    - 0
    - 0
    - 0
    - 0
    - 0
    - 1000000000000
    - 0
    - 0
    - 0
    - 0
    - 0
    - 0
    - 1000000000000
    - 0
    - 0
    - 0
    - 0
    - 0
    - 0
    - 1000000000000
    - 0
    - 0
    - 0
    - 0
    - 0
    - 0
    - 0.001
twist:
  twist:
    linear:
      x: 0.009955703936818936
      y: -0.000005165106651286336
      z: 0
    angular:
      x: 0
      y: 0
      z: 0.0000019529634085095386
  covariance:
    - 0.00001
    - 0
    - 0
    - 0
    - 0
    - 0
    - 0
    - 0.00001
    - 0
    - 0
    - 0
    - 0
    - 0
    - 0
    - 1000000000000
    - 0
    - 0
    - 0
    - 0
    - 0
    - 0
    - 1000000000000
    - 0
    - 0
    - 0
    - 0
    - 0
    - 0
    - 1000000000000
    - 0
    - 0
    - 0
    - 0
    - 0
    - 0
    - 0.001
---
header:
  stamp:
    sec: 293
    nanosec: 213000000
  frame_id: odom
child_frame_id: base_footprint
pose:
  pose:
    position:
      x: -5.802168868819551
      y: 3.1642741964121592
      z: 0.008524956580443725
    orientation:
      x: 0.00009906777791670695
      y: 0.002891724905801296
      z: -0.02559999648088204
      w: 0.9996680790606568
  covariance:
    - 0.00001
    - 0
    - 0
    - 0
    - 0
    - 0
    - 0
    - 0.00001
    - 0
    - 0
    - 0
    - 0
    - 0
    - 0
    - 1000000000000
    - 0
    - 0
    - 0
    - 0
    - 0
    - 0
    - 1000000000000
    - 0
    - 0
    - 0
    - 0
    - 0
    - 0
    - 1000000000000
    - 0
    - 0
    - 0
    - 0
    - 0
    - 0
    - 0.001
twist:
  twist:
    linear:
      x: 0.00996107210896109
      y: -0.0000024040465050293326
      z: 0
    angular:
      x: 0
      y: 0
      z: 0.0000006043492376456921
  covariance:
    - 0.00001
    - 0
    - 0
    - 0
    - 0
    - 0
    - 0
    - 0.00001
    - 0
    - 0
    - 0
    - 0
    - 0
    - 0
    - 1000000000000
    - 0
    - 0
    - 0
    - 0
    - 0
    - 0
    - 1000000000000
    - 0
    - 0
    - 0
    - 0
    - 0
    - 0
    - 1000000000000
    - 0
    - 0
    - 0
    - 0
    - 0
    - 0
    - 0.001
---
header:
  stamp:
    sec: 293
    nanosec: 247000000
  frame_id: odom
child_frame_id: base_footprint
pose:
  pose:
    position:
      x: -5.801659877689656
      y: 3.164248112713416
      z: 0.008530669056935822
    orientation:
      x: 0.00009886632606656622
      y: 0.002883436836067691
      z: -0.025599953352434538
      w: 0.9996681041254718
  covariance:
    - 0.00001
    - 0
    - 0
    - 0
    - 0
    - 0
    - 0
    - 0.00001
    - 0
    - 0
    - 0
    - 0
    - 0
    - 0
    - 1000000000000
    - 0
    - 0
    - 0
    - 0
    - 0
    - 0
    - 1000000000000
    - 0
    - 0
    - 0
    - 0
    - 0
    - 0
    - 1000000000000
    - 0
    - 0
    - 0
    - 0
    - 0
    - 0
    - 0.001
twist:
  twist:
    linear:
      x: 0.014783649951268492
      y: -0.000003542849608424454
      z: 0
    angular:
      x: 0
      y: 0
      z: -0.0000008062460686416872
  covariance:
    - 0.00001
    - 0
    - 0
    - 0
    - 0
    - 0
    - 0
    - 0.00001
    - 0
    - 0
    - 0
    - 0
    - 0
    - 0
    - 1000000000000
    - 0
    - 0
    - 0
    - 0
    - 0
    - 0
    - 1000000000000
    - 0
    - 0
    - 0
    - 0
    - 0
    - 0
    - 1000000000000
    - 0
    - 0
    - 0
    - 0
    - 0
    - 0
    - 0.001
---
header:
  stamp:
    sec: 293
    nanosec: 281000000
  frame_id: odom
child_frame_id: base_footprint
pose:
  pose:
    position:
      x: -5.800981127356176
      y: 3.1642133240627532
      z: 0.008531228163627043
    orientation:
      x: 0.00009839545806189951
      y: 0.0028650281481773787
      z: -0.025599919550569457
      w: 0.9996681579659565
  covariance:
    - 0.00001
    - 0
    - 0
    - 0
    - 0
    - 0
    - 0
    - 0.00001
    - 0
    - 0
    - 0
    - 0
    - 0
    - 0
    - 1000000000000
    - 0
    - 0
    - 0
    - 0
    - 0
    - 0
    - 1000000000000
    - 0
    - 0
    - 0
    - 0
    - 0
    - 0
    - 1000000000000
    - 0
    - 0
    - 0
    - 0
    - 0
    - 0
    - 0.001
twist:
  twist:
    linear:
      x: 0.020026851741688816
      y: 0.00000014320369884530948
      z: 0
    angular:
      x: 0
      y: 0
      z: 0.0000030348564774275813
  covariance:
    - 0.00001
    - 0
    - 0
    - 0
    - 0
    - 0
    - 0
    - 0.00001
    - 0
    - 0
    - 0
    - 0
    - 0
    - 0
    - 1000000000000
    - 0
    - 0
    - 0
    - 0
    - 0
    - 0
    - 1000000000000
    - 0
    - 0
    - 0
    - 0
    - 0
    - 0
    - 1000000000000
    - 0
    - 0
    - 0
    - 0
    - 0
    - 0
    - 0.001
---
header:
  stamp:
    sec: 293
    nanosec: 315000000
  frame_id: odom
child_frame_id: base_footprint
pose:
  pose:
    position:
      x: -5.800133087472365
      y: 3.1641698669142846
      z: 0.008533241083043161
    orientation:
      x: 0.00009768512154581256
      y: 0.0028377988427550397
      z: -0.025599826402127084
      w: 0.9996682380887801
  covariance:
    - 0.00001
    - 0
    - 0
    - 0
    - 0
    - 0
    - 0
    - 0.00001
    - 0
    - 0
    - 0
    - 0
    - 0
    - 0
    - 1000000000000
    - 0
    - 0
    - 0
    - 0
    - 0
    - 0
    - 1000000000000
    - 0
    - 0
    - 0
    - 0
    - 0
    - 0
    - 1000000000000
    - 0
    - 0
    - 0
    - 0
    - 0
    - 0
    - 0.001
twist:
  twist:
    linear:
      x: 0.024499607583440705
      y: -0.000005637120783012024
      z: 0
    angular:
      x: 0
      y: 0
      z: 0.000004262521681646233
  covariance:
    - 0.00001
    - 0
    - 0
    - 0
    - 0
    - 0
    - 0
    - 0.00001
    - 0
    - 0
    - 0
    - 0
    - 0
    - 0
    - 1000000000000
    - 0
    - 0
    - 0
    - 0
    - 0
    - 0
    - 1000000000000
    - 0
    - 0
    - 0
    - 0
    - 0
    - 0
    - 1000000000000
    - 0
    - 0
    - 0
    - 0
    - 0
    - 0
    - 0.001
---
header:
  stamp:
    sec: 293
    nanosec: 349000000
  frame_id: odom
child_frame_id: base_footprint
pose:
  pose:
    position:
      x: -5.799115246999776
      y: 3.1641176948378833
      z: 0.008539384736471424
    orientation:
      x: 0.00009683875113920658
      y: 0.002805806911242292
      z: -0.02559972940155675
      w: 0.999668330960024
  covariance:
    - 0.00001
    - 0
    - 0
    - 0
    - 0
    - 0
    - 0
    - 0.00001
    - 0
    - 0
    - 0
    - 0
    - 0
    - 0
    - 1000000000000
    - 0
    - 0
    - 0
    - 0
    - 0
    - 0
    - 1000000000000
    - 0
    - 0
    - 0
    - 0
    - 0
    - 0
    - 1000000000000
    - 0
    - 0
    - 0
    - 0
    - 0
    - 0
    - 0.001
twist:
  twist:
    linear:
      x: 0.02941585869275356
      y: -0.00000532786377747908
      z: 0
    angular:
      x: 0
      y: 0
      z: 0.0000036348314779141443
  covariance:
    - 0.00001
    - 0
    - 0
    - 0
    - 0
    - 0
    - 0
    - 0.00001
    - 0
    - 0
    - 0
    - 0
    - 0
    - 0
    - 1000000000000
    - 0
    - 0
    - 0
    - 0
    - 0
    - 0
    - 1000000000000
    - 0
    - 0
    - 0
    - 0
    - 0
    - 0
    - 1000000000000
    - 0
    - 0
    - 0
    - 0
    - 0
    - 0
    - 0.001
---
header:
  stamp:
    sec: 293
    nanosec: 383000000
  frame_id: odom
child_frame_id: base_footprint
pose:
  pose:
    position:
      x: -5.797927626842161
      y: 3.164056821971542
      z: 0.008545569491047325
    orientation:
      x: 0.00009594953707717277
      y: 0.002772502114026305
      z: -0.02559960584819022
      w: 0.9996684271327826
  covariance:
    - 0.00001
    - 0
    - 0
    - 0
    - 0
    - 0
    - 0
    - 0.00001
    - 0
    - 0
    - 0
    - 0
    - 0
    - 0
    - 1000000000000
    - 0
    - 0
    - 0
    - 0
    - 0
    - 0
    - 1000000000000
    - 0
    - 0
    - 0
    - 0
    - 0
    - 0
    - 1000000000000
    - 0
    - 0
    - 0
    - 0
    - 0
    - 0
    - 0.001
twist:
  twist:
    linear:
      x: 0.034354675246191305
      y: -0.000005113068305718019
      z: 0
    angular:
      x: 0
      y: 0
      z: 0.000008764434894081665
  covariance:
    - 0.00001
    - 0
    - 0
    - 0
    - 0
    - 0
    - 0
    - 0.00001
    - 0
    - 0
    - 0
    - 0
    - 0
    - 0
    - 1000000000000
    - 0
    - 0
    - 0
    - 0
    - 0
    - 0
    - 1000000000000
    - 0
    - 0
    - 0
    - 0
    - 0
    - 0
    - 1000000000000
    - 0
    - 0
    - 0
    - 0
    - 0
    - 0
    - 0.001
---
header:
  stamp:
    sec: 293
    nanosec: 417000000
  frame_id: odom
child_frame_id: base_footprint
pose:
  pose:
    position:
      x: -5.796570101726546
      y: 3.163987259408222
      z: 0.008547624353951146
    orientation:
      x: 0.00009510514084290847
      y: 0.0027412907922215873
      z: -0.02559954439268711
      w: 0.9996685148621475
  covariance:
    - 0.00001
    - 0
    - 0
    - 0
    - 0
    - 0
    - 0
    - 0.00001
    - 0
    - 0
    - 0
    - 0
    - 0
    - 0
    - 1000000000000
    - 0
    - 0
    - 0
    - 0
    - 0
    - 0
    - 1000000000000
    - 0
    - 0
    - 0
    - 0
    - 0
    - 0
    - 1000000000000
    - 0
    - 0
    - 0
    - 0
    - 0
    - 0
    - 0.001
twist:
  twist:
    linear:
      x: 0.039287860478085246
      y: -0.000008640227922991107
      z: 0
    angular:
      x: 0
      y: 0
      z: 0.0000024830197462038707
  covariance:
    - 0.00001
    - 0
    - 0
    - 0
    - 0
    - 0
    - 0
    - 0.00001
    - 0
    - 0
    - 0
    - 0
    - 0
    - 0
    - 1000000000000
    - 0
    - 0
    - 0
    - 0
    - 0
    - 0
    - 1000000000000
    - 0
    - 0
    - 0
    - 0
    - 0
    - 0
    - 1000000000000
    - 0
    - 0
    - 0
    - 0
    - 0
    - 0
    - 0.001
---
header:
  stamp:
    sec: 293
    nanosec: 451000000
  frame_id: odom
child_frame_id: base_footprint
pose:
  pose:
    position:
      x: -5.796533978756736
      y: 3.1639853599530676
      z: 0.008541837877917884
    orientation:
      x: 0.00009602792788808923
      y: 0.002778033829037784
      z: -0.025600528638524456
      w: 0.999668388136841
  covariance:
    - 0.00001
    - 0
    - 0
    - 0
    - 0
    - 0
    - 0
    - 0.00001
    - 0
    - 0
    - 0
    - 0
    - 0
    - 0
    - 1000000000000
    - 0
    - 0
    - 0
    - 0
    - 0
    - 0
    - 1000000000000
    - 0
    - 0
    - 0
    - 0
    - 0
    - 0
    - 1000000000000
    - 0
    - 0
    - 0
    - 0
    - 0
    - 0
    - 0.001
twist:
  twist:
    linear:
      x: 0.0018275974363812272
      y: 0.000002626590372736617
      z: 0
    angular:
      x: 0
      y: 0
      z: -0.00008064845168977286
  covariance:
    - 0.00001
    - 0
    - 0
    - 0
    - 0
    - 0
    - 0
    - 0.00001
    - 0
    - 0
    - 0
    - 0
    - 0
    - 0
    - 1000000000000
    - 0
    - 0
    - 0
    - 0
    - 0
    - 0
    - 1000000000000
    - 0
    - 0
    - 0
    - 0
    - 0
    - 0
    - 1000000000000
    - 0
    - 0
    - 0
    - 0
    - 0
    - 0
    - 0.001
---
header:
  stamp:
    sec: 293
    nanosec: 485000000
  frame_id: odom
child_frame_id: base_footprint
pose:
  pose:
    position:
      x: -5.795346355286479
      y: 3.1639245401174434
      z: 0.008540872105576296
    orientation:
      x: 0.00009610824703131432
      y: 0.0027815330582452425
      z: -0.025600959774708734
      w: 0.9996683673577277
  covariance:
    - 0.00001
    - 0
    - 0
    - 0
    - 0
    - 0
    - 0
    - 0.00001
    - 0
    - 0
    - 0
    - 0
    - 0
    - 0
    - 1000000000000
    - 0
    - 0
    - 0
    - 0
    - 0
    - 0
    - 1000000000000
    - 0
    - 0
    - 0
    - 0
    - 0
    - 0
    - 1000000000000
    - 0
    - 0
    - 0
    - 0
    - 0
    - 0
    - 0.001
twist:
  twist:
    linear:
      x: 0.03448217275843793
      y: -0.00000681227539334802
      z: 0
    angular:
      x: 0
      y: 0
      z: -0.000005538087644601775
  covariance:
    - 0.00001
    - 0
    - 0
    - 0
    - 0
    - 0
    - 0
    - 0.00001
    - 0
    - 0
    - 0
    - 0
    - 0
    - 0
    - 1000000000000
    - 0
    - 0
    - 0
    - 0
    - 0
    - 0
    - 1000000000000
    - 0
    - 0
    - 0
    - 0
    - 0
    - 0
    - 1000000000000
    - 0
    - 0
    - 0
    - 0
    - 0
    - 0
    - 0.001
---
header:
  stamp:
    sec: 293
    nanosec: 519000000
  frame_id: odom
child_frame_id: base_footprint
pose:
  pose:
    position:
      x: -5.793309116384628
      y: 3.163820165277032
      z: 0.00854237076805382
    orientation:
      x: 0.00009538011298715046
      y: 0.00275898046429929
      z: -0.025601698151886454
      w: 0.9996684110149582
  covariance:
    - 0.00001
    - 0
    - 0
    - 0
    - 0
    - 0
    - 0
    - 0.00001
    - 0
    - 0
    - 0
    - 0
    - 0
    - 0
    - 1000000000000
    - 0
    - 0
    - 0
    - 0
    - 0
    - 0
    - 1000000000000
    - 0
    - 0
    - 0
    - 0
    - 0
    - 0
    - 1000000000000
    - 0
    - 0
    - 0
    - 0
    - 0
    - 0
    - 0.001
twist:
  twist:
    linear:
      x: 0.05951965015442071
      y: 0.00003357551059521638
      z: 0
    angular:
      x: 0
      y: 0
      z: -0.00006474570185730068
  covariance:
    - 0.00001
    - 0
    - 0
    - 0
    - 0
    - 0
    - 0
    - 0.00001
    - 0
    - 0
    - 0
    - 0
    - 0
    - 0
    - 1000000000000
    - 0
    - 0
    - 0
    - 0
    - 0
    - 0
    - 1000000000000
    - 0
    - 0
    - 0
    - 0
    - 0
    - 0
    - 1000000000000
    - 0
    - 0
    - 0
    - 0
    - 0
    - 0
    - 0.001
---
header:
  stamp:
    sec: 293
    nanosec: 553000000
  frame_id: odom
child_frame_id: base_footprint
pose:
  pose:
    position:
      x: -5.791102499801634
      y: 3.163707049369679
      z: 0.008552548479305007
    orientation:
      x: 0.00009448850837729246
      y: 0.002739704364752561
      z: -0.025602300786763055
      w: 0.9996684486800309
  covariance:
    - 0.00001
    - 0
    - 0
    - 0
    - 0
    - 0
    - 0
    - 0.00001
    - 0
    - 0
    - 0
    - 0
    - 0
    - 0
    - 1000000000000
    - 0
    - 0
    - 0
    - 0
    - 0
    - 0
    - 1000000000000
    - 0
    - 0
    - 0
    - 0
    - 0
    - 0
    - 1000000000000
    - 0
    - 0
    - 0
    - 0
    - 0
    - 0
    - 0.001
twist:
  twist:
    linear:
      x: 0.06457276032489868
      y: 0.00003414443722936974
      z: 0
    angular:
      x: 0
      y: 0
      z: 0.00000632478555036521
  covariance:
    - 0.00001
    - 0
    - 0
    - 0
    - 0
    - 0
    - 0
    - 0.00001
    - 0
    - 0
    - 0
    - 0
    - 0
    - 0
    - 1000000000000
    - 0
    - 0
    - 0
    - 0
    - 0
    - 0
    - 1000000000000
    - 0
    - 0
    - 0
    - 0
    - 0
    - 0
    - 1000000000000
    - 0
    - 0
    - 0
    - 0
    - 0
    - 0
    - 0.001
---
header:
  stamp:
    sec: 293
    nanosec: 587000000
  frame_id: odom
child_frame_id: base_footprint
pose:
  pose:
    position:
      x: -5.7887258955284615
      y: 3.1635852591815485
      z: 0.00854896669068253
    orientation:
      x: 0.00009353769057364405
      y: 0.002726393783632677
      z: -0.025601685706675724
      w: 0.9996685009124843
  covariance:
    - 0.00001
    - 0
    - 0
    - 0
    - 0
    - 0
    - 0
    - 0.00001
    - 0
    - 0
    - 0
    - 0
    - 0
    - 0
    - 1000000000000
    - 0
    - 0
    - 0
    - 0
    - 0
    - 0
    - 1000000000000
    - 0
    - 0
    - 0
    - 0
    - 0
    - 0
    - 1000000000000
    - 0
    - 0
    - 0
    - 0
    - 0
    - 0
    - 0.001
twist:
  twist:
    linear:
      x: 0.0695560048345929
      y: 0.000027443638385470613
      z: 0
    angular:
      x: 0
      y: 0
      z: 0.0000434922350035754
  covariance:
    - 0.00001
    - 0
    - 0
    - 0
    - 0
    - 0
    - 0
    - 0.00001
    - 0
    - 0
    - 0
    - 0
    - 0
    - 0
    - 1000000000000
    - 0
    - 0
    - 0
    - 0
    - 0
    - 0
    - 1000000000000
    - 0
    - 0
    - 0
    - 0
    - 0
    - 0
    - 1000000000000
    - 0
    - 0
    - 0
    - 0
    - 0
    - 0
    - 0.001
---
header:
  stamp:
    sec: 293
    nanosec: 621000000
  frame_id: odom
child_frame_id: base_footprint
pose:
  pose:
    position:
      x: -5.786179426230759
      y: 3.1634547425414588
      z: 0.00854986739879762
    orientation:
      x: 0.00009260079563067178
      y: 0.002720236707904013
      z: -0.02560142482455382
      w: 0.9996685244541305
  covariance:
    - 0.00001
    - 0
    - 0
    - 0
    - 0
    - 0
    - 0
    - 0.00001
    - 0
    - 0
    - 0
    - 0
    - 0
    - 0
    - 1000000000000
    - 0
    - 0
    - 0
    - 0
    - 0
    - 0
    - 1000000000000
    - 0
    - 0
    - 0
    - 0
    - 0
    - 0
    - 1000000000000
    - 0
    - 0
    - 0
    - 0
    - 0
    - 0
    - 0.001
twist:
  twist:
    linear:
      x: 0.07458358586117897
      y: 0.00002663059314261633
      z: 0
    angular:
      x: 0
      y: 0
      z: -0.000006006583451029805
  covariance:
    - 0.00001
    - 0
    - 0
    - 0
    - 0
    - 0
    - 0
    - 0.00001
    - 0
    - 0
    - 0
    - 0
    - 0
    - 0
    - 1000000000000
    - 0
    - 0
    - 0
    - 0
    - 0
    - 0
    - 1000000000000
    - 0
    - 0
    - 0
    - 0
    - 0
    - 0
    - 1000000000000
    - 0
    - 0
    - 0
    - 0
    - 0
    - 0
    - 0.001
---
header:
  stamp:
    sec: 293
    nanosec: 655000000
  frame_id: odom
child_frame_id: base_footprint
pose:
  pose:
    position:
      x: -5.783463007654308
      y: 3.1633155240960615
      z: 0.00855099177907724
    orientation:
      x: 0.0000917307148620976
      y: 0.002721683269255105
      z: -0.025601713476693516
      w: 0.9996685132046098
  covariance:
    - 0.00001
    - 0
    - 0
    - 0
    - 0
    - 0
    - 0
    - 0.00001
    - 0
    - 0
    - 0
    - 0
    - 0
    - 0
    - 1000000000000
    - 0
    - 0
    - 0
    - 0
    - 0
    - 0
    - 1000000000000
    - 0
    - 0
    - 0
    - 0
    - 0
    - 0
    - 1000000000000
    - 0
    - 0
    - 0
    - 0
    - 0
    - 0
    - 0.001
twist:
  twist:
    linear:
      x: 0.07959925854811524
      y: 0.000025503851662908236
      z: 0
    angular:
      x: 0
      y: 0
      z: -0.000009882788481835697
  covariance:
    - 0.00001
    - 0
    - 0
    - 0
    - 0
    - 0
    - 0
    - 0.00001
    - 0
    - 0
    - 0
    - 0
    - 0
    - 0
    - 1000000000000
    - 0
    - 0
    - 0
    - 0
    - 0
    - 0
    - 1000000000000
    - 0
    - 0
    - 0
    - 0
    - 0
    - 0
    - 1000000000000
    - 0
    - 0
    - 0
    - 0
    - 0
    - 0
    - 0.001
---
header:
  stamp:
    sec: 293
    nanosec: 689000000
  frame_id: odom
child_frame_id: base_footprint
pose:
  pose:
    position:
      x: -5.780576665488284
      y: 3.1631675976819698
      z: 0.008553348726930435
    orientation:
      x: 0.00009094989440749614
      y: 0.002730324993650192
      z: -0.02560167422938961
      w: 0.9996684907158964
  covariance:
    - 0.00001
    - 0
    - 0
    - 0
    - 0
    - 0
    - 0
    - 0.00001
    - 0
    - 0
    - 0
    - 0
    - 0
    - 0
    - 1000000000000
    - 0
    - 0
    - 0
    - 0
    - 0
    - 0
    - 1000000000000
    - 0
    - 0
    - 0
    - 0
    - 0
    - 0
    - 1000000000000
    - 0
    - 0
    - 0
    - 0
    - 0
    - 0
    - 0.001
twist:
  twist:
    linear:
      x: 0.08461342378908554
      y: 0.000024584681602519455
      z: 0
    angular:
      x: 0
      y: 0
      z: 0.00001659716121242664
  covariance:
    - 0.00001
    - 0
    - 0
    - 0
    - 0
    - 0
    - 0
    - 0.00001
    - 0
    - 0
    - 0
    - 0
    - 0
    - 0
    - 1000000000000
    - 0
    - 0
    - 0
    - 0
    - 0
    - 0
    - 1000000000000
    - 0
    - 0
    - 0
    - 0
    - 0
    - 0
    - 1000000000000
    - 0
    - 0
    - 0
    - 0
    - 0
    - 0
    - 0.001
---
header:
  stamp:
    sec: 293
    nanosec: 723000000
  frame_id: odom
child_frame_id: base_footprint
pose:
  pose:
    position:
      x: -5.777520426075176
      y: 3.1630109705061114
      z: 0.008548684497690343
    orientation:
      x: 0.00009024628492060156
      y: 0.002744397193975996
      z: -0.025601426440668797
      w: 0.999668458592074
  covariance:
    - 0.00001
    - 0
    - 0
    - 0
    - 0
    - 0
    - 0
    - 0.00001
    - 0
    - 0
    - 0
    - 0
    - 0
    - 0
    - 1000000000000
    - 0
    - 0
    - 0
    - 0
    - 0
    - 0
    - 1000000000000
    - 0
    - 0
    - 0
    - 0
    - 0
