---
header:
  stamp:
    sec: 227
    nanosec: 999000000
  frame_id: odom
child_frame_id: base_footprint
pose:
  pose:
    position:
      x: -1.9984560791380286
      y: -0.5006566614171273
      z: 0.008525709181801672
    orientation:
      x: 0.001109760850495927
      y: 0.002644541110607008
      z: -0.37416925284091385
      w: 0.9273559969405715
  covariance: [0.00001, 0, 0, 0, 0, 0, 0, 0.00001, 0, 0, 0, 0, 0, 0, 1000000000000, 0, 0, 0, 0, 0, 0, 1000000000000, 0, 0, 0, 0, 0, 0, 1000000000000, 0, 0, 0, 0, 0, 0, 0.001]
twist:
  twist:
    linear:
      x: 0.0000017722465361239677
      y: -0.0000011633236554096206
      z: 0
    angular:
      x: 0
      y: 0
      z: -0.0000006310849261214289
  covariance: [0.00001, 0, 0, 0, 0, 0, 0, 0.00001, 0, 0, 0, 0, 0, 0, 1000000000000, 0, 0, 0, 0, 0, 0, 1000000000000, 0, 0, 0, 0, 0, 0, 1000000000000, 0, 0, 0, 0, 0, 0, 0.001]
---
header:
  stamp:
    sec: 228
    nanosec: 33000000
  frame_id: odom
child_frame_id: base_footprint
pose:
  pose:
    position:
      x: -1.9984560685669261
      y: -0.5006566703258658
      z: 0.00853466673924162
    orientation:
      x: 0.0011099859809547694
      y: 0.0026450849770168626
      z: -0.37416926127494254
      w: 0.92735599171707
  covariance: [0.00001, 0, 0, 0, 0, 0, 0, 0.00001, 0, 0, 0, 0, 0, 0, 1000000000000, 0, 0, 0, 0, 0, 0, 1000000000000, 0, 0, 0, 0, 0, 0, 1000000000000, 0, 0, 0, 0, 0, 0, 0.001]
twist:
  twist:
    linear:
      x: 0.000004665517697059618
      y: 0.0000003460199165497896
      z: 0
    angular:
      x: 0
      y: 0
      z: -0.0000005496222307405261
  covariance: [0.00001, 0, 0, 0, 0, 0, 0, 0.00001, 0, 0, 0, 0, 0, 0, 1000000000000, 0, 0, 0, 0, 0, 0, 1000000000000, 0, 0, 0, 0, 0, 0, 1000000000000, 0, 0, 0, 0, 0, 0, 0.001]
---
header:
  stamp:
    sec: 228
    nanosec: 67000000
  frame_id: odom
child_frame_id: base_footprint
pose:
  pose:
    position:
      x: -1.9984560713814938
      y: -0.5006566665418337
      z: 0.00852769909523187
    orientation:
      x: 0.0011098573752697037
      y: 0.0026447527518632568
      z: -0.3741692688426929
      w: 0.9273559897651025
  covariance: [0.00001, 0, 0, 0, 0, 0, 0, 0.00001, 0, 0, 0, 0, 0, 0, 1000000000000, 0, 0, 0, 0, 0, 0, 1000000000000, 0, 0, 0, 0, 0, 0, 1000000000000, 0, 0, 0, 0, 0, 0, 0.001]
twist:
  twist:
    linear:
      x: 0.00000042490709123380835
      y: -0.00000027348752639982186
      z: 0
    angular:
      x: 0
      y: 0
      z: -0.0000006359920914005892
  covariance: [0.00001, 0, 0, 0, 0, 0, 0, 0.00001, 0, 0, 0, 0, 0, 0, 1000000000000, 0, 0, 0, 0, 0, 0, 1000000000000, 0, 0, 0, 0, 0, 0, 1000000000000, 0, 0, 0, 0, 0, 0, 0.001]
---
header:
  stamp:
    sec: 228
    nanosec: 101000000
  frame_id: odom
child_frame_id: base_footprint
pose:
  pose:
    position:
      x: -1.998456079898522
      y: -0.5006566607389605
      z: 0.008531883793056255
    orientation:
      x: 0.0011096376648058823
      y: 0.002644195423081797
      z: -0.37416927610258277
      w: 0.9273559886881018
  covariance: [0.00001, 0, 0, 0, 0, 0, 0, 0.00001, 0, 0, 0, 0, 0, 0, 1000000000000, 0, 0, 0, 0, 0, 0, 1000000000000, 0, 0, 0, 0, 0, 0, 1000000000000, 0, 0, 0, 0, 0, 0, 0.001]
twist:
  twist:
    linear:
      x: 0.000003771828841574493
      y: -0.0000007995776539809138
      z: 0
    angular:
      x: 0
      y: 0
      z: -0.00000029789204573330166
  covariance: [0.00001, 0, 0, 0, 0, 0, 0, 0.00001, 0, 0, 0, 0, 0, 0, 1000000000000, 0, 0, 0, 0, 0, 0, 1000000000000, 0, 0, 0, 0, 0, 0, 1000000000000, 0, 0, 0, 0, 0, 0, 0.001]
---
header:
  stamp:
    sec: 228
    nanosec: 135000000
  frame_id: odom
child_frame_id: base_footprint
pose:
  pose:
    position:
      x: -1.998456088152647
      y: -0.5006566508658762
      z: 0.008532259161718025
    orientation:
      x: 0.0011093593808360212
      y: 0.002643493122615223
      z: -0.3741692821101585
      w: 0.9273559885993314
  covariance: [0.00001, 0, 0, 0, 0, 0, 0, 0.00001, 0, 0, 0, 0, 0, 0, 1000000000000, 0, 0, 0, 0, 0, 0, 1000000000000, 0, 0, 0, 0, 0, 0, 1000000000000, 0, 0, 0, 0, 0, 0, 0.001]
twist:
  twist:
    linear:
      x: 0.0000012557048958804858
      y: 0.00000033830870180232545
      z: 0
    angular:
      x: 0
      y: 0
      z: -0.0000005116457974456091
  covariance: [0.00001, 0, 0, 0, 0, 0, 0, 0.00001, 0, 0, 0, 0, 0, 0, 1000000000000, 0, 0, 0, 0, 0, 0, 1000000000000, 0, 0, 0, 0, 0, 0, 1000000000000, 0, 0, 0, 0, 0, 0, 0.001]
---
header:
  stamp:
    sec: 228
    nanosec: 169000000
  frame_id: odom
child_frame_id: base_footprint
pose:
  pose:
    position:
      x: -1.99845609296872
      y: -0.5006566476648406
      z: 0.008534717270851743
    orientation:
      x: 0.0011092227166941038
      y: 0.00264314212551851
      z: -0.3741692882261575
      w: 0.9273559872956014
  covariance: [0.00001, 0, 0, 0, 0, 0, 0, 0.00001, 0, 0, 0, 0, 0, 0, 1000000000000, 0, 0, 0, 0, 0, 0, 1000000000000, 0, 0, 0, 0, 0, 0, 1000000000000, 0, 0, 0, 0, 0, 0, 0.001]
twist:
  twist:
    linear:
      x: 0.00000339971197288011
      y: 0.0000004970419093973793
      z: 0
    angular:
      x: 0
      y: 0
      z: -0.00000027593508381511296
  covariance: [0.00001, 0, 0, 0, 0, 0, 0, 0.00001, 0, 0, 0, 0, 0, 0, 1000000000000, 0, 0, 0, 0, 0, 0, 1000000000000, 0, 0, 0, 0, 0, 0, 1000000000000, 0, 0, 0, 0, 0, 0, 0.001]
---
header:
  stamp:
    sec: 228
    nanosec: 203000000
  frame_id: odom
child_frame_id: base_footprint
pose:
  pose:
    position:
      x: -1.9984560941346425
      y: -0.5006566477760145
      z: 0.008533078099102389
    orientation:
      x: 0.0011091745784479504
      y: 0.002643009705669066
      z: -0.37416929367420515
      w: 0.9273559855324149
  covariance: [0.00001, 0, 0, 0, 0, 0, 0, 0.00001, 0, 0, 0, 0, 0, 0, 1000000000000, 0, 0, 0, 0, 0, 0, 1000000000000, 0, 0, 0, 0, 0, 0, 1000000000000, 0, 0, 0, 0, 0, 0, 0.001]
twist:
  twist:
    linear:
      x: 0.0000044504964416829365
      y: -0.0000006314059565145564
      z: 0
    angular:
      x: 0
      y: 0
      z: -0.00000043918516642170683
  covariance: [0.00001, 0, 0, 0, 0, 0, 0, 0.00001, 0, 0, 0, 0, 0, 0, 1000000000000, 0, 0, 0, 0, 0, 0, 1000000000000, 0, 0, 0, 0, 0, 0, 1000000000000, 0, 0, 0, 0, 0, 0, 0.001]
---
header:
  stamp:
    sec: 228
    nanosec: 237000000
  frame_id: odom
child_frame_id: base_footprint
pose:
  pose:
    position:
      x: -1.9984560886487501
      y: -0.5006566539757527
      z: 0.008530515676008796
    orientation:
      x: 0.0011092947197598065
      y: 0.0026432938009296274
      z: -0.37416930152591515
      w: 0.9273559814109765
  covariance: [0.00001, 0, 0, 0, 0, 0, 0, 0.00001, 0, 0, 0, 0, 0, 0, 1000000000000, 0, 0, 0, 0, 0, 0, 1000000000000, 0, 0, 0, 0, 0, 0, 1000000000000, 0, 0, 0, 0, 0, 0, 0.001]
twist:
  twist:
    linear:
      x: 0.000003822743119445451
      y: -0.0000009874500406453537
      z: 0
    angular:
      x: 0
      y: 0
      z: -0.0000004844358860221192
  covariance: [0.00001, 0, 0, 0, 0, 0, 0, 0.00001, 0, 0, 0, 0, 0, 0, 1000000000000, 0, 0, 0, 0, 0, 0, 1000000000000, 0, 0, 0, 0, 0, 0, 1000000000000, 0, 0, 0, 0, 0, 0, 0.001]
---
header:
  stamp:
    sec: 228
    nanosec: 271000000
  frame_id: odom
child_frame_id: base_footprint
pose:
  pose:
    position:
      x: -1.9984560757292764
      y: -0.5006566672492291
      z: 0.008528887238915926
    orientation:
      x: 0.0011096084876386888
      y: 0.0026440574656876885
      z: -0.37416930831875594
      w: 0.9273559761177939
  covariance: [0.00001, 0, 0, 0, 0, 0, 0, 0.00001, 0, 0, 0, 0, 0, 0, 1000000000000, 0, 0, 0, 0, 0, 0, 1000000000000, 0, 0, 0, 0, 0, 0, 1000000000000, 0, 0, 0, 0, 0, 0, 0.001]
twist:
  twist:
    linear:
      x: 0.00000318596904650354
      y: -0.0000014681860414029194
      z: 0
    angular:
      x: 0
      y: 0
      z: -0.00000047670617121789903
  covariance: [0.00001, 0, 0, 0, 0, 0, 0, 0.00001, 0, 0, 0, 0, 0, 0, 1000000000000, 0, 0, 0, 0, 0, 0, 1000000000000, 0, 0, 0, 0, 0, 0, 1000000000000, 0, 0, 0, 0, 0, 0, 0.001]
---
header:
  stamp:
    sec: 228
    nanosec: 305000000
  frame_id: odom
child_frame_id: base_footprint
pose:
  pose:
    position:
      x: -1.9984560558415678
      y: -0.5006566838307858
      z: 0.008534781369756859
    orientation:
      x: 0.0011100533971203238
      y: 0.0026451455829978278
      z: -0.3741693134113181
      w: 0.9273559704275395
  covariance: [0.00001, 0, 0, 0, 0, 0, 0, 0.00001, 0, 0, 0, 0, 0, 0, 1000000000000, 0, 0, 0, 0, 0, 0, 1000000000000, 0, 0, 0, 0, 0, 0, 1000000000000, 0, 0, 0, 0, 0, 0, 0.001]
twist:
  twist:
    linear:
      x: 0.000003444553212529348
      y: 0.0000003703051309651975
      z: 0
    angular:
      x: 0
      y: 0
      z: -0.0000006334710521160887
  covariance: [0.00001, 0, 0, 0, 0, 0, 0, 0.00001, 0, 0, 0, 0, 0, 0, 1000000000000, 0, 0, 0, 0, 0, 0, 1000000000000, 0, 0, 0, 0, 0, 0, 1000000000000, 0, 0, 0, 0, 0, 0, 0.001]
---
header:
  stamp:
    sec: 228
    nanosec: 339000000
  frame_id: odom
child_frame_id: base_footprint
pose:
  pose:
    position:
      x: -1.998456058993176
      y: -0.5006566837306736
      z: 0.008526817629908562
    orientation:
      x: 0.0011099772932600324
      y: 0.0026449431601157573
      z: -0.37416932436560196
      w: 0.927355966676161
  covariance: [0.00001, 0, 0, 0, 0, 0, 0, 0.00001, 0, 0, 0, 0, 0, 0, 1000000000000, 0, 0, 0, 0, 0, 0, 1000000000000, 0, 0, 0, 0, 0, 0, 1000000000000, 0, 0, 0, 0, 0, 0, 0.001]
twist:
  twist:
    linear:
      x: 0.0000017439327752334714
      y: -0.0000011444186821614828
      z: 0
    angular:
      x: 0
      y: 0
      z: -0.0000008682354239857645
  covariance: [0.00001, 0, 0, 0, 0, 0, 0, 0.00001, 0, 0, 0, 0, 0, 0, 1000000000000, 0, 0, 0, 0, 0, 0, 1000000000000, 0, 0, 0, 0, 0, 0, 1000000000000, 0, 0, 0, 0, 0, 0, 0.001]
---
header:
  stamp:
    sec: 228
    nanosec: 373000000
  frame_id: odom
child_frame_id: base_footprint
pose:
  pose:
    position:
      x: -1.9984560627494035
      y: -0.5006566794268169
      z: 0.008531151790195427
    orientation:
      x: 0.001109833841958873
      y: 0.0026445744363492608
      z: -0.3741693317032801
      w: 0.9273559649388226
  covariance: [0.00001, 0, 0, 0, 0, 0, 0, 0.00001, 0, 0, 0, 0, 0, 0, 1000000000000, 0, 0, 0, 0, 0, 0, 1000000000000, 0, 0, 0, 0, 0, 0, 1000000000000, 0, 0, 0, 0, 0, 0, 0.001]
twist:
  twist:
    linear:
      x: 0.0000037451477105061094
      y: -0.00000063271058772195
      z: 0
    angular:
      x: 0
      y: 0
      z: -0.0000003102258324048084
  covariance: [0.00001, 0, 0, 0, 0, 0, 0, 0.00001, 0, 0, 0, 0, 0, 0, 1000000000000, 0, 0, 0, 0, 0, 0, 1000000000000, 0, 0, 0, 0, 0, 0, 1000000000000, 0, 0, 0, 0, 0, 0, 0.001]
---
header:
  stamp:
    sec: 228
    nanosec: 407000000
  frame_id: odom
child_frame_id: base_footprint
pose:
  pose:
    position:
      x: -1.9984560671529938
      y: -0.5006566737723985
      z: 0.008528711128191674
    orientation:
      x: 0.001109663694836508
      y: 0.0026441404364281147
      z: -0.37416933523821816
      w: 0.9273559649537102
  covariance: [0.00001, 0, 0, 0, 0, 0, 0, 0.00001, 0, 0, 0, 0, 0, 0, 1000000000000, 0, 0, 0, 0, 0, 0, 1000000000000, 0, 0, 0, 0, 0, 0, 1000000000000, 0, 0, 0, 0, 0, 0, 0.001]
twist:
  twist:
    linear:
      x: 0.0000003966405135929832
      y: -0.00000026879609369254916
      z: 0
    angular:
      x: 0
      y: 0
      z: -0.0000005199577722274345
  covariance: [0.00001, 0, 0, 0, 0, 0, 0, 0.00001, 0, 0, 0, 0, 0, 0, 1000000000000, 0, 0, 0, 0, 0, 0, 1000000000000, 0, 0, 0, 0, 0, 0, 1000000000000, 0, 0, 0, 0, 0, 0, 0.001]
---
header:
  stamp:
    sec: 228
    nanosec: 441000000
  frame_id: odom
child_frame_id: base_footprint
pose:
  pose:
    position:
      x: -1.9983339023293403
      y: -0.5007744260181374
      z: 0.0085278302195667
    orientation:
      x: 0.0011066299888811103
      y: 0.002636616597891183
      z: -0.37416926987713567
      w: 0.9273560163726738
  covariance: [0.00001, 0, 0, 0, 0, 0, 0, 0.00001, 0, 0, 0, 0, 0, 0, 1000000000000, 0, 0, 0, 0, 0, 0, 1000000000000, 0, 0, 0, 0, 0, 0, 1000000000000, 0, 0, 0, 0, 0, 0, 0.001]
twist:
  twist:
    linear:
      x: 0.004817823886993534
      y: -0.0000006206826331598553
      z: 0
    angular:
      x: 0
      y: 0
      z: 0.0000023870110805361284
  covariance: [0.00001, 0, 0, 0, 0, 0, 0, 0.00001, 0, 0, 0, 0, 0, 0, 1000000000000, 0, 0, 0, 0, 0, 0, 1000000000000, 0, 0, 0, 0, 0, 0, 1000000000000, 0, 0, 0, 0, 0, 0, 0.001]
---
header:
  stamp:
    sec: 228
    nanosec: 475000000
  frame_id: odom
child_frame_id: base_footprint
pose:
  pose:
    position:
      x: -1.9982116189686236
      y: -0.5008922935772802
      z: 0.008536112115921866
    orientation:
      x: 0.001103828981705301
      y: 0.0026296815416645023
      z: -0.37416930068638343
      w: 0.9273560269715356
  covariance: [0.00001, 0, 0, 0, 0, 0, 0, 0.00001, 0, 0, 0, 0, 0, 0, 1000000000000, 0, 0, 0, 0, 0, 0, 1000000000000, 0, 0, 0, 0, 0, 0, 1000000000000, 0, 0, 0, 0, 0, 0, 0.001]
twist:
  twist:
    linear:
      x: 0.004855033896639833
      y: -0.0000006223217509948066
      z: 0
    angular:
      x: 0
      y: 0
      z: -0.000004079128810610182
  covariance: [0.00001, 0, 0, 0, 0, 0, 0, 0.00001, 0, 0, 0, 0, 0, 0, 1000000000000, 0, 0, 0, 0, 0, 0, 1000000000000, 0, 0, 0, 0, 0, 0, 1000000000000, 0, 0, 0, 0, 0, 0, 0.001]
---
header:
  stamp:
    sec: 228
    nanosec: 509000000
  frame_id: odom
child_frame_id: base_footprint
pose:
  pose:
    position:
      x: -1.9980892973092397
      y: -0.5010101970249964
      z: 0.008538396161015857
    orientation:
      x: 0.0011012999112894827
      y: 0.0026234307810027216
      z: -0.37416936275041357
      w: 0.927356022640923
  covariance: [0.00001, 0, 0, 0, 0, 0, 0, 0.00001, 0, 0, 0, 0, 0, 0, 1000000000000, 0, 0, 0, 0, 0, 0, 1000000000000, 0, 0, 0, 0, 0, 0, 1000000000000, 0, 0, 0, 0, 0, 0, 0.001]
twist:
  twist:
    linear:
      x: 0.005019413184333388
      y: 0.0000002553481020860053
      z: 0
    angular:
      x: 0
      y: 0
      z: -0.0000008081001133983802
  covariance: [0.00001, 0, 0, 0, 0, 0, 0, 0.00001, 0, 0, 0, 0, 0, 0, 1000000000000, 0, 0, 0, 0, 0, 0, 1000000000000, 0, 0, 0, 0, 0, 0, 1000000000000, 0, 0, 0, 0, 0, 0, 0.001]
---
header:
  stamp:
    sec: 228
    nanosec: 543000000
  frame_id: odom
child_frame_id: base_footprint
pose:
  pose:
    position:
      x: -1.9978447643729524
      y: -0.5012458977192906
      z: 0.00853221540785337
    orientation:
      x: 0.001096966191549877
      y: 0.002612719575370993
      z: -0.3741692623477636
      w: 0.9273560985272731
  covariance: [0.00001, 0, 0, 0, 0, 0, 0, 0.00001, 0, 0, 0, 0, 0, 0, 1000000000000, 0, 0, 0, 0, 0, 0, 1000000000000, 0, 0, 0, 0, 0, 0, 1000000000000, 0, 0, 0, 0, 0, 0, 0.001]
twist:
  twist:
    linear:
      x: 0.009704098802587085
      y: -0.0000010509328165781567
      z: 0
    angular:
      x: 0
      y: 0
      z: 0.000006688288102346842
  covariance: [0.00001, 0, 0, 0, 0, 0, 0, 0.00001, 0, 0, 0, 0, 0, 0, 1000000000000, 0, 0, 0, 0, 0, 0, 1000000000000, 0, 0, 0, 0, 0, 0, 1000000000000, 0, 0, 0, 0, 0, 0, 0.001]
---
header:
  stamp:
    sec: 228
    nanosec: 577000000
  frame_id: odom
child_frame_id: base_footprint
pose:
  pose:
    position:
      x: -1.9976000973521615
      y: -0.5014817284534829
      z: 0.008536341067493052
    orientation:
      x: 0.0010939744858667524
      y: 0.0026053432950750516
      z: -0.37416925450094507
      w: 0.927356125979845
  covariance: [0.00001, 0, 0, 0, 0, 0, 0, 0.00001, 0, 0, 0, 0, 0, 0, 1000000000000, 0, 0, 0, 0, 0, 0, 1000000000000, 0, 0, 0, 0, 0, 0, 1000000000000, 0, 0, 0, 0, 0, 0, 0.001]
twist:
  twist:
    linear:
      x: 0.00976597656291768
      y: -0.0000009897203416455586
      z: 0
    angular:
      x: 0
      y: 0
      z: -0.000004481758663885717
  covariance: [0.00001, 0, 0, 0, 0, 0, 0, 0.00001, 0, 0, 0, 0, 0, 0, 1000000000000, 0, 0, 0, 0, 0, 0, 1000000000000, 0, 0, 0, 0, 0, 0, 1000000000000, 0, 0, 0, 0, 0, 0, 0.001]
---
header:
  stamp:
    sec: 228
    nanosec: 611000000
  frame_id: odom
child_frame_id: base_footprint
pose:
  pose:
    position:
      x: -1.9973553487426872
      y: -0.5017176371244758
      z: 0.008541248548884972
    orientation:
      x: 0.0010925947985563687
      y: 0.0026019690799571242
      z: -0.37416934923721273
      w: 0.9273560988557277
  covariance: [0.00001, 0, 0, 0, 0, 0, 0, 0.00001, 0, 0, 0, 0, 0, 0, 1000000000000, 0, 0, 0, 0, 0, 0, 1000000000000, 0, 0, 0, 0, 0, 0, 1000000000000, 0, 0, 0, 0, 0, 0, 0.001]
twist:
  twist:
    linear:
      x: 0.009999967031590683
      y: 0.00000006522382321391684
      z: 0
    angular:
      x: 0
      y: 0
      z: -0.000003225066257656695
  covariance: [0.00001, 0, 0, 0, 0, 0, 0, 0.00001, 0, 0, 0, 0, 0, 0, 1000000000000, 0, 0, 0, 0, 0, 0, 1000000000000, 0, 0, 0, 0, 0, 0, 1000000000000, 0, 0, 0, 0, 0, 0, 0.001]
---
header:
  stamp:
    sec: 228
    nanosec: 645000000
  frame_id: odom
child_frame_id: base_footprint
pose:
  pose:
    position:
      x: -1.997110488769561
      y: -0.5019536513505007
      z: 0.00853573349655132
    orientation:
      x: 0.001092658611954879
      y: 0.0026021791062480117
      z: -0.3741693553076654
      w: 0.9273560957419231
  covariance: [0.00001, 0, 0, 0, 0, 0, 0, 0.00001, 0, 0, 0, 0, 0, 0, 1000000000000, 0, 0, 0, 0, 0, 0, 1000000000000, 0, 0, 0, 0, 0, 0, 1000000000000, 0, 0, 0, 0, 0, 0, 0.001]
twist:
  twist:
    linear:
      x: 0.009857139571002777
      y: -0.0000008591413652595317
      z: 0
    angular:
      x: 0
      y: 0
      z: 0.000002070833114045078
  covariance: [0.00001, 0, 0, 0, 0, 0, 0, 0.00001, 0, 0, 0, 0, 0, 0, 1000000000000, 0, 0, 0, 0, 0, 0, 1000000000000, 0, 0, 0, 0, 0, 0, 1000000000000, 0, 0, 0, 0, 0, 0, 0.001]
---
header:
  stamp:
    sec: 228
    nanosec: 679000000
  frame_id: odom
child_frame_id: base_footprint
pose:
  pose:
    position:
      x: -1.9968656557640614
      y: -0.5021896421009018
      z: 0.008533710536063973
    orientation:
      x: 0.0010943396971492144
      y: 0.0026064021894692925
      z: -0.3741693185766727
      w: 0.9273560967201986
  covariance: [0.00001, 0, 0, 0, 0, 0, 0, 0.00001, 0, 0, 0, 0, 0, 0, 1000000000000, 0, 0, 0, 0, 0, 0, 1000000000000, 0, 0, 0, 0, 0, 0, 1000000000000, 0, 0, 0, 0, 0, 0, 0.001]
twist:
  twist:
    linear:
      x: 0.009867922144374663
      y: -0.0000011507145448270625
      z: 0
    angular:
      x: 0
      y: 0
      z: 0.0000003612225769987196
  covariance: [0.00001, 0, 0, 0, 0, 0, 0, 0.00001, 0, 0, 0, 0, 0, 0, 1000000000000, 0, 0, 0, 0, 0, 0, 1000000000000, 0, 0, 0, 0, 0, 0, 1000000000000, 0, 0, 0, 0, 0, 0, 0.001]
---
header:
  stamp:
    sec: 228
    nanosec: 713000000
  frame_id: odom
child_frame_id: base_footprint
pose:
  pose:
    position:
      x: -1.9966207254795567
      y: -0.5024257262984411
      z: 0.008538090538815388
    orientation:
      x: 0.0010977542039290581
      y: 0.0026149237620062735
      z: -0.3741693315472447
      w: 0.9273560634615566
  covariance: [0.00001, 0, 0, 0, 0, 0, 0, 0.00001, 0, 0, 0, 0, 0, 0, 1000000000000, 0, 0, 0, 0, 0, 0, 1000000000000, 0, 0, 0, 0, 0, 0, 1000000000000, 0, 0, 0, 0, 0, 0, 0.001]
twist:
  twist:
    linear:
      x: 0.00989758859149113
      y: -0.0000010488392766317203
      z: 0
    angular:
      x: 0
      y: 0
      z: -0.000002320238241253447
  covariance: [0.00001, 0, 0, 0, 0, 0, 0, 0.00001, 0, 0, 0, 0, 0, 0, 1000000000000, 0, 0, 0, 0, 0, 0, 1000000000000, 0, 0, 0, 0, 0, 0, 1000000000000, 0, 0, 0, 0, 0, 0, 0.001]
---
header:
  stamp:
    sec: 228
    nanosec: 747000000
  frame_id: odom
child_frame_id: base_footprint
pose:
  pose:
    position:
      x: -1.9963757467156855
      y: -0.5026618555032655
      z: 0.00853101945665474
    orientation:
      x: 0.0011021950381749494
      y: 0.002625989357274042
      z: -0.37416934875556473
      w: 0.9273560199825254
  covariance: [0.00001, 0, 0, 0, 0, 0, 0, 0.00001, 0, 0, 0, 0, 0, 0, 1000000000000, 0, 0, 0, 0, 0, 0, 1000000000000, 0, 0, 0, 0, 0, 0, 1000000000000, 0, 0, 0, 0, 0, 0, 0.001]
twist:
  twist:
    linear:
      x: 0.00991078657209369
      y: -0.0000012312233708001302
      z: 0
    angular:
      x: 0
      y: 0
      z: -0.000001034804931438378
  covariance: [0.00001, 0, 0, 0, 0, 0, 0, 0.00001, 0, 0, 0, 0, 0, 0, 1000000000000, 0, 0, 0, 0, 0, 0, 1000000000000, 0, 0, 0, 0, 0, 0, 1000000000000, 0, 0, 0, 0, 0, 0, 0.001]
---
header:
  stamp:
    sec: 228
    nanosec: 781000000
  frame_id: odom
child_frame_id: base_footprint
pose:
  pose:
    position:
      x: -1.9961307543019848
      y: -0.5028980001006433
      z: 0.008534439200745411
    orientation:
      x: 0.0011072481578031205
      y: 0.00263857062378147
      z: -0.3741693312412671
      w: 0.9273559853179594
  covariance: [0.00001, 0, 0, 0, 0, 0, 0, 0.00001, 0, 0, 0, 0, 0, 0, 1000000000000, 0, 0, 0, 0, 0, 0, 1000000000000, 0, 0, 0, 0, 0, 0, 1000000000000, 0, 0, 0, 0, 0, 0, 0.001]
twist:
  twist:
    linear:
      x: 0.009932358194032969
      y: -0.0000010643827626204833
      z: 0
    angular:
      x: 0
      y: 0
      z: 0.0000007828761088773664
  covariance: [0.00001, 0, 0, 0, 0, 0, 0, 0.00001, 0, 0, 0, 0, 0, 0, 1000000000000, 0, 0, 0, 0, 0, 0, 1000000000000, 0, 0, 0, 0, 0, 0, 1000000000000, 0, 0, 0, 0, 0, 0, 0.001]
---
header:
  stamp:
    sec: 228
    nanosec: 815000000
  frame_id: odom
child_frame_id: base_footprint
pose:
  pose:
    position:
      x: -1.9958857670779708
      y: -0.5031341371491881
      z: 0.008527301118421293
    orientation:
      x: 0.0011118400090530615
      y: 0.002650003984827511
      z: -0.3741693179104626
      w: 0.9273559526013158
  covariance: [0.00001, 0, 0, 0, 0, 0, 0, 0.00001, 0, 0, 0, 0, 0, 0, 1000000000000, 0, 0, 0, 0, 0, 0, 1000000000000, 0, 0, 0, 0, 0, 0, 1000000000000, 0, 0, 0, 0, 0, 0, 0.001]
twist:
  twist:
    linear:
      x: 0.009943646497754775
      y: -0.0000009886688132933197
      z: 0
    angular:
      x: 0
      y: 0
      z: -0.0000009108671443853503
  covariance: [0.00001, 0, 0, 0, 0, 0, 0, 0.00001, 0, 0, 0, 0, 0, 0, 1000000000000, 0, 0, 0, 0, 0, 0, 1000000000000, 0, 0, 0, 0, 0, 0, 1000000000000, 0, 0, 0, 0, 0, 0, 0.001]
---
header:
  stamp:
    sec: 228
    nanosec: 849000000
  frame_id: odom
child_frame_id: base_footprint
pose:
  pose:
    position:
      x: -1.9956408331064919
      y: -0.5033702258447811
      z: 0.008528684280563172
    orientation:
      x: 0.0011156057562304684
      y: 0.002659383283943857
      z: -0.3741693233282074
      w: 0.9273559190431995
  covariance: [0.00001, 0, 0, 0, 0, 0, 0, 0.00001, 0, 0, 0, 0, 0, 0, 1000000000000, 0, 0, 0, 0, 0, 0, 1000000000000, 0, 0, 0, 0, 0, 0, 1000000000000, 0, 0, 0, 0, 0, 0, 0.001]
twist:
  twist:
    linear:
      x: 0.009951605347078344
      y: -0.0000011194266212833856
      z: 0
    angular:
      x: 0
      y: 0
      z: -0.0000009555632479355208
  covariance: [0.00001, 0, 0, 0, 0, 0, 0, 0.00001, 0, 0, 0, 0, 0, 0, 1000000000000, 0, 0, 0, 0, 0, 0, 1000000000000, 0, 0, 0, 0, 0, 0, 1000000000000, 0, 0, 0, 0, 0, 0, 0.001]
---
header:
  stamp:
    sec: 228
    nanosec: 883000000
  frame_id: odom
child_frame_id: base_footprint
pose:
  pose:
    position:
      x: -1.9953959497756337
      y: -0.5036062634024767
      z: 0.008523789676824822
    orientation:
      x: 0.0011180632672451096
      y: 0.002665512905758781
      z: -0.37416932562299476
      w: 0.9273558975594607
  covariance: [0.00001, 0, 0, 0, 0, 0, 0, 0.00001, 0, 0, 0, 0, 0, 0, 1000000000000, 0, 0, 0, 0, 0, 0, 1000000000000, 0, 0, 0, 0, 0, 0, 1000000000000, 0, 0, 0, 0, 0, 0, 0.001]
twist:
  twist:
    linear:
      x: 0.009954923049687413
      y: -0.0000012634673258191467
      z: 0
    angular:
      x: 0
      y: 0
      z: -0.0000004996811493338155
  covariance: [0.00001, 0, 0, 0, 0, 0, 0, 0.00001, 0, 0, 0, 0, 0, 0, 1000000000000, 0, 0, 0, 0, 0, 0, 1000000000000, 0, 0, 0, 0, 0, 0, 1000000000000, 0, 0, 0, 0, 0, 0, 0.001]
---
header:
  stamp:
    sec: 228
    nanosec: 917000000
  frame_id: odom
child_frame_id: base_footprint
pose:
  pose:
    position:
      x: -1.9951510945968445
      y: -0.5038422749389141
      z: 0.00853105014575488
    orientation:
      x: 0.0011190943030710727
      y: 0.0026681004710221983
      z: -0.37416933105887956
      w: 0.927355886681466
  covariance: [0.00001, 0, 0, 0, 0, 0, 0, 0.00001, 0, 0, 0, 0, 0, 0, 1000000000000, 0, 0, 0, 0, 0, 0, 1000000000000, 0, 0, 0, 0, 0, 0, 1000000000000, 0, 0, 0, 0, 0, 0, 0.001]
twist:
  twist:
    linear:
      x: 0.01001288056017075
      y: 0.00000016374298252973957
      z: 0
    angular:
      x: 0
      y: 0
      z: -0.0000022008521042436654
  covariance: [0.00001, 0, 0, 0, 0, 0, 0, 0.00001, 0, 0, 0, 0, 0, 0, 1000000000000, 0, 0, 0, 0, 0, 0, 1000000000000, 0, 0, 0, 0, 0, 0, 1000000000000, 0, 0, 0, 0, 0, 0, 0.001]
---
header:
  stamp:
    sec: 228
    nanosec: 951000000
  frame_id: odom
child_frame_id: base_footprint
pose:
  pose:
    position:
      x: -1.994784121622488
      y: -0.5041959942838521
      z: 0.008525195525554315
    orientation:
      x: 0.0011158159410348714
      y: 0.0026600082413308444
      z: -0.37416926449562193
      w: 0.9273559407356742
  covariance: [0.00001, 0, 0, 0, 0, 0, 0, 0.00001, 0, 0, 0, 0, 0, 0, 1000000000000, 0, 0, 0, 0, 0, 0, 1000000000000, 0, 0, 0, 0, 0, 0, 1000000000000, 0, 0, 0, 0, 0, 0, 0.001]
twist:
  twist:
    linear:
      x: 0.014769157689928692
      y: -0.0000015222920813611623
      z: 0
    angular:
      x: 0
      y: 0
      z: 0.000004939461092310213
  covariance: [0.00001, 0, 0, 0, 0, 0, 0, 0.00001, 0, 0, 0, 0, 0, 0, 1000000000000, 0, 0, 0, 0, 0, 0, 1000000000000, 0, 0, 0, 0, 0, 0, 1000000000000, 0, 0, 0, 0, 0, 0, 0.001]
---
header:
  stamp:
    sec: 228
    nanosec: 985000000
  frame_id: odom
child_frame_id: base_footprint
pose:
  pose:
    position:
      x: -1.994294870288838
      y: -0.5046675755325932
      z: 0.008534714600687719
    orientation:
      x: 0.001109011449468549
      y: 0.0026431703960177948
      z: -0.37416917211116385
      w: 0.9273560343177312
  covariance: [0.00001, 0, 0, 0, 0, 0, 0, 0.00001, 0, 0, 0, 0, 0, 0, 1000000000000, 0, 0, 0, 0, 0, 0, 1000000000000, 0, 0, 0, 0, 0, 0, 1000000000000, 0, 0, 0, 0, 0, 0, 0.001]
twist:
  twist:
    linear:
      x: 0.02004574778461813
      y: 0.00000034354284345755604
      z: 0
    angular:
      x: 0
      y: 0
      z: 0.000003657622295014092
  covariance: [0.00001, 0, 0, 0, 0, 0, 0, 0.00001, 0, 0, 0, 0, 0, 0, 1000000000000, 0, 0, 0, 0, 0, 0, 1000000000000, 0, 0, 0, 0, 0, 0, 1000000000000, 0, 0, 0, 0, 0, 0, 0.001]
---
header:
  stamp:
    sec: 229
    nanosec: 19000000
  frame_id: odom
child_frame_id: base_footprint
pose:
  pose:
    position:
      x: -1.9936833823287317
      y: -0.5052569776004695
      z: 0.008531866504571608
    orientation:
      x: 0.0010987990614601964
      y: 0.002617881246779914
      z: -0.37416915821749425
      w: 0.9273561238150165
  covariance: [0.00001, 0, 0, 0, 0, 0, 0, 0.00001, 0, 0, 0, 0, 0, 0, 1000000000000, 0, 0, 0, 0, 0, 0, 1000000000000, 0, 0, 0, 0, 0, 0, 1000000000000, 0, 0, 0, 0, 0, 0, 0.001]
twist:
  twist:
    linear:
      x: 0.0244817249224075
      y: -0.0000017623050684745928
      z: 0
    angular:
      x: 0
      y: 0
      z: -0.0000016265523584894487
  covariance: [0.00001, 0, 0, 0, 0, 0, 0, 0.00001, 0, 0, 0, 0, 0, 0, 1000000000000, 0, 0, 0, 0, 0, 0, 1000000000000, 0, 0, 0, 0, 0, 0, 1000000000000, 0, 0, 0, 0, 0, 0, 0.001]
---
header:
  stamp:
    sec: 229
    nanosec: 53000000
  frame_id: odom
child_frame_id: base_footprint
pose:
  pose:
    position:
      x: -1.992949601427197
      y: -0.5059642565330965
      z: 0.008536101058711216
    orientation:
      x: 0.0010868087772344568
      y: 0.0025881854542843512
      z: -0.3741691455812714
      w: 0.9273562263972338
  covariance: [0.00001, 0, 0, 0, 0, 0, 0, 0.00001, 0, 0, 0, 0, 0, 0, 1000000000000, 0, 0, 0, 0, 0, 0, 1000000000000, 0, 0, 0, 0, 0, 0, 1000000000000, 0, 0, 0, 0, 0, 0, 0.001]
twist:
  twist:
    linear:
      x: 0.029403863476520766
      y: -0.000001681656175471502
      z: 0
    angular:
      x: 0
      y: 0
      z: 0.0000013488366825723296
  covariance: [0.00001, 0, 0, 0, 0, 0, 0, 0.00001, 0, 0, 0, 0, 0, 0, 1000000000000, 0, 0, 0, 0, 0, 0, 1000000000000, 0, 0, 0, 0, 0, 0, 1000000000000, 0, 0, 0, 0, 0, 0, 0.001]
---
header:
  stamp:
    sec: 229
    nanosec: 87000000
  frame_id: odom
child_frame_id: base_footprint
pose:
  pose:
    position:
      x: -1.992093406859574
      y: -0.506789526747622
      z: 0.008542191437011199
    orientation:
      x: 0.0010743076480680888
      y: 0.0025572276979152473
      z: -0.37416909058375025
      w: 0.927356349038118
  covariance: [0.00001, 0, 0, 0, 0, 0, 0, 0.00001, 0, 0, 0, 0, 0, 0, 1000000000000, 0, 0, 0, 0, 0, 0, 1000000000000, 0, 0, 0, 0, 0, 0, 1000000000000, 0, 0, 0, 0, 0, 0, 0.001]
twist:
  twist:
    linear:
      x: 0.03434431503016046
      y: -0.000001679376369002894
      z: 0
    angular:
      x: 0
      y: 0
      z: 0.0000032992675972058176
  covariance: [0.00001, 0, 0, 0, 0, 0, 0, 0.00001, 0, 0, 0, 0, 0, 0, 1000000000000, 0, 0, 0, 0, 0, 0, 1000000000000, 0, 0, 0, 0, 0, 0, 1000000000000, 0, 0, 0, 0, 0, 0, 0.001]
---
header:
  stamp:
    sec: 229
    nanosec: 121000000
  frame_id: odom
child_frame_id: base_footprint
pose:
  pose:
    position:
      x: -1.991114740054058
      y: -0.507732844488482
      z: 0.00854729968304841
    orientation:
      x: 0.0010628511427115213
      y: 0.0025288669300662816
      z: -0.37416903399269863
      w: 0.9273564628450428
  covariance: [0.00001, 0, 0, 0, 0, 0, 0, 0.00001, 0, 0, 0, 0, 0, 0, 1000000000000, 0, 0, 0, 0, 0, 0, 1000000000000, 0, 0, 0, 0, 0, 0, 1000000000000, 0, 0, 0, 0, 0, 0, 0.001]
twist:
  twist:
    linear:
      x: 0.039300166757407204
      y: -0.0000017728465943819827
      z: 0
    angular:
      x: 0
      y: 0
      z: 0.0000013040562926761699
  covariance: [0.00001, 0, 0, 0, 0, 0, 0, 0.00001, 0, 0, 0, 0, 0, 0, 1000000000000, 0, 0, 0, 0, 0, 0, 1000000000000, 0, 0, 0, 0, 0, 0, 1000000000000, 0, 0, 0, 0, 0, 0, 0.001]
---
header:
  stamp:
    sec: 229
    nanosec: 155000000
  frame_id: odom
child_frame_id: base_footprint
pose:
  pose:
    position:
      x: -1.9900136338598196
      y: -0.5087941796006031
      z: 0.008551787360672159
    orientation:
      x: 0.0010535782781324555
      y: 0.0025059283863856255
      z: -0.3741690066532117
      w: 0.927356546726168
  covariance: [0.00001, 0, 0, 0, 0, 0, 0, 0.00001, 0, 0, 0, 0, 0, 0, 1000000000000, 0, 0, 0, 0, 0, 0, 1000000000000, 0, 0, 0, 0, 0, 0, 1000000000000, 0, 0, 0, 0, 0, 0, 0.001]
twist:
  twist:
    linear:
      x: 0.04429404294393609
      y: -0.0000016572010350900113
      z: 0
    angular:
      x: 0
      y: 0
      z: 0.0000004129765073285458
  covariance: [0.00001, 0, 0, 0, 0, 0, 0, 0.00001, 0, 0, 0, 0, 0, 0, 1000000000000, 0, 0, 0, 0, 0, 0, 1000000000000, 0, 0, 0, 0, 0, 0, 1000000000000, 0, 0, 0, 0, 0, 0, 0.001]
---
header:
  stamp:
    sec: 229
    nanosec: 189000000
  frame_id: odom
child_frame_id: base_footprint
pose:
  pose:
    position:
      x: -1.9887899509823368
      y: -0.50997366284775
      z: 0.00855767368451387
    orientation:
      x: 0.0010477480775415225
      y: 0.0024915352947845765
      z: -0.3741689615315856
      w: 0.9273566103189299
  covariance: [0.00001, 0, 0, 0, 0, 0, 0, 0.00001, 0, 0, 0, 0, 0, 0, 1000000000000, 0, 0, 0, 0, 0, 0, 1000000000000, 0, 0, 0, 0, 0, 0, 1000000000000, 0, 0, 0, 0, 0, 0, 0.001]
twist:
  twist:
    linear:
      x: 0.049292477177402164
      y: -0.0000016297772000711808
      z: 0
    angular:
      x: 0
      y: 0
      z: 0.0000028342615558891386
  covariance: [0.00001, 0, 0, 0, 0, 0, 0, 0.00001, 0, 0, 0, 0, 0, 0, 1000000000000, 0, 0, 0, 0, 0, 0, 1000000000000, 0, 0, 0, 0, 0, 0, 1000000000000, 0, 0, 0, 0, 0, 0, 0.001]
---
header:
  stamp:
    sec: 229
    nanosec: 223000000
  frame_id: odom
child_frame_id: base_footprint
pose:
  pose:
    position:
      x: -1.9874437039102097
      y: -0.5112712824980195
      z: 0.008557748309753617
    orientation:
      x: 0.0010460504639345771
      y: 0.0024873987464716463
      z: -0.3741689080946262
      w: 0.9273566449005357
  covariance: [0.00001, 0, 0, 0, 0, 0, 0, 0.00001, 0, 0, 0, 0, 0, 0, 1000000000000, 0, 0, 0, 0, 0, 0, 1000000000000, 0, 0, 0, 0, 0, 0, 1000000000000, 0, 0, 0, 0, 0, 0, 0.001]
twist:
  twist:
    linear:
      x: 0.05429090077850325
      y: -0.0000016532072789968155
      z: 0
    angular:
      x: 0
      y: 0
      z: 0.000000814854003025264
  covariance: [0.00001, 0, 0, 0, 0, 0, 0, 0.00001, 0, 0, 0, 0, 0, 0, 1000000000000, 0, 0, 0, 0, 0, 0, 1000000000000, 0, 0, 0, 0, 0, 0, 1000000000000, 0, 0, 0, 0, 0, 0, 0.001]
---
header:
  stamp:
    sec: 229
    nanosec: 257000000
  frame_id: odom
child_frame_id: base_footprint
pose:
  pose:
    position:
      x: -1.9859749019513455
      y: -0.5126870298840169
      z: 0.008557672257367106
    orientation:
      x: 0.0010484130315353093
      y: 0.002493337511239121
      z: -0.37416887295841395
      w: 0.9273566404610477
  covariance: [0.00001, 0, 0, 0, 0, 0, 0, 0.00001, 0, 0, 0, 0, 0, 0, 1000000000000, 0, 0, 0, 0, 0, 0, 1000000000000, 0, 0, 0, 0, 0, 0, 1000000000000, 0, 0, 0, 0, 0, 0, 0.001]
twist:
  twist:
    linear:
      x: 0.05929121945469319
      y: -0.000001677479635503465
      z: 0
    angular:
      x: 0
      y: 0
      z: 0.00000004108398466720917
  covariance: [0.00001, 0, 0, 0, 0, 0, 0, 0.00001, 0, 0, 0, 0, 0, 0, 1000000000000, 0, 0, 0, 0, 0, 0, 1000000000000, 0, 0, 0, 0, 0, 0, 1000000000000, 0, 0, 0, 0, 0, 0, 0.001]
---
header:
  stamp:
    sec: 229
    nanosec: 291000000
  frame_id: odom
child_frame_id: base_footprint
pose:
  pose:
    position:
      x: -1.9843835553999962
      y: -0.5142208950204558
      z: 0.008550815343726257
    orientation:
      x: 0.0010542709204964325
      y: 0.0025079496075938266
      z: -0.3741688374585
      w: 0.927356608741506
  covariance: [0.00001, 0, 0, 0, 0, 0, 0, 0.00001, 0, 0, 0, 0, 0, 0, 1000000000000, 0, 0, 0, 0, 0, 0, 1000000000000, 0, 0, 0, 0, 0, 0, 1000000000000, 0, 0, 0, 0, 0, 0, 0.001]
twist:
  twist:
    linear:
      x: 0.06427448868323399
      y: -0.00000176986788742034
      z: 0
    angular:
      x: 0
      y: 0
      z: -0.000001964593576474248
  covariance: [0.00001, 0, 0, 0, 0, 0, 0, 0.00001, 0, 0, 0, 0, 0, 0, 1000000000000, 0, 0, 0, 0, 0, 0, 1000000000000, 0, 0, 0, 0, 0, 0, 1000000000000, 0, 0, 0, 0, 0, 0, 0.001]
---
header:
  stamp:
    sec: 229
    nanosec: 325000000
  frame_id: odom
child_frame_id: base_footprint
pose:
  pose:
    position:
      x: -1.9826697601820782
      y: -0.515872786456115
      z: 0.008553583066457222
    orientation:
      x: 0.001062306429201965
      y: 0.0025279644566308106
      z: -0.37416879524133106
      w: 0.9273565622609287
  covariance: [0.00001, 0, 0, 0, 0, 0, 0, 0.00001, 0, 0, 0, 0, 0, 0, 1000000000000, 0, 0, 0, 0, 0, 0, 1000000000000, 0, 0, 0, 0, 0, 0, 1000000000000, 0, 0, 0, 0, 0, 0, 0.001]
twist:
  twist:
    linear:
      x: 0.07001378934727057
      y: -0.00000012850106118067472
      z: 0
    angular:
      x: 0
      y: 0
      z: 0.000003100010795629546
  covariance: [0.00001, 0, 0, 0, 0, 0, 0, 0.00001, 0, 0, 0, 0, 0, 0, 1000000000000, 0, 0, 0, 0, 0, 0, 1000000000000, 0, 0, 0, 0, 0, 0, 1000000000000, 0, 0, 0, 0, 0, 0, 0.001]
---
header:
  stamp:
    sec: 229
    nanosec: 359000000
  frame_id: odom
child_frame_id: base_footprint
pose:
  pose:
    position:
      x: -1.9808335107972512
      y: -0.5176427089565129
      z: 0.008548871576879795
    orientation:
      x: 0.001071159052037667
      y: 0.0025500070003663454
      z: -0.3741687398482437
      w: 0.9273565140780329
  covariance: [0.00001, 0, 0, 0, 0, 0, 0, 0.00001, 0, 0, 0, 0, 0, 0, 1000000000000, 0, 0, 0, 0, 0, 0, 1000000000000, 0, 0, 0, 0, 0, 0, 1000000000000, 0, 0, 0, 0, 0, 0, 0.001]
twist:
  twist:
    linear:
      x: 0.07424552012805641
      y: -0.0000017968958325939588
      z: 0
    angular:
      x: 0
      y: 0
      z: 0.000001792541385318609
  covariance: [0.00001, 0, 0, 0, 0, 0, 0, 0.00001, 0, 0, 0, 0, 0, 0, 1000000000000, 0, 0, 0, 0, 0, 0, 1000000000000, 0, 0, 0, 0, 0, 0, 1000000000000, 0, 0, 0, 0, 0, 0, 0.001]
---
header:
  stamp:
    sec: 229
    nanosec: 393000000
  frame_id: odom
child_frame_id: base_footprint
pose:
  pose:
    position:
      x: -1.9788748779003142
      y: -0.5195305946281831
      z: 0.008546607266623131
    orientation:
      x: 0.0010798187595086929
      y: 0.0025715705331370528
      z: -0.3741686924686213
      w: 0.9273564636065046
  covariance: [0.00001, 0, 0, 0, 0, 0, 0, 0.00001, 0, 0, 0, 0, 0, 0, 1000000000000, 0, 0, 0, 0, 0, 0, 1000000000000, 0, 0, 0, 0, 0, 0, 1000000000000, 0, 0, 0, 0, 0, 0, 0.001]
twist:
  twist:
    linear:
      x: 0.0800078378097519
      y: -0.00000021760660991188008
      z: 0
    angular:
      x: 0
      y: 0
      z: 0.000003502233951691361
  covariance: [0.00001, 0, 0, 0, 0, 0, 0, 0.00001, 0, 0, 0, 0, 0, 0, 1000000000000, 0, 0, 0, 0, 0, 0, 1000000000000, 0, 0, 0, 0, 0, 0, 1000000000000, 0, 0, 0, 0, 0, 0, 0.001]
---
header:
  stamp:
    sec: 229
    nanosec: 427000000
  frame_id: odom
child_frame_id: base_footprint
pose:
  pose:
    position:
      x: -1.9767936935047412
      y: -0.521536603485675
      z: 0.008535563887247542
    orientation:
      x: 0.0010870363302211503
      y: 0.002589556367365012
      z: -0.3741686401839066
      w: 0.9273564262206648
  covariance: [0.00001, 0, 0, 0, 0, 0, 0, 0.00001, 0, 0, 0, 0, 0, 0, 1000000000000, 0, 0, 0, 0, 0, 0, 1000000000000, 0, 0, 0, 0, 0, 0, 1000000000000, 0, 0, 0, 0, 0, 0, 0.001]
twist:
  twist:
    linear:
      x: 0.08409556840878069
      y: -0.000002308690512348166
      z: 0
    angular:
      x: 0
      y: 0
      z: -0.0000034224491683133743
  covariance: [0.00001, 0, 0, 0, 0, 0, 0, 0.00001, 0, 0, 0, 0, 0, 0, 1000000000000, 0, 0, 0, 0, 0, 0, 1000000000000, 0, 0, 0, 0, 0, 0, 1000000000000, 0, 0, 0, 0, 0, 0, 0.001]
---
header:
  stamp:
    sec: 229
    nanosec: 461000000
  frame_id: odom
child_frame_id: base_footprint
pose:
  pose:
    position:
      x: -1.9745905281872482
      y: -0.5236601916846025
      z: 0.008534531844728636
    orientation:
      x: 0.0010917804100610742
      y: 0.0026014066897502544
      z: -0.37416860630280097
      w: 0.9273564011512457
  covariance: [0.00001, 0, 0, 0, 0, 0, 0, 0.00001, 0, 0, 0, 0, 0, 0, 1000000000000, 0, 0, 0, 0, 0, 0, 1000000000000, 0, 0, 0, 0, 0, 0, 1000000000000, 0, 0, 0, 0, 0, 0, 0.001]
twist:
  twist:
    linear:
      x: 0.08909778916853048
      y: -0.0000021960297676842933
      z: 0
    angular:
      x: 0
      y: 0
      z: -0.0000011842973919912378
  covariance: [0.00001, 0, 0, 0, 0, 0, 0, 0.00001, 0, 0, 0, 0, 0, 0, 1000000000000, 0, 0, 0, 0, 0, 0, 1000000000000, 0, 0, 0, 0, 0, 0, 1000000000000, 0, 0, 0, 0, 0, 0, 0.001]
---
header:
  stamp:
    sec: 229
    nanosec: 495000000
  frame_id: odom
child_frame_id: base_footprint
pose:
  pose:
    position:
      x: -1.9722650410803095
      y: -0.5259016840672256
      z: 0.00853869983357692
    orientation:
      x: 0.0010936262318886828
      y: 0.0026061103311081878
      z: -0.374168668418174
      w: 0.927356360707564
  covariance: [0.00001, 0, 0, 0, 0, 0, 0, 0.00001, 0, 0, 0, 0, 0, 0, 1000000000000, 0, 0, 0, 0, 0, 0, 1000000000000, 0, 0, 0, 0, 0, 0, 1000000000000, 0, 0, 0, 0, 0, 0, 0.001]
twist:
  twist:
    linear:
      x: 0.0940977040555019
      y: -0.000002535354000916812
      z: 0
    angular:
      x: 0
      y: 0
      z: 0.000005349195171953996
  covariance: [0.00001, 0, 0, 0, 0, 0, 0, 0.00001, 0, 0, 0, 0, 0, 0, 1000000000000, 0, 0, 0, 0, 0, 0, 1000000000000, 0, 0, 0, 0, 0, 0, 1000000000000, 0, 0, 0, 0, 0, 0, 0.001]
---
header:
  stamp:
    sec: 229
    nanosec: 529000000
  frame_id: odom
child_frame_id: base_footprint
pose:
  pose:
    position:
      x: -1.9698170129357369
      y: -0.5282612892438231
      z: 0.00854006401263349
    orientation:
      x: 0.0010924758020932105
      y: 0.0026034109049865766
      z: -0.37416859366550603
      w: 0.927356399806816
  covariance: [0.00001, 0, 0, 0, 0, 0, 0, 0.00001, 0, 0, 0, 0, 0, 0, 1000000000000, 0, 0, 0, 0, 0, 0, 1000000000000, 0, 0, 0, 0, 0, 0, 1000000000000, 0, 0, 0, 0, 0, 0, 0.001]
twist:
  twist:
    linear:
      x: 0.10014592297168826
      y: 0.0000002115029852298167
      z: 0
    angular:
      x: 0
      y: 0
      z: 0.000010648033572871791
  covariance: [0.00001, 0, 0, 0, 0, 0, 0, 0.00001, 0, 0, 0, 0, 0, 0, 1000000000000, 0, 0, 0, 0, 0, 0, 1000000000000, 0, 0, 0, 0, 0, 0, 1000000000000, 0, 0, 0, 0, 0, 0, 0.001]
---
header:
  stamp:
    sec: 229
    nanosec: 563000000
  frame_id: odom
child_frame_id: base_footprint
pose:
  pose:
    position:
      x: -1.9672467275511838
      y: -0.5307387359869502
      z: 0.008537112868111872
    orientation:
      x: 0.0010882930828556288
      y: 0.002593318488342382
      z: -0.37416877969418705
      w: 0.9273563579442086
  covariance: [0.00001, 0, 0, 0, 0, 0, 0, 0.00001, 0, 0, 0, 0, 0, 0, 1000000000000, 0, 0, 0, 0, 0, 0, 1000000000000, 0, 0, 0, 0, 0, 0, 1000000000000, 0, 0, 0, 0, 0, 0, 0.001]
twist:
  twist:
    linear:
      x: 0.1041420424331366
      y: -0.000003959295042182953
      z: 0
    angular:
      x: 0
      y: 0
      z: 0.000002708560959812735
  covariance: [0.00001, 0, 0, 0, 0, 0, 0, 0.00001, 0, 0, 0, 0, 0, 0, 1000000000000, 0, 0, 0, 0, 0, 0, 1000000000000, 0, 0, 0, 0, 0, 0, 1000000000000, 0, 0, 0, 0, 0, 0, 0.001]
---
header:
  stamp:
    sec: 229
    nanosec: 597000000
  frame_id: odom
child_frame_id: base_footprint
pose:
  pose:
    position:
      x: -1.9645543556234595
      y: -0.5333338635737792
      z: 0.008541907394036498
    orientation:
      x: 0.0010817675673315075
      y: 0.0025775342292306703
      z: -0.3741687328473609
      w: 0.9273564284867107
  covariance: [0.00001, 0, 0, 0, 0, 0, 0, 0.00001, 0, 0, 0, 0, 0, 0, 1000000000000, 0, 0, 0, 0, 0, 0, 1000000000000, 0, 0, 0, 0, 0, 0, 1000000000000, 0, 0, 0, 0, 0, 0, 0.001]
twist:
  twist:
    linear:
      x: 0.10916060163572015
      y: -0.000004698006596075277
      z: 0
    angular:
      x: 0
      y: 0
      z: 0.000027134067396499644
  covariance: [0.00001, 0, 0, 0, 0, 0, 0, 0.00001, 0, 0, 0, 0, 0, 0, 1000000000000, 0, 0, 0, 0, 0, 0, 1000000000000, 0, 0, 0, 0, 0, 0, 1000000000000, 0, 0, 0, 0, 0, 0, 0.001]
---
header:
  stamp:
    sec: 229
    nanosec: 631000000
  frame_id: odom
child_frame_id: base_footprint
pose:
  pose:
    position:
      x: -1.961739598117495
      y: -0.5360469516079246
      z: 0.008542434482194746
    orientation:
      x: 0.0010740171531810991
      y: 0.002558821112828369
      z: -0.37416861556719605
      w: 0.9273565366385224
  covariance: [0.00001, 0, 0, 0, 0, 0, 0, 0.00001, 0, 0, 0, 0, 0, 0, 1000000000000, 0, 0, 0, 0, 0, 0, 1000000000000, 0, 0, 0, 0, 0, 0, 1000000000000, 0, 0, 0, 0, 0, 0, 0.001]
twist:
  twist:
    linear:
      x: 0.11398335547685652
      y: -0.000007740897501086474
      z: 0
    angular:
      x: 0
      y: 0
      z: 0.00001413871343018455
  covariance: [0.00001, 0, 0, 0, 0, 0, 0, 0.00001, 0, 0, 0, 0, 0, 0, 1000000000000, 0, 0, 0, 0, 0, 0, 1000000000000, 0, 0, 0, 0, 0, 0, 1000000000000, 0, 0, 0, 0, 0, 0, 0.001]
---
header:
  stamp:
    sec: 229
    nanosec: 665000000
  frame_id: odom
child_frame_id: base_footprint
pose:
  pose:
    position:
      x: -1.9588026728146677
      y: -0.5388778018671344
      z: 0.008550242646566402
    orientation:
      x: 0.0010657686452065036
      y: 0.0025389817234152865
      z: -0.37416868670211223
      w: 0.9273565719833012
  covariance: [0.00001, 0, 0, 0, 0, 0, 0, 0.00001, 0, 0, 0, 0, 0, 0, 1000000000000, 0, 0, 0, 0, 0, 0, 1000000000000, 0, 0, 0, 0, 0, 0, 1000000000000, 0, 0, 0, 0, 0, 0, 0.001]
twist:
  twist:
    linear:
      x: 0.1190554592703153
      y: -0.00000812126286878212
      z: 0
    angular:
      x: 0
      y: 0
      z: 0.000021956585566475877
  covariance: [0.00001, 0, 0, 0, 0, 0, 0, 0.00001, 0, 0, 0, 0, 0, 0, 1000000000000, 0, 0, 0, 0, 0, 0, 1000000000000, 0, 0, 0, 0, 0, 0, 1000000000000, 0, 0, 0, 0, 0, 0, 0.001]
---
header:
  stamp:
    sec: 229
    nanosec: 699000000
  frame_id: odom
child_frame_id: base_footprint
pose:
  pose:
    position:
      x: -1.9585535133066165
      y: -0.5391179874021883
      z: 0.008525477053112875
    orientation:
      x: 0.0011167909346497607
      y: 0.0026626246593384954
      z: -0.37447535419610684
      w: 0.9272323723358844
  covariance: [0.00001, 0, 0, 0, 0, 0, 0, 0.00001, 0, 0, 0, 0, 0, 0, 1000000000000, 0, 0, 0, 0, 0, 0, 1000000000000, 0, 0, 0, 0, 0, 0, 1000000000000, 0, 0, 0, 0, 0, 0, 0.001]
twist:
  twist:
    linear:
      x: 0.010753876841243761
      y: 0.000000726505499188887
      z: 0
    angular:
      x: 0
      y: 0
      z: -0.0423871359832857
  covariance: [0.00001, 0, 0, 0, 0, 0, 0, 0.00001, 0, 0, 0, 0, 0, 0, 1000000000000, 0, 0, 0, 0, 0, 0, 1000000000000, 0, 0, 0, 0, 0, 0, 1000000000000, 0, 0, 0, 0, 0, 0, 0.001]
---
header:
  stamp:
    sec: 229
    nanosec: 733000000
  frame_id: odom
child_frame_id: base_footprint
pose:
  pose:
    position:
      x: -1.95747365159214
      y: -0.5401616542245012
      z: 0.008519002030603375
    orientation:
      x: 0.0011520549571045157
      y: 0.002741381341870075
      z: -0.37532719376660284
      w: 0.9268876173609188
  covariance: [0.00001, 0, 0, 0, 0, 0, 0, 0.00001, 0, 0, 0, 0, 0, 0, 1000000000000, 0, 0, 0, 0, 0, 0, 1000000000000, 0, 0, 0, 0, 0, 0, 1000000000000, 0, 0, 0, 0, 0, 0, 0.001]
twist:
  twist:
    linear:
      x: 0.044104890318971704
      y: 0.0000067063602147594825
      z: 0
    angular:
      x: 0
      y: 0
      z: -0.0543191331190621
  covariance: [0.00001, 0, 0, 0, 0, 0, 0, 0.00001, 0, 0, 0, 0, 0, 0, 1000000000000, 0, 0, 0, 0, 0, 0, 1000000000000, 0, 0, 0, 0, 0, 0, 1000000000000, 0, 0, 0, 0, 0, 0, 0.001]
---
header:
  stamp:
    sec: 229
    nanosec: 767000000
  frame_id: odom
child_frame_id: base_footprint
pose:
  pose:
    position:
      x: -1.9555674487709522
      y: -0.5420108735273859
      z: 0.008512180843231902
    orientation:
      x: 0.001164097881466205
      y: 0.00276488529731392
      z: -0.375962369756775
      w: 0.9266300754952242
  covariance: [0.00001, 0, 0, 0, 0, 0, 0, 0.00001, 0, 0, 0, 0, 0, 0, 1000000000000, 0, 0, 0, 0, 0, 0, 1000000000000, 0, 0, 0, 0, 0, 0, 1000000000000, 0, 0, 0, 0, 0, 0, 0.001]
twist:
  twist:
    linear:
      x: 0.07854310283516693
      y: -0.00006519741490278869
      z: 0
    angular:
      x: 0
      y: 0
      z: -0.027402486271012994
  covariance: [0.00001, 0, 0, 0, 0, 0, 0, 0.00001, 0, 0, 0, 0, 0, 0, 1000000000000, 0, 0, 0, 0, 0, 0, 1000000000000, 0, 0, 0, 0, 0, 0, 1000000000000, 0, 0, 0, 0, 0, 0, 0.001]
---
header:
  stamp:
    sec: 229
    nanosec: 801000000
  frame_id: odom
child_frame_id: base_footprint
pose:
  pose:
    position:
      x: -1.9528363420732784
      y: -0.544665827288082
      z: 0.008514529672998936
    orientation:
      x: 0.001151664595917673
      y: 0.0027304213867454666
      z: -0.37634893046148443
      w: 0.9264732597372717
  covariance: [0.00001, 0, 0, 0, 0, 0, 0, 0.00001, 0, 0, 0, 0, 0, 0, 1000000000000, 0, 0, 0, 0, 0, 0, 1000000000000, 0, 0, 0, 0, 0, 0, 1000000000000, 0, 0, 0, 0, 0, 0, 0.001]
twist:
  twist:
    linear:
      x: 0.11123341381956581
      y: -0.00005094416430729415
      z: 0
    angular:
      x: 0
      y: 0
      z: -0.027812408539636024
  covariance: [0.00001, 0, 0, 0, 0, 0, 0, 0.00001, 0, 0, 0, 0, 0, 0, 1000000000000, 0, 0, 0, 0, 0, 0, 1000000000000, 0, 0, 0, 0, 0, 0, 1000000000000, 0, 0, 0, 0, 0, 0, 0.001]
---
header:
  stamp:
    sec: 229
    nanosec: 835000000
  frame_id: odom
child_frame_id: base_footprint
pose:
  pose:
    position:
      x: -1.949326754751373
      y: -0.5480834390280122
      z: 0.008532203721837033
    orientation:
      x: 0.0011175717831541161
      y: 0.0026431826542137687
      z: -0.3767181737050472
      w: 0.9263234760163966
  covariance: [0.00001, 0, 0, 0, 0, 0, 0, 0.00001, 0, 0, 0, 0, 0, 0, 1000000000000, 0, 0, 0, 0, 0, 0, 1000000000000, 0, 0, 0, 0, 0, 0, 1000000000000, 0, 0, 0, 0, 0, 0, 0.001]
twist:
  twist:
    linear:
      x: 0.14345118601192755
      y: 0.00001572779819286607
      z: 0
    angular:
      x: 0
      y: 0
      z: -0.014536966492671943
  covariance: [0.00001, 0, 0, 0, 0, 0, 0, 0.00001, 0, 0, 0, 0, 0, 0, 1000000000000, 0, 0, 0, 0, 0, 0, 1000000000000, 0, 0, 0, 0, 0, 0, 1000000000000, 0, 0, 0, 0, 0, 0, 0.001]
---
header:
  stamp:
    sec: 229
    nanosec: 869000000
  frame_id: odom
child_frame_id: base_footprint
pose:
  pose:
    position:
      x: -1.9455541948653936
      y: -0.5517605079289902
      z: 0.008546992137189402
    orientation:
      x: 0.0010754439421647732
      y: 0.002541057774495605
      z: -0.3767057133622734
      w: 0.9263288789441549
  covariance: [0.00001, 0, 0, 0, 0, 0, 0, 0.00001, 0, 0, 0, 0, 0, 0, 1000000000000, 0, 0, 0, 0, 0, 0, 1000000000000, 0, 0, 0, 0, 0, 0, 1000000000000, 0, 0, 0, 0, 0, 0, 0.001]
twist:
  twist:
    linear:
      x: 0.1543555751267891
      y: -0.0000032910095855015475
      z: 0
    angular:
      x: 0
      y: 0
      z: 0.012633285508464922
  covariance: [0.00001, 0, 0, 0, 0, 0, 0, 0.00001, 0, 0, 0, 0, 0, 0, 1000000000000, 0, 0, 0, 0, 0, 0, 1000000000000, 0, 0, 0, 0, 0, 0, 1000000000000, 0, 0, 0, 0, 0, 0, 0.001]
---
header:
  stamp:
    sec: 229
    nanosec: 903000000
  frame_id: odom
child_frame_id: base_footprint
pose:
  pose:
    position:
      x: -1.9416594470470308
      y: -0.5555543130939581
      z: 0.008558282637263277
    orientation:
      x: 0.0010350612572552597
      y: 0.0024451720425412837
      z: -0.3765204619172548
      w: 0.9264044967180878
  covariance: [0.00001, 0, 0, 0, 0, 0, 0, 0.00001, 0, 0, 0, 0, 0, 0, 1000000000000, 0, 0, 0, 0, 0, 0, 1000000000000, 0, 0, 0, 0, 0, 0, 1000000000000, 0, 0, 0, 0, 0, 0, 0.001]
twist:
  twist:
    linear:
      x: 0.15936622210322443
      y: 0.0000029617859129554835
      z: 0
    angular:
      x: 0
      y: 0
      z: 0.005407682211955737
  covariance: [0.00001, 0, 0, 0, 0, 0, 0, 0.00001, 0, 0, 0, 0, 0, 0, 1000000000000, 0, 0, 0, 0, 0, 0, 1000000000000, 0, 0, 0, 0, 0, 0, 1000000000000, 0, 0, 0, 0, 0, 0, 0.001]
---
header:
  stamp:
    sec: 229
    nanosec: 937000000
  frame_id: odom
child_frame_id: base_footprint
pose:
  pose:
    position:
      x: -1.9376414062105263
      y: -0.5594668028936608
      z: 0.00855846857903172
    orientation:
      x: 0.000999200696321309
      y: 0.0023578981648283495
      z: -0.37657301067534105
      w: 0.9263834031032304
  covariance: [0.00001, 0, 0, 0, 0, 0, 0, 0.00001, 0, 0, 0, 0, 0, 0, 1000000000000, 0, 0, 0, 0, 0, 0, 1000000000000, 0, 0, 0, 0, 0, 0, 1000000000000, 0, 0, 0, 0, 0, 0, 0.001]
twist:
  twist:
    linear:
      x: 0.16439467324463886
      y: 0.000012709077980205263
      z: 0
    angular:
      x: 0
      y: 0
      z: -0.008476064271295146
  covariance: [0.00001, 0, 0, 0, 0, 0, 0, 0.00001, 0, 0, 0, 0, 0, 0, 1000000000000, 0, 0, 0, 0, 0, 0, 1000000000000, 0, 0, 0, 0, 0, 0, 1000000000000, 0, 0, 0, 0, 0, 0, 0.001]
---
header:
  stamp:
    sec: 229
    nanosec: 971000000
  frame_id: odom
child_frame_id: base_footprint
pose:
  pose:
    position:
      x: -1.933502176567229
      y: -0.5634990643851907
      z: 0.008558371708465507
    orientation:
      x: 0.0009669369698604958
      y: 0.002279478960412495
      z: -0.37666356120775596
      w: 0.926346819861145
  covariance: [0.00001, 0, 0, 0, 0, 0, 0, 0.00001, 0, 0, 0, 0, 0, 0, 1000000000000, 0, 0, 0, 0, 0, 0, 1000000000000, 0, 0, 0, 0, 0, 0, 1000000000000, 0, 0, 0, 0, 0, 0, 0.001]
twist:
  twist:
    linear:
      x: 0.1693823357591533
      y: 0.000007259090460690065
      z: 0
    angular:
      x: 0
      y: 0
      z: -0.0008610676427893144
  covariance: [0.00001, 0, 0, 0, 0, 0, 0, 0.00001, 0, 0, 0, 0, 0, 0, 1000000000000, 0, 0, 0, 0, 0, 0, 1000000000000, 0, 0, 0, 0, 0, 0, 1000000000000, 0, 0, 0, 0, 0, 0, 0.001]
---
header:
  stamp:
    sec: 230
    nanosec: 5000000
  frame_id: odom
child_frame_id: base_footprint
pose:
  pose:
    position:
      x: -1.9292416288993095
      y: -0.5676498672257078
      z: 0.008558275506203219
    orientation:
      x: 0.0009376667961795473
      y: 0.0022101185414116174
      z: -0.3766110034803425
      w: 0.9263683868820989
  covariance: [0.00001, 0, 0, 0, 0, 0, 0, 0.00001, 0, 0, 0, 0, 0, 0, 1000000000000, 0, 0, 0, 0, 0, 0, 1000000000000, 0, 0, 0, 0, 0, 0, 1000000000000, 0, 0, 0, 0, 0, 0, 0.001]
twist:
  twist:
    linear:
      x: 0.17437017712764546
      y: 0.00000385214702272596
      z: 0
    angular:
      x: 0
      y: 0
      z: 0.004967641400710863
  covariance: [0.00001, 0, 0, 0, 0, 0, 0, 0.00001, 0, 0, 0, 0, 0, 0, 1000000000000, 0, 0, 0, 0, 0, 0, 1000000000000, 0, 0, 0, 0, 0, 0, 1000000000000, 0, 0, 0, 0, 0, 0, 0.001]
---
header:
  stamp:
    sec: 230
    nanosec: 39000000
  frame_id: odom
child_frame_id: base_footprint
pose:
  pose:
    position:
      x: -1.9248585770082127
      y: -0.5719188701415936
      z: 0.008558182175594321
    orientation:
      x: 0.0009119917699730111
      y: 0.0021495182818108516
      z: -0.37657387777659523
      w: 0.9263836475340362
  covariance: [0.00001, 0, 0, 0, 0, 0, 0, 0.00001, 0, 0, 0, 0, 0, 0, 1000000000000, 0, 0, 0, 0, 0, 0, 1000000000000, 0, 0, 0, 0, 0, 0, 1000000000000, 0, 0, 0, 0, 0, 0, 0.001]
twist:
  twist:
    linear:
      x: 0.17937997832712732
      y: 0.000009048499097011331
      z: 0
    angular:
      x: 0
      y: 0
      z: -0.0007987226948246976
  covariance: [0.00001, 0, 0, 0, 0, 0, 0, 0.00001, 0, 0, 0, 0, 0, 0, 1000000000000, 0, 0, 0, 0, 0, 0, 1000000000000, 0, 0, 0, 0, 0, 0, 1000000000000, 0, 0, 0, 0, 0, 0, 0.001]
---
header:
  stamp:
    sec: 230
    nanosec: 73000000
  frame_id: odom
child_frame_id: base_footprint
pose:
  pose:
    position:
      x: -1.9203534306728596
      y: -0.5763068813362764
      z: 0.008558091128891082
    orientation:
      x: 0.0008900422420868357
      y: 0.002097571453913356
      z: -0.37661298138409954
      w: 0.9263678914296323
  covariance: [0.00001, 0, 0, 0, 0, 0, 0, 0.00001, 0, 0, 0, 0, 0, 0, 1000000000000, 0, 0, 0, 0, 0, 0, 1000000000000, 0, 0, 0, 0, 0, 0, 1000000000000, 0, 0, 0, 0, 0, 0, 0.001]
twist:
  twist:
    linear:
      x: 0.18438346203210088
      y: 0.000010843121698453362
      z: 0
    angular:
      x: 0
      y: 0
      z: -0.0025831291797762217
  covariance: [0.00001, 0, 0, 0, 0, 0, 0, 0.00001, 0, 0, 0, 0, 0, 0, 1000000000000, 0, 0, 0, 0, 0, 0, 1000000000000, 0, 0, 0, 0, 0, 0, 1000000000000, 0, 0, 0, 0, 0, 0, 0.001]
---
header:
  stamp:
    sec: 230
    nanosec: 107000000
  frame_id: odom
child_frame_id: base_footprint
pose:
  pose:
    position:
      x: -1.915726768239727
      y: -0.5808139000179866
      z: 0.008558002860224961
    orientation:
      x: 0.0008714675934392826
      y: 0.0020543729268823925
      z: -0.37662382065322014
      w: 0.9263635991405762
  covariance: [0.00001, 0, 0, 0, 0, 0, 0, 0.00001, 0, 0, 0, 0, 0, 0, 1000000000000, 0, 0, 0, 0, 0, 0, 1000000000000, 0, 0, 0, 0, 0, 0, 1000000000000, 0, 0, 0, 0, 0, 0, 0.001]
twist:
  twist:
    linear:
      x: 0.18937556528460242
      y: 0.000008465005313651464
      z: 0
    angular:
      x: 0
      y: 0
      z: 0.001107284571575415
  covariance: [0.00001, 0, 0, 0, 0, 0, 0, 0.00001, 0, 0, 0, 0, 0, 0, 1000000000000, 0, 0, 0, 0, 0, 0, 1000000000000, 0, 0, 0, 0, 0, 0, 1000000000000, 0, 0, 0, 0, 0, 0, 0.001]
---
header:
  stamp:
    sec: 230
    nanosec: 141000000
  frame_id: odom
child_frame_id: base_footprint
pose:
  pose:
    position:
      x: -1.9109781916575155
      y: -0.5854394500595373
      z: 0.008557917327316611
    orientation:
      x: 0.0008562732303355109
      y: 0.0020198687108226457
      z: -0.3765991897986909
      w: 0.9263737027622901
  covariance: [0.00001, 0, 0, 0, 0, 0, 0, 0.00001, 0, 0, 0, 0, 0, 0, 1000000000000, 0, 0, 0, 0, 0, 0, 1000000000000, 0, 0, 0, 0, 0, 0, 1000000000000, 0, 0, 0, 0, 0, 0, 0.001]
twist:
  twist:
    linear:
      x: 0.19437340318824398
      y: 0.00000936185155639424
      z: 0
    angular:
      x: 0
      y: 0
      z: 0.001158821042801992
  covariance: [0.00001, 0, 0, 0, 0, 0, 0, 0.00001, 0, 0, 0, 0, 0, 0, 1000000000000, 0, 0, 0, 0, 0, 0, 1000000000000, 0, 0, 0, 0, 0, 0, 1000000000000, 0, 0, 0, 0, 0, 0, 0.001]
---
header:
  stamp:
    sec: 230
    nanosec: 175000000
  frame_id: odom
child_frame_id: base_footprint
pose:
  pose:
    position:
      x: -1.906107476218358
      y: -0.5901836499716975
      z: 0.008557834051695495
    orientation:
      x: 0.0008446091015251571
      y: 0.001993941225987489
      z: -0.37659949687401933
      w: 0.9263736448043459
  covariance: [0.00001, 0, 0, 0, 0, 0, 0, 0.00001, 0, 0, 0, 0, 0, 0, 1000000000000, 0, 0, 0, 0, 0, 0, 1000000000000, 0, 0, 0, 0, 0, 0, 1000000000000, 0, 0, 0, 0, 0, 0, 0.001]
twist:
  twist:
    linear:
      x: 0.19937542538515926
      y: 0.000012028628803464891
      z: 0
    angular:
      x: 0
      y: 0
      z: -0.0009225531748142461
  covariance: [0.00001, 0, 0, 0, 0, 0, 0, 0.00001, 0, 0, 0, 0, 0, 0, 1000000000000, 0, 0, 0, 0, 0, 0, 1000000000000, 0, 0, 0, 0, 0, 0, 1000000000000, 0, 0, 0, 0, 0, 0, 0.001]
---
header:
  stamp:
    sec: 230
    nanosec: 209000000
  frame_id: odom
child_frame_id: base_footprint
pose:
  pose:
    position:
      x: -1.9011149189560395
      y: -0.5950467489773079
      z: 0.008557753006239156
    orientation:
      x: 0.0008364117912706426
      y: 0.001976561146894757
      z: -0.37661327000689127
      w: 0.9263680901650619
  covariance: [0.00001, 0, 0, 0, 0, 0, 0, 0.00001, 0, 0, 0, 0, 0, 0, 1000000000000, 0, 0, 0, 0, 0, 0, 1000000000000, 0, 0, 0, 0, 0, 0, 1000000000000, 0, 0, 0, 0, 0, 0, 0.001]
twist:
  twist:
    linear:
      x: 0.20437237843623998
      y: 0.00001229035171229631
      z: 0
    angular:
      x: 0
      y: 0
      z: -0.00041777685030438264
  covariance: [0.00001, 0, 0, 0, 0, 0, 0, 0.00001, 0, 0, 0, 0, 0, 0, 1000000000000, 0, 0, 0, 0, 0, 0, 1000000000000, 0, 0, 0, 0, 0, 0, 1000000000000, 0, 0, 0, 0, 0, 0, 0.001]
---
header:
  stamp:
    sec: 230
    nanosec: 243000000
  frame_id: odom
child_frame_id: base_footprint
pose:
  pose:
    position:
      x: -1.896000571682381
      y: -0.6000286162486933
      z: 0.008557674339820449
    orientation:
      x: 0.0008315936099087533
      y: 0.0019677092108509185
      z: -0.37660960503073404
      w: 0.9263696033285657
  covariance: [0.00001, 0, 0, 0, 0, 0, 0, 0.00001, 0, 0, 0, 0, 0, 0, 1000000000000, 0, 0, 0, 0, 0, 0, 1000000000000, 0, 0, 0, 0, 0, 0, 1000000000000, 0, 0, 0, 0, 0, 0, 0.001]
twist:
  twist:
    linear:
      x: 0.2093674465280117
      y: 0.000012190193576386288
      z: 0
    angular:
      x: 0
      y: 0
      z: 0.0006190485843365769
  covariance: [0.00001, 0, 0, 0, 0, 0, 0, 0.00001, 0, 0, 0, 0, 0, 0, 1000000000000, 0, 0, 0, 0, 0, 0, 1000000000000, 0, 0, 0, 0, 0, 0, 1000000000000, 0, 0, 0, 0, 0, 0, 0.001]
---
header:
  stamp:
    sec: 230
    nanosec: 277000000
  frame_id: odom
child_frame_id: base_footprint
pose:
  pose:
    position:
      x: -1.8907642516320766
      y: -0.6051291363089503
      z: 0.008557601858149608
    orientation:
      x: 0.0008301859514048831
      y: 0.001967314901812641
      z: -0.3766028492714233
      w: 0.9263723519104016
  covariance: [0.00001, 0, 0, 0, 0, 0, 0, 0.00001, 0, 0, 0, 0, 0, 0, 1000000000000, 0, 0, 0, 0, 0, 0, 1000000000000, 0, 0, 0, 0, 0, 0, 1000000000000, 0, 0, 0, 0, 0, 0, 0.001]
twist:
  twist:
    linear:
      x: 0.21436516021498686
      y: 0.000013805677510247971
      z: 0
    angular:
      x: 0
      y: 0
      z: 0.00007056262121746449
  covariance: [0.00001, 0, 0, 0, 0, 0, 0, 0.00001, 0, 0, 0, 0, 0, 0, 1000000000000, 0, 0, 0, 0, 0, 0, 1000000000000, 0, 0, 0, 0, 0, 0, 1000000000000, 0, 0, 0, 0, 0, 0, 0.001]
---
header:
  stamp:
    sec: 230
    nanosec: 311000000
  frame_id: odom
child_frame_id: base_footprint
pose:
  pose:
    position:
      x: -1.8854059807683188
      y: -0.6103484126075929
      z: 0.008557537996574872
    orientation:
      x: 0.0008322056997551405
      y: 0.0019753130189996038
