---
header:
  stamp:
    sec: 5686
    nanosec: 731000000
  frame_id: base_scan
angle_min: 0
angle_max: 6.28
angle_increment: 0.017493036
time_increment: 0
scan_time: 0
range_min: 0.12
range_max: 3.5
ranges: [inf, inf, inf, inf, inf, inf, inf, 3.0335078, 2.9871778, 2.9495559, 2.0085468, 1.9360156, 1.9120493, 1.889295, 1.8832775, 1.8997144, 1.8870637, 1.9345723, 1.9731174, inf, inf, inf, 0.93452924, 0.90976274, 0.8902926, 0.8813504, 0.870784, 0.8468926, 0.85226834, 0.8662651, 0.86307865, 0.84985363, 0.85323375, 0.8703494, 0.86394125, 0.8939993, 0.9081717, 0.9188377, 0.9713891, 2.3914957, 2.3980622, 2.4296157, 2.4892218, inf, inf, inf, inf, inf, inf, inf, inf, inf, inf, inf, inf, inf, inf, 1.7509506, 1.7029829, 1.7015631, 1.6531003, 1.6744199, 1.6817394, 1.6916445, 1.7192308, 1.7411779, 3.319595, 3.2851603, 3.2784638, 3.2453299, 3.2283142, 3.1987126, 3.1872957, 3.1901073, 3.0788493, 2.8764427, 2.6877837, 2.5708127, 2.551141, 2.529877, 2.5526454, 2.5362482, 2.5223427, 2.5179482, 2.5120087, 2.5046237, 2.4434829, 2.361075, 2.2846873, 2.210703, 2.1392753, 2.0825634, 2.0295153, 1.9547874, 1.9211733, 1.8742936, 1.8213645, 1.7814584, 1.7350094, 1.7028314, 1.6926817, 1.6614248, 1.6019285, 1.5789449, 1.5568, 1.5297638, 1.5059817, 1.4597158, 1.4348114, 1.4250317, 1.3965452, 1.3854803, 1.3641236, 1.324078, 1.3328751, 1.3236575, 1.296384, 1.2851001, 1.2693, 1.240533, 1.2340748, 1.216252, 1.2178106, 1.219936, 1.1956795, 1.183711, 1.1596787, 1.1874906, 1.1692113, 1.1430141, 1.1274008, 1.1303216, 1.1286613, 1.1239158, 1.1147586, 1.1094154, 1.120881, 1.1060321, 1.1062466, 1.0979489, 1.1185478, 1.0707135, 1.0938258, 1.1049639, 1.0869565, 1.0887549, 1.0747522, 1.0730703, 1.0768006, 1.094837, 1.0709926, 1.0592228, 1.0843993, 1.0553318, 1.0318478, 1.011377, 0.9869781, 0.95089126, 0.92175746, 0.91058403, 0.88358825, 0.86240655, 0.8614757, 0.84134156, 0.8272989, 0.80524194, 0.79168415, 0.7828288, 0.78331995, 0.76162994, 0.7679073, 0.7286794, 0.7321211, 0.72863305, 0.69809055, 0.70276093, 0.6804358, 0.68679076, 0.676923, 0.6565771, 0.6795585, 0.6559102, 0.65484715, 0.6522932, 0.6521993, 0.6352513, 0.61955875, 0.6479195, 0.61748505, 0.6149173, 0.6001464, 0.609094, 0.6208062, 0.5995446, 0.58612674, 0.58646464, 0.60274386, 0.60286325, 0.5907546, 0.5854582, 0.5795929, 0.5783789, 0.57818, 0.605149, 0.571034, 0.5880894, 0.57486445, 0.57999665, 0.5560521, 0.56609017, 0.58338094, 0.57041854, 0.5909787, 0.61001754, 0.57973516, 0.56770444, 0.5745622, 0.6023007, 0.57865554, 0.577348, 0.59393555, 0.5919214, 0.5943733, 0.60899824, 0.6000357, 0.6054355, 0.60457844, 0.60140747, 0.6112018, 0.6053421, 0.62942684, 0.6088945, 0.61810726, 0.6262738, 0.6473467, 0.6558209, 0.6432167, 0.6427087, 0.65856016, 0.6750137, 0.6532628, 0.6806482, 0.71427834, 0.7076521, 0.6982794, 0.69907, 0.7193706, 0.72238195, 0.74847114, 0.75779516, 0.7714547, 0.7910943, 0.78871447, 0.7946789, 0.8178459, 0.8306502, 0.83355594, 0.85653263, 0.878429, 0.90306926, 0.9019878, 0.93791336, 0.937807, 0.97053057, 1.00775, 1.0178713, 1.043394, 1.0949132, 1.1283771, 1.1264964, 1.170036, 1.2120055, 1.2469481, 1.3015381, 1.3491291, 1.4041585, 1.473385, 1.5240096, 1.5234771, 1.5079961, 1.5390605, 1.5406959, 1.5196682, 1.5194151, 1.5645423, 1.5579934, 1.5626366, 1.5536244, 1.58846, 1.5924474, 1.627805, 1.7259487, 1.9478792, 2.2034476, 2.2434943, 2.275019, 2.269881, 2.2892892, 2.343639, 2.3822482, 2.3684866, 2.3922672, 2.4485707, 2.4392943, 2.4789662, 2.5051875, 2.5456338, 2.5925715, 2.6102355, 2.6482682, 2.6872733, 2.7305028, 2.7737193, 2.827615, 2.865273, 2.9223473, 2.9756753, 1.0228875, 0.97807556, 0.93787223, 0.94154805, 0.94119996, 0.93222517, 0.9219265, 0.89978224, 0.91979754, 0.9026143, 0.9258242, 0.92553926, 0.9467014, 0.9450599, 0.95556813, 0.98533946, inf, inf, inf, inf, inf, inf, 1.9698664, 1.9426346, 1.9185615, 1.9203845, 1.9026296, 1.9265407, 1.9530132, 1.9961418, 2.9884062, 2.9685397, 2.9811738, 3.0116768, inf, inf, inf, inf, inf, inf, inf, inf, inf]
intensities: [0, 0, 0, 0, 0, 0, 0, 0, 0, 0, 0, 0, 0, 0, 0, 0, 0, 0, 0, 0, 0, 0, 0, 0, 0, 0, 0, 0, 0, 0, 0, 0, 0, 0, 0, 0, 0, 0, 0, 0, 0, 0, 0, 0, 0, 0, 0, 0, 0, 0, 0, 0, 0, 0, 0, 0, 0, 0, 0, 0, 0, 0, 0, 0, 0, 0, 0, 0, 0, 0, 0, 0, 0, 0, 0, 0, 0, 0, 0, 0, 0, 0, 0, 0, 0, 0, 0, 0, 0, 0, 0, 0, 0, 0, 0, 0, 0, 0, 0, 0, 0, 0, 0, 0, 0, 0, 0, 0, 0, 0, 0, 0, 0, 0, 0, 0, 0, 0, 0, 0, 0, 0, 0, 0, 0, 0, 0, 0, 0, 0, 0, 0, 0, 0, 0, 0, 0, 0, 0, 0, 0, 0, 0, 0, 0, 0, 0, 0, 0, 0, 0, 0, 0, 0, 0, 0, 0, 0, 0, 0, 0, 0, 0, 0, 0, 0, 0, 0, 0, 0, 0, 0, 0, 0, 0, 0, 0, 0, 0, 0, 0, 0, 0, 0, 0, 0, 0, 0, 0, 0, 0, 0, 0, 0, 0, 0, 0, 0, 0, 0, 0, 0, 0, 0, 0, 0, 0, 0, 0, 0, 0, 0, 0, 0, 0, 0, 0, 0, 0, 0, 0, 0, 0, 0, 0, 0, 0, 0, 0, 0, 0, 0, 0, 0, 0, 0, 0, 0, 0, 0, 0, 0, 0, 0, 0, 0, 0, 0, 0, 0, 0, 0, 0, 0, 0, 0, 0, 0, 0, 0, 0, 0, 0, 0, 0, 0, 0, 0, 0, 0, 0, 0, 0, 0, 0, 0, 0, 0, 0, 0, 0, 0, 0, 0, 0, 0, 0, 0, 0, 0, 0, 0, 0, 0, 0, 0, 0, 0, 0, 0, 0, 0, 0, 0, 0, 0, 0, 0, 0, 0, 0, 0, 0, 0, 0, 0, 0, 0, 0, 0, 0, 0, 0, 0, 0, 0, 0, 0, 0, 0, 0, 0, 0, 0, 0, 0, 0, 0, 0, 0, 0, 0, 0, 0, 0, 0, 0, 0, 0, 0, 0, 0, 0, 0, 0, 0, 0, 0, 0, 0]
---
header:
  stamp:
    sec: 5686
    nanosec: 931000000
  frame_id: base_scan
angle_min: 0
angle_max: 6.28
angle_increment: 0.017493036
time_increment: 0
scan_time: 0
range_min: 0.12
range_max: 3.5
ranges: [inf, inf, inf, inf, inf, inf, inf, 3.0291917, 2.9906569, 2.963029, 2.0287797, 1.9395752, 1.9305891, 1.8669909, 1.8947303, 1.8837303, 1.8924673, 1.92426, 1.9761105, inf, inf, inf, 0.9389503, 0.90751576, 0.8838327, 0.8832257, 0.86563504, 0.8663454, 0.86629134, 0.85635805, 0.86430156, 0.85563505, 0.8599213, 0.85812587, 0.884816, 0.90670174, 0.8977362, 0.9382551, 0.9677398, 2.3922112, 2.4133396, 2.420457, 2.4688137, inf, inf, inf, inf, inf, inf, inf, inf, inf, inf, inf, inf, inf, inf, 1.754639, 1.7181925, 1.6824698, 1.6737547, 1.6565224, 1.6718147, 1.6828456, 1.712494, 1.7147069, 3.3276184, 3.305867, 3.2827985, 3.2727861, 3.2340808, 3.2187815, 3.199982, 3.1686027, 3.0633671, 2.8631825, 2.6821787, 2.5512438, 2.5403323, 2.541295, 2.5479445, 2.5472772, 2.52446, 2.540511, 2.5242925, 2.5104616, 2.43095, 2.3581715, 2.2780871, 2.2093117, 2.147596, 2.0912256, 2.003981, 1.9857996, 1.9230494, 1.8735656, 1.8176285, 1.78396, 1.7388272, 1.7041879, 1.6616428, 1.6350254, 1.5972029, 1.561221, 1.5225644, 1.5244818, 1.5102922, 1.4656142, 1.444548, 1.4132371, 1.4036851, 1.3659372, 1.3701085, 1.3383933, 1.3144445, 1.3272371, 1.2804558, 1.2786683, 1.26677, 1.2601459, 1.2569486, 1.2292181, 1.2087681, 1.202527, 1.1952397, 1.1902782, 1.1805426, 1.1621137, 1.1856979, 1.1526914, 1.1735831, 1.1417093, 1.1313297, 1.1238966, 1.1239341, 1.1303802, 1.0984489, 1.1029854, 1.0879325, 1.090125, 1.096626, 1.0994081, 1.0876527, 1.089928, 1.0802555, 1.079311, 1.0692981, 1.0770423, 1.0763744, 1.0737472, 1.0810207, 1.0769523, 1.0851072, 1.0626198, 1.0303223, 1.0026271, 0.9849528, 0.9526565, 0.9300353, 0.91379064, 0.90055287, 0.8841653, 0.8792483, 0.8421177, 0.84109235, 0.81769073, 0.7883194, 0.78458816, 0.78864294, 0.7649635, 0.75980604, 0.7469607, 0.73392254, 0.7150905, 0.7292814, 0.7168241, 0.71067584, 0.6882288, 0.684996, 0.6806661, 0.66238135, 0.65291893, 0.6535335, 0.6547187, 0.651518, 0.63003856, 0.6337654, 0.62461096, 0.62396616, 0.62896687, 0.61340976, 0.60181034, 0.5981899, 0.60590774, 0.60298306, 0.59674656, 0.5886678, 0.59370023, 0.5893404, 0.6045321, 0.59060746, 0.5959422, 0.56865, 0.5789317, 0.57461846, 0.5712663, 0.5883751, 0.5731867, 0.5797493, 0.6026576, 0.58146447, 0.5772478, 0.57728285, 0.595169, 0.5740147, 0.5873834, 0.5896435, 0.56772643, 0.56373936, 0.5933778, 0.57204235, 0.6036615, 0.59411126, 0.60031277, 0.61779225, 0.5986423, 0.58691174, 0.60503757, 0.61839247, 0.6168764, 0.60277194, 0.64225596, 0.634018, 0.61614645, 0.64009196, 0.6508289, 0.6372958, 0.6572052, 0.68638045, 0.67101383, 0.68064517, 0.64825743, 0.6923561, 0.7060803, 0.68633, 0.71106917, 0.72024226, 0.72697085, 0.74408895, 0.73933095, 0.7685746, 0.7632117, 0.787665, 0.80012727, 0.81040764, 0.8371275, 0.83240896, 0.87148106, 0.88495386, 0.8852151, 0.88036245, 0.93021435, 0.9551229, 0.9819077, 0.99915105, 1.0290403, 1.0568978, 1.0827065, 1.1097158, 1.1569438, 1.166762, 1.2111518, 1.2729946, 1.3039201, 1.3405914, 1.3989657, 1.4700396, 1.5128318, 1.5075039, 1.5212352, 1.5054103, 1.5367374, 1.5344733, 1.5233296, 1.5634679, 1.5512724, 1.5702842, 1.5845327, 1.5865581, 1.5829685, 1.6107044, 1.7200458, 1.9568888, 2.2145467, 2.238906, 2.2574408, 2.2736537, 2.3118627, 2.3168051, 2.3618171, 2.3476574, 2.3998513, 2.419759, 2.4428458, 2.471433, 2.5060167, 2.5273283, 2.577424, 2.6029902, 2.6547403, 2.6901946, 2.7452397, 2.7649949, 2.8194635, 2.863859, 2.9304812, 2.9706564, 1.0285542, 0.983308, 0.9573772, 0.9390817, 0.9333325, 0.9195422, 0.9246715, 0.897445, 0.9042733, 0.9062036, 0.9403259, 0.9106602, 0.9410286, 0.9397958, 0.9542878, 0.99431944, inf, inf, inf, inf, inf, inf, 1.9743546, 1.9557714, 1.9246277, 1.9051645, 1.9074486, 1.9398892, 1.9344505, 2.0144742, 2.9967058, 2.9827259, 2.9883509, 3.0209274, inf, inf, inf, inf, inf, inf, inf, inf, inf]
intensities: [0, 0, 0, 0, 0, 0, 0, 0, 0, 0, 0, 0, 0, 0, 0, 0, 0, 0, 0, 0, 0, 0, 0, 0, 0, 0, 0, 0, 0, 0, 0, 0, 0, 0, 0, 0, 0, 0, 0, 0, 0, 0, 0, 0, 0, 0, 0, 0, 0, 0, 0, 0, 0, 0, 0, 0, 0, 0, 0, 0, 0, 0, 0, 0, 0, 0, 0, 0, 0, 0, 0, 0, 0, 0, 0, 0, 0, 0, 0, 0, 0, 0, 0, 0, 0, 0, 0, 0, 0, 0, 0, 0, 0, 0, 0, 0, 0, 0, 0, 0, 0, 0, 0, 0, 0, 0, 0, 0, 0, 0, 0, 0, 0, 0, 0, 0, 0, 0, 0, 0, 0, 0, 0, 0, 0, 0, 0, 0, 0, 0, 0, 0, 0, 0, 0, 0, 0, 0, 0, 0, 0, 0, 0, 0, 0, 0, 0, 0, 0, 0, 0, 0, 0, 0, 0, 0, 0, 0, 0, 0, 0, 0, 0, 0, 0, 0, 0, 0, 0, 0, 0, 0, 0, 0, 0, 0, 0, 0, 0, 0, 0, 0, 0, 0, 0, 0, 0, 0, 0, 0, 0, 0, 0, 0, 0, 0, 0, 0, 0, 0, 0, 0, 0, 0, 0, 0, 0, 0, 0, 0, 0, 0, 0, 0, 0, 0, 0, 0, 0, 0, 0, 0, 0, 0, 0, 0, 0, 0, 0, 0, 0, 0, 0, 0, 0, 0, 0, 0, 0, 0, 0, 0, 0, 0, 0, 0, 0, 0, 0, 0, 0, 0, 0, 0, 0, 0, 0, 0, 0, 0, 0, 0, 0, 0, 0, 0, 0, 0, 0, 0, 0, 0, 0, 0, 0, 0, 0, 0, 0, 0, 0, 0, 0, 0, 0, 0, 0, 0, 0, 0, 0, 0, 0, 0, 0, 0, 0, 0, 0, 0, 0, 0, 0, 0, 0, 0, 0, 0, 0, 0, 0, 0, 0, 0, 0, 0, 0, 0, 0, 0, 0, 0, 0, 0, 0, 0, 0, 0, 0, 0, 0, 0, 0, 0, 0, 0, 0, 0, 0, 0, 0, 0, 0, 0, 0, 0, 0, 0, 0, 0, 0, 0, 0, 0, 0, 0, 0, 0, 0, 0]
---
header:
  stamp:
    sec: 5687
    nanosec: 131000000
  frame_id: base_scan
angle_min: 0
angle_max: 6.28
angle_increment: 0.017493036
time_increment: 0
scan_time: 0
range_min: 0.12
range_max: 3.5
ranges: [inf, inf, inf, inf, inf, inf, inf, 3.019386, 2.9692605, 2.9683692, 2.006547, 1.9286617, 1.921313, 1.8740169, 1.8728822, 1.8814956, 1.9086145, 1.9274282, 1.9770262, inf, inf, inf, 0.9503033, 0.90732217, 0.8727193, 0.88418347, 0.85630363, 0.86519116, 0.8514116, 0.8568737, 0.86103976, 0.85863423, 0.8673939, 0.8770397, 0.8752918, 0.89046013, 0.8770904, 0.93664104, 0.9590047, 2.400679, 2.4010897, 2.4171696, 2.4757748, inf, inf, inf, inf, inf, inf, inf, inf, inf, inf, inf, inf, inf, inf, 1.743685, 1.7000434, 1.6736658, 1.690148, 1.6417282, 1.6944395, 1.6786448, 1.703889, 1.7299173, 3.3345664, 3.2855818, 3.2739127, 3.2549772, 3.2320313, 3.2073553, 3.1859095, 3.1926415, 3.0675426, 2.855, 2.6770098, 2.5542417, 2.546904, 2.5426378, 2.5449545, 2.539378, 2.5155573, 2.5067592, 2.5233517, 2.5028796, 2.4292195, 2.341196, 2.2767062, 2.2134342, 2.1424763, 2.0843794, 2.0186462, 1.9565777, 1.9162692, 1.886616, 1.8354858, 1.7851627, 1.7497544, 1.702006, 1.680806, 1.6307263, 1.6084393, 1.5751957, 1.5494093, 1.5240313, 1.4929553, 1.474431, 1.4457914, 1.4206774, 1.4088453, 1.3878855, 1.3618915, 1.3566885, 1.3391408, 1.3106376, 1.3123817, 1.2701355, 1.2676197, 1.2547795, 1.2156129, 1.234543, 1.2206161, 1.2064607, 1.1824106, 1.191608, 1.1699679, 1.1782455, 1.1477038, 1.1517665, 1.1282268, 1.1332833, 1.113865, 1.129789, 1.1176964, 1.1233127, 1.1025218, 1.1075292, 1.1011862, 1.0921177, 1.0997951, 1.1006299, 1.0790138, 1.0848014, 1.1088182, 1.0861535, 1.0745255, 1.0803645, 1.0773616, 1.0903084, 1.077734, 1.0748931, 1.0924559, 1.0586903, 1.0345854, 0.997233, 0.96441764, 0.95650744, 0.91840535, 0.90017927, 0.8849252, 0.89007497, 0.8655948, 0.8337621, 0.8284594, 0.804709, 0.78894675, 0.7674978, 0.79139847, 0.76884425, 0.7403263, 0.7514557, 0.7430205, 0.7257675, 0.69844264, 0.70597976, 0.68949544, 0.6899509, 0.6557147, 0.68563867, 0.6650386, 0.65023744, 0.6638548, 0.6656619, 0.63627774, 0.6106844, 0.6260091, 0.63706917, 0.6308204, 0.59588027, 0.61728686, 0.6096934, 0.60259354, 0.6157999, 0.60448194, 0.5881172, 0.60190576, 0.59346104, 0.5998662, 0.5910329, 0.6009425, 0.5702959, 0.5926337, 0.5697327, 0.5756752, 0.5737259, 0.5715793, 0.56970066, 0.56759423, 0.5673034, 0.58107126, 0.5707114, 0.5809114, 0.5789468, 0.5913235, 0.5795246, 0.58407056, 0.5756198, 0.5638255, 0.5823935, 0.601668, 0.5952257, 0.5731512, 0.5936315, 0.60351616, 0.57789737, 0.59486115, 0.60099643, 0.58694726, 0.62618047, 0.624512, 0.61200684, 0.61687636, 0.63071936, 0.63360167, 0.63903284, 0.66033727, 0.6556176, 0.6602578, 0.66218436, 0.67412096, 0.6814374, 0.6806504, 0.6963311, 0.68463933, 0.7104867, 0.7289608, 0.7484895, 0.755072, 0.7538502, 0.7750816, 0.78024524, 0.7786534, 0.7983284, 0.80761707, 0.8460139, 0.833694, 0.85534203, 0.8862014, 0.8903972, 0.9277732, 0.9343753, 0.9421768, 0.9787519, 1.0110931, 1.0256425, 1.0547413, 1.0788286, 1.107314, 1.115503, 1.1767067, 1.2119892, 1.263941, 1.290121, 1.3608338, 1.4125812, 1.4576969, 1.5072304, 1.5287324, 1.5114007, 1.512418, 1.5457276, 1.5410469, 1.5559429, 1.5475857, 1.5695008, 1.5606271, 1.5695869, 1.5951012, 1.590745, 1.6017966, 1.713272, 1.960447, 2.2271442, 2.2429454, 2.27041, 2.3017106, 2.286563, 2.3478236, 2.3366253, 2.3811939, 2.3989558, 2.4182475, 2.4583488, 2.47476, 2.5126605, 2.5468354, 2.5732667, 2.6196592, 2.660947, 2.6795413, 2.732352, 2.776325, 2.8143332, 2.861519, 2.9335968, 2.9545841, 1.0149828, 0.97784096, 0.93732065, 0.9390602, 0.93183184, 0.91960347, 0.91682863, 0.90068024, 0.9070157, 0.9249052, 0.9083317, 0.935547, 0.9275642, 0.93627644, 0.93002284, 0.99301153, inf, inf, inf, inf, inf, inf, 1.9786301, 1.9368892, 1.9254553, 1.9214069, 1.9182518, 1.9134179, 1.9476458, 1.9796327, 3.0112393, 2.9710376, 2.9827433, 3.024316, inf, inf, inf, inf, inf, inf, inf, inf, inf]
intensities: [0, 0, 0, 0, 0, 0, 0, 0, 0, 0, 0, 0, 0, 0, 0, 0, 0, 0, 0, 0, 0, 0, 0, 0, 0, 0, 0, 0, 0, 0, 0, 0, 0, 0, 0, 0, 0, 0, 0, 0, 0, 0, 0, 0, 0, 0, 0, 0, 0, 0, 0, 0, 0, 0, 0, 0, 0, 0, 0, 0, 0, 0, 0, 0, 0, 0, 0, 0, 0, 0, 0, 0, 0, 0, 0, 0, 0, 0, 0, 0, 0, 0, 0, 0, 0, 0, 0, 0, 0, 0, 0, 0, 0, 0, 0, 0, 0, 0, 0, 0, 0, 0, 0, 0, 0, 0, 0, 0, 0, 0, 0, 0, 0, 0, 0, 0, 0, 0, 0, 0, 0, 0, 0, 0, 0, 0, 0, 0, 0, 0, 0, 0, 0, 0, 0, 0, 0, 0, 0, 0, 0, 0, 0, 0, 0, 0, 0, 0, 0, 0, 0, 0, 0, 0, 0, 0, 0, 0, 0, 0, 0, 0, 0, 0, 0, 0, 0, 0, 0, 0, 0, 0, 0, 0, 0, 0, 0, 0, 0, 0, 0, 0, 0, 0, 0, 0, 0, 0, 0, 0, 0, 0, 0, 0, 0, 0, 0, 0, 0, 0, 0, 0, 0, 0, 0, 0, 0, 0, 0, 0, 0, 0, 0, 0, 0, 0, 0, 0, 0, 0, 0, 0, 0, 0, 0, 0, 0, 0, 0, 0, 0, 0, 0, 0, 0, 0, 0, 0, 0, 0, 0, 0, 0, 0, 0, 0, 0, 0, 0, 0, 0, 0, 0, 0, 0, 0, 0, 0, 0, 0, 0, 0, 0, 0, 0, 0, 0, 0, 0, 0, 0, 0, 0, 0, 0, 0, 0, 0, 0, 0, 0, 0, 0, 0, 0, 0, 0, 0, 0, 0, 0, 0, 0, 0, 0, 0, 0, 0, 0, 0, 0, 0, 0, 0, 0, 0, 0, 0, 0, 0, 0, 0, 0, 0, 0, 0, 0, 0, 0, 0, 0, 0, 0, 0, 0, 0, 0, 0, 0, 0, 0, 0, 0, 0, 0, 0, 0, 0, 0, 0, 0, 0, 0, 0, 0, 0, 0, 0, 0, 0, 0, 0, 0, 0, 0, 0, 0, 0, 0, 0]
---
header:
  stamp:
    sec: 5687
    nanosec: 331000000
  frame_id: base_scan
angle_min: 0
angle_max: 6.28
angle_increment: 0.017493036
time_increment: 0
scan_time: 0
range_min: 0.12
range_max: 3.5
ranges: [inf, inf, inf, inf, inf, inf, inf, 3.0454173, 2.9940686, 2.9827495, 1.9995344, 1.9262371, 1.9162463, 1.9113244, 1.8819995, 1.9022155, 1.9004841, 1.9382389, 1.983809, inf, inf, inf, 0.95397365, 0.9120335, 0.897808, 0.88872087, 0.8737359, 0.860263, 0.8571668, 0.8547051, 0.8555094, 0.8698238, 0.8550389, 0.87757504, 0.8680279, 0.8929842, 0.8989019, 0.9397681, 0.97993803, 2.4047623, 2.4058714, 2.4209585, 2.471524, inf, inf, inf, inf, inf, inf, inf, inf, inf, inf, inf, inf, inf, inf, 1.7547814, 1.7130787, 1.6931846, 1.6964551, 1.6758621, 1.6948984, 1.6759347, 1.7151992, 1.7410595, 3.3149397, 3.2977722, 3.284517, 3.247501, 3.22568, 3.1986187, 3.2015455, 3.1656723, 3.0524273, 2.8559694, 2.6976953, 2.5555756, 2.5556035, 2.5536127, 2.5396178, 2.5355573, 2.5365698, 2.515358, 2.5144749, 2.5087693, 2.437988, 2.3820307, 2.28474, 2.209552, 2.1584902, 2.075512, 2.0098693, 1.9722037, 1.9119319, 1.8802241, 1.8051329, 1.777385, 1.7579591, 1.7335126, 1.6675369, 1.6343913, 1.6149447, 1.5600821, 1.5423915, 1.5145698, 1.5068853, 1.4730052, 1.445657, 1.4199433, 1.3966956, 1.3793719, 1.3566227, 1.338658, 1.3296254, 1.3253677, 1.2906477, 1.2883425, 1.2798421, 1.2475977, 1.2426213, 1.2332963, 1.1987524, 1.203984, 1.1892389, 1.1825027, 1.1828123, 1.1643462, 1.147936, 1.1537073, 1.1447452, 1.1551653, 1.1420255, 1.1294386, 1.1271393, 1.1231338, 1.1067183, 1.1124363, 1.1003375, 1.0789521, 1.0983064, 1.1008935, 1.1059914, 1.069353, 1.0947385, 1.0658876, 1.0707194, 1.0730455, 1.0761425, 1.0729991, 1.0793744, 1.0693423, 1.0787547, 1.0561812, 1.0392025, 0.9950613, 0.9792552, 0.9450238, 0.93999046, 0.8928933, 0.8976902, 0.8740298, 0.85282785, 0.8289223, 0.8281223, 0.7946083, 0.79920834, 0.77821094, 0.75393707, 0.77782166, 0.7512437, 0.73523825, 0.7413455, 0.7383989, 0.7176902, 0.69136786, 0.69100416, 0.6905947, 0.6734907, 0.6627038, 0.6740466, 0.65920997, 0.6443737, 0.6423532, 0.6335244, 0.6464864, 0.6305044, 0.6245447, 0.6179718, 0.62242043, 0.61200744, 0.6136184, 0.6151824, 0.6205256, 0.59568125, 0.5828534, 0.58982676, 0.6028646, 0.5993469, 0.5867697, 0.597906, 0.59911937, 0.6078703, 0.5783607, 0.57676035, 0.58888876, 0.5686482, 0.5740212, 0.57849646, 0.60904956, 0.57297134, 0.56495005, 0.58823, 0.5765474, 0.58966476, 0.5945872, 0.57584155, 0.5868385, 0.5692152, 0.59021974, 0.575551, 0.5836986, 0.61176246, 0.6112511, 0.60540855, 0.61214995, 0.59269243, 0.60899734, 0.62004876, 0.6107735, 0.624714, 0.6083699, 0.6301537, 0.6292445, 0.62957084, 0.6454239, 0.6504901, 0.65618515, 0.65668434, 0.6613608, 0.66825813, 0.66194874, 0.69237465, 0.6912507, 0.7087134, 0.72351915, 0.7234426, 0.7245265, 0.7466766, 0.73271453, 0.75338393, 0.7845918, 0.7960081, 0.8004125, 0.82052225, 0.80898285, 0.83653337, 0.8487419, 0.87301606, 0.8866759, 0.92617047, 0.9407783, 0.9602875, 0.97205067, 1.0191128, 1.0254248, 1.0432087, 1.0787426, 1.1168665, 1.1437982, 1.1852897, 1.2154455, 1.2604862, 1.3157201, 1.3609799, 1.4021279, 1.4613645, 1.5179663, 1.5130701, 1.5303091, 1.532223, 1.5397472, 1.5324978, 1.5465418, 1.5465001, 1.5376091, 1.5661608, 1.5605202, 1.5854619, 1.6094146, 1.6005461, 1.7180622, 1.9322562, 2.2224894, 2.2534604, 2.2767594, 2.266064, 2.313212, 2.3204148, 2.3609984, 2.364867, 2.3992095, 2.4373922, 2.4638941, 2.4971251, 2.5074196, 2.5300891, 2.562279, 2.602372, 2.641683, 2.6898463, 2.739457, 2.773491, 2.8306203, 2.8899577, 2.9188554, 2.985799, 1.0159256, 0.97464657, 0.9428991, 0.9369196, 0.9396239, 0.9050865, 0.9104622, 0.9276158, 0.9064227, 0.9121845, 0.8964074, 0.92980176, 0.9254403, 0.9377247, 0.94341093, 0.9922443, inf, inf, inf, inf, inf, inf, 1.9824175, 1.928208, 1.9334818, 1.9121398, 1.916939, 1.9242593, 1.9576763, 1.991462, 3.0136638, 2.9790986, 2.9812367, 3.0135043, inf, inf, inf, inf, inf, inf, inf, inf, inf]
intensities: [0, 0, 0, 0, 0, 0, 0, 0, 0, 0, 0, 0, 0, 0, 0, 0, 0, 0, 0, 0, 0, 0, 0, 0, 0, 0, 0, 0, 0, 0, 0, 0, 0, 0, 0, 0, 0, 0, 0, 0, 0, 0, 0, 0, 0, 0, 0, 0, 0, 0, 0, 0, 0, 0, 0, 0, 0, 0, 0, 0, 0, 0, 0, 0, 0, 0, 0, 0, 0, 0, 0, 0, 0, 0, 0, 0, 0, 0, 0, 0, 0, 0, 0, 0, 0, 0, 0, 0, 0, 0, 0, 0, 0, 0, 0, 0, 0, 0, 0, 0, 0, 0, 0, 0, 0, 0, 0, 0, 0, 0, 0, 0, 0, 0, 0, 0, 0, 0, 0, 0, 0, 0, 0, 0, 0, 0, 0, 0, 0, 0, 0, 0, 0, 0, 0, 0, 0, 0, 0, 0, 0, 0, 0, 0, 0, 0, 0, 0, 0, 0, 0, 0, 0, 0, 0, 0, 0, 0, 0, 0, 0, 0, 0, 0, 0, 0, 0, 0, 0, 0, 0, 0, 0, 0, 0, 0, 0, 0, 0, 0, 0, 0, 0, 0, 0, 0, 0, 0, 0, 0, 0, 0, 0, 0, 0, 0, 0, 0, 0, 0, 0, 0, 0, 0, 0, 0, 0, 0, 0, 0, 0, 0, 0, 0, 0, 0, 0, 0, 0, 0, 0, 0, 0, 0, 0, 0, 0, 0, 0, 0, 0, 0, 0, 0, 0, 0, 0, 0, 0, 0, 0, 0, 0, 0, 0, 0, 0, 0, 0, 0, 0, 0, 0, 0, 0, 0, 0, 0, 0, 0, 0, 0, 0, 0, 0, 0, 0, 0, 0, 0, 0, 0, 0, 0, 0, 0, 0, 0, 0, 0, 0, 0, 0, 0, 0, 0, 0, 0, 0, 0, 0, 0, 0, 0, 0, 0, 0, 0, 0, 0, 0, 0, 0, 0, 0, 0, 0, 0, 0, 0, 0, 0, 0, 0, 0, 0, 0, 0, 0, 0, 0, 0, 0, 0, 0, 0, 0, 0, 0, 0, 0, 0, 0, 0, 0, 0, 0, 0, 0, 0, 0, 0, 0, 0, 0, 0, 0, 0, 0, 0, 0, 0, 0, 0, 0, 0, 0, 0, 0, 0]
---
header:
  stamp:
    sec: 5687
    nanosec: 531000000
  frame_id: base_scan
angle_min: 0
angle_max: 6.28
angle_increment: 0.017493036
time_increment: 0
scan_time: 0
range_min: 0.12
range_max: 3.5
ranges: [inf, inf, inf, inf, inf, inf, inf, 2.9960213, 2.984839, 2.960603, 2.0198176, 1.9343568, 1.9139761, 1.8991909, 1.8801054, 1.9230018, 1.9064947, 1.9079276, 1.9761692, inf, inf, inf, 0.9303904, 0.9195885, 0.907388, 0.86124283, 0.8627333, 0.8648672, 0.86107033, 0.8695402, 0.8470461, 0.8722727, 0.8753172, 0.8821982, 0.87304854, 0.8908274, 0.9047649, 0.92958385, 0.956646, 2.4015892, 2.396039, 2.407641, 2.476955, inf, inf, inf, inf, inf, inf, inf, inf, inf, inf, inf, inf, inf, inf, 1.740261, 1.7240171, 1.7097048, 1.6623791, 1.680309, 1.6809498, 1.6735637, 1.7005123, 1.7267288, 3.3155236, 3.3154776, 3.286688, 3.2621362, 3.2194188, 3.2073095, 3.1942887, 3.157545, 3.0491977, 2.8647437, 2.6978884, 2.5637944, 2.554288, 2.549329, 2.5541732, 2.5212066, 2.5331645, 2.5177245, 2.4921868, 2.5067735, 2.4403837, 2.343845, 2.285925, 2.197991, 2.1472623, 2.0915926, 2.0229702, 1.9714029, 1.9179507, 1.8600098, 1.836846, 1.7826258, 1.7253942, 1.6961848, 1.647515, 1.6268194, 1.5907937, 1.5790812, 1.5542144, 1.5187393, 1.4947151, 1.4538852, 1.4256337, 1.4104767, 1.3848922, 1.382251, 1.3576301, 1.3359418, 1.3394475, 1.3135011, 1.2752072, 1.28874, 1.2548342, 1.2464551, 1.2444444, 1.2378981, 1.2168983, 1.2114596, 1.1828004, 1.2049574, 1.1777226, 1.1634676, 1.1706924, 1.1629752, 1.1435505, 1.140488, 1.1306335, 1.1174581, 1.1202438, 1.1052076, 1.0879443, 1.0953869, 1.1060102, 1.0919483, 1.0928167, 1.1036223, 1.082208, 1.1060373, 1.0845505, 1.086943, 1.0828543, 1.0773786, 1.0748147, 1.0917041, 1.0876821, 1.0803318, 1.0599197, 1.0466856, 1.035715, 1.0152298, 0.95028913, 0.9494721, 0.9318759, 0.90830815, 0.88112754, 0.8532944, 0.8478629, 0.8480527, 0.8374585, 0.81302255, 0.79597443, 0.80143356, 0.7785472, 0.788965, 0.74829304, 0.73838097, 0.72469056, 0.72726065, 0.71014947, 0.7178395, 0.6887658, 0.69421834, 0.6770403, 0.6873973, 0.64860934, 0.6504679, 0.65841943, 0.63577443, 0.6458806, 0.63969535, 0.6433258, 0.6155686, 0.6251, 0.62763864, 0.62357384, 0.62410784, 0.6101453, 0.6155601, 0.5829221, 0.6018483, 0.60876137, 0.610107, 0.5857374, 0.57272047, 0.5957537, 0.576091, 0.5863976, 0.5855829, 0.58304405, 0.56782293, 0.5665823, 0.58584845, 0.5842594, 0.5673801, 0.5825455, 0.57223284, 0.6046679, 0.579381, 0.57274824, 0.5800773, 0.57494, 0.5837082, 0.5864226, 0.588628, 0.59460926, 0.5988144, 0.5897957, 0.5918412, 0.5938103, 0.6080446, 0.58197397, 0.5950212, 0.6291801, 0.61749524, 0.62321955, 0.6146543, 0.60390925, 0.61577904, 0.6320388, 0.6383962, 0.65153986, 0.64440465, 0.6592079, 0.6739102, 0.6590706, 0.67097145, 0.6944464, 0.7011489, 0.7230787, 0.72257376, 0.7088391, 0.72263145, 0.74717337, 0.76272005, 0.76893353, 0.7926525, 0.7898037, 0.79148394, 0.8192035, 0.8221354, 0.8464487, 0.8652925, 0.8935877, 0.9001615, 0.90929806, 0.9408229, 0.9539143, 0.9802939, 1.0062414, 1.0243407, 1.0598971, 1.0672059, 1.1032352, 1.1782085, 1.1572247, 1.2239901, 1.2513586, 1.2907238, 1.3527596, 1.3978981, 1.4647537, 1.5213512, 1.5130974, 1.5349979, 1.5311587, 1.5231506, 1.5430475, 1.5518886, 1.5520996, 1.572856, 1.5584095, 1.579479, 1.5875815, 1.590581, 1.6038722, 1.7164229, 1.9573861, 2.2359567, 2.2377172, 2.2630517, 2.2852924, 2.314126, 2.3142679, 2.340808, 2.3634546, 2.3971374, 2.4277034, 2.447788, 2.4675784, 2.510431, 2.5310152, 2.597427, 2.605754, 2.6605637, 2.6947358, 2.7406733, 2.7583392, 2.828594, 2.8784409, 2.9384754, 2.9566054, 1.0093111, 0.9741128, 0.9479413, 0.92567086, 0.9283694, 0.92231536, 0.9098195, 0.89570504, 0.90564865, 0.908458, 0.92084306, 0.91002995, 0.93853694, 0.9454134, 0.95061755, 0.9891045, inf, inf, inf, inf, inf, inf, 1.9662242, 1.9293813, 1.905522, 1.9098449, 1.9248637, 1.9301579, 1.9722787, 1.9958465, 3.0081003, 3.002157, 3.0016608, 3.0224786, inf, inf, inf, inf, inf, inf, inf, inf, inf]
intensities: [0, 0, 0, 0, 0, 0, 0, 0, 0, 0, 0, 0, 0, 0, 0, 0, 0, 0, 0, 0, 0, 0, 0, 0, 0, 0, 0, 0, 0, 0, 0, 0, 0, 0, 0, 0, 0, 0, 0, 0, 0, 0, 0, 0, 0, 0, 0, 0, 0, 0, 0, 0, 0, 0, 0, 0, 0, 0, 0, 0, 0, 0, 0, 0, 0, 0, 0, 0, 0, 0, 0, 0, 0, 0, 0, 0, 0, 0, 0, 0, 0, 0, 0, 0, 0, 0, 0, 0, 0, 0, 0, 0, 0, 0, 0, 0, 0, 0, 0, 0, 0, 0, 0, 0, 0, 0, 0, 0, 0, 0, 0, 0, 0, 0, 0, 0, 0, 0, 0, 0, 0, 0, 0, 0, 0, 0, 0, 0, 0, 0, 0, 0, 0, 0, 0, 0, 0, 0, 0, 0, 0, 0, 0, 0, 0, 0, 0, 0, 0, 0, 0, 0, 0, 0, 0, 0, 0, 0, 0, 0, 0, 0, 0, 0, 0, 0, 0, 0, 0, 0, 0, 0, 0, 0, 0, 0, 0, 0, 0, 0, 0, 0, 0, 0, 0, 0, 0, 0, 0, 0, 0, 0, 0, 0, 0, 0, 0, 0, 0, 0, 0, 0, 0, 0, 0, 0, 0, 0, 0, 0, 0, 0, 0, 0, 0, 0, 0, 0, 0, 0, 0, 0, 0, 0, 0, 0, 0, 0, 0, 0, 0, 0, 0, 0, 0, 0, 0, 0, 0, 0, 0, 0, 0, 0, 0, 0, 0, 0, 0, 0, 0, 0, 0, 0, 0, 0, 0, 0, 0, 0, 0, 0, 0, 0, 0, 0, 0, 0, 0, 0, 0, 0, 0, 0, 0, 0, 0, 0, 0, 0, 0, 0, 0, 0, 0, 0, 0, 0, 0, 0, 0, 0, 0, 0, 0, 0, 0, 0, 0, 0, 0, 0, 0, 0, 0, 0, 0, 0, 0, 0, 0, 0, 0, 0, 0, 0, 0, 0, 0, 0, 0, 0, 0, 0, 0, 0, 0, 0, 0, 0, 0, 0, 0, 0, 0, 0, 0, 0, 0, 0, 0, 0, 0, 0, 0, 0, 0, 0, 0, 0, 0, 0, 0, 0, 0, 0, 0, 0, 0, 0]
---
header:
  stamp:
    sec: 5687
    nanosec: 731000000
  frame_id: base_scan
angle_min: 0
angle_max: 6.28
angle_increment: 0.017493036
time_increment: 0
scan_time: 0
range_min: 0.12
range_max: 3.5
ranges: [inf, inf, inf, inf, inf, inf, inf, 3.0261462, 2.9766517, 2.9738142, 1.9908229, 1.94208, 1.9196172, 1.8902472, 1.8777179, 1.907729, 1.9019527, 1.9291567, 1.9737798, inf, inf, inf, 0.9374051, 0.89169526, 0.8888645, 0.88014543, 0.8844026, 0.85531396, 0.86158675, 0.85938764, 0.8676605, 0.8583803, 0.86228275, 0.8740805, 0.88187873, 0.8798271, 0.9059053, 0.91805226, 0.9688526, 2.3967469, 2.410387, 2.42311, 2.4764104, inf, inf, inf, inf, inf, inf, inf, inf, inf, inf, inf, inf, inf, inf, 1.7420863, 1.708122, 1.7019262, 1.6671053, 1.6663691, 1.6808624, 1.6926378, 1.6996727, 1.7364006, 3.3247588, 3.3151498, 3.2602623, 3.2543948, 3.2309816, 3.2011797, 3.197038, 3.171824, 3.0616975, 2.8684435, 2.6873245, 2.5691829, 2.5498328, 2.552582, 2.543263, 2.5154629, 2.5213268, 2.5228043, 2.5120332, 2.5070827, 2.4334233, 2.3625488, 2.2929254, 2.224593, 2.1448355, 2.0638125, 2.041904, 1.9729416, 1.9224241, 1.8673216, 1.828426, 1.779641, 1.7481959, 1.718309, 1.6733458, 1.6285928, 1.6186258, 1.5805941, 1.5509685, 1.4947326, 1.4967977, 1.4659691, 1.4369417, 1.4160248, 1.3912686, 1.3985335, 1.3616455, 1.3519614, 1.3282276, 1.3107721, 1.3157033, 1.2798033, 1.2535387, 1.2373079, 1.2376925, 1.2329644, 1.2226696, 1.205127, 1.2043003, 1.1871195, 1.1691563, 1.1640857, 1.1670445, 1.1491253, 1.147593, 1.13764, 1.1310519, 1.1295153, 1.1321647, 1.117397, 1.1269894, 1.101373, 1.1084832, 1.0941503, 1.100819, 1.0780637, 1.0729997, 1.0814075, 1.0994745, 1.0670012, 1.0820881, 1.0779822, 1.0892662, 1.0799215, 1.0832839, 1.0928359, 1.093057, 1.0411454, 1.0200784, 0.9868785, 0.97367054, 0.956798, 0.94251615, 0.92424124, 0.8846973, 0.88202846, 0.85859513, 0.8495368, 0.8215482, 0.80444163, 0.78837144, 0.7972332, 0.77908075, 0.76543874, 0.7447444, 0.74658465, 0.726645, 0.7252473, 0.71918625, 0.71193033, 0.6924919, 0.67584836, 0.6672164, 0.6839602, 0.66086286, 0.66741073, 0.6420532, 0.639748, 0.6338942, 0.6350271, 0.6361909, 0.63025934, 0.603855, 0.6137404, 0.62116975, 0.6252161, 0.6081057, 0.6113628, 0.62248576, 0.60027677, 0.5968435, 0.60338926, 0.5964428, 0.5859855, 0.58737504, 0.5757834, 0.5942274, 0.5789113, 0.5823295, 0.5599232, 0.5995459, 0.58273125, 0.5809042, 0.58577335, 0.5682786, 0.585708, 0.595078, 0.5686723, 0.5817744, 0.579253, 0.59164375, 0.5690716, 0.5700002, 0.6017259, 0.59098995, 0.6015083, 0.60372776, 0.5895711, 0.6017982, 0.5921618, 0.59864146, 0.60346746, 0.61010617, 0.6124572, 0.6087104, 0.63021487, 0.61778235, 0.6477354, 0.64047486, 0.6336816, 0.6578359, 0.6515786, 0.66773754, 0.6557594, 0.67225176, 0.69245505, 0.6797415, 0.6817773, 0.6978324, 0.71506524, 0.72831476, 0.7436712, 0.71960366, 0.74602234, 0.76186204, 0.76085, 0.77025187, 0.78988594, 0.8212827, 0.82480496, 0.8376882, 0.8671156, 0.8724821, 0.89753336, 0.91713995, 0.9171432, 0.969322, 0.9789978, 0.99987763, 1.0223267, 1.0543962, 1.0835819, 1.119594, 1.1383343, 1.1889132, 1.2144302, 1.2551786, 1.3030634, 1.3400918, 1.399201, 1.4592726, 1.5031389, 1.5216453, 1.5384635, 1.5420107, 1.5388664, 1.5380737, 1.5513201, 1.5547013, 1.5539651, 1.5531064, 1.5649031, 1.5744022, 1.5940747, 1.5871679, 1.7175211, 1.9364374, 2.2202373, 2.2567441, 2.2641177, 2.2826452, 2.3088863, 2.3192337, 2.329316, 2.3808904, 2.4187765, 2.4220753, 2.4607956, 2.4757204, 2.51912, 2.546033, 2.577576, 2.6093128, 2.6576748, 2.6745188, 2.7118204, 2.7878366, 2.8114922, 2.8839211, 2.9284806, 2.9665482, 0.9910083, 0.9861716, 0.95866716, 0.92387813, 0.9297947, 0.89746124, 0.91370106, 0.922821, 0.91412085, 0.91939265, 0.90660346, 0.9231292, 0.92951334, 0.9619755, 0.96274614, 0.9928131, inf, inf, inf, inf, inf, inf, 1.9531128, 1.9311337, 1.9282861, 1.9045534, 1.9021351, 1.9218724, 1.9305007, 1.9865103, 3.0068371, 2.9674776, 2.9944024, 3.0119967, inf, inf, inf, inf, inf, inf, inf, inf, inf]
intensities: [0, 0, 0, 0, 0, 0, 0, 0, 0, 0, 0, 0, 0, 0, 0, 0, 0, 0, 0, 0, 0, 0, 0, 0, 0, 0, 0, 0, 0, 0, 0, 0, 0, 0, 0, 0, 0, 0, 0, 0, 0, 0, 0, 0, 0, 0, 0, 0, 0, 0, 0, 0, 0, 0, 0, 0, 0, 0, 0, 0, 0, 0, 0, 0, 0, 0, 0, 0, 0, 0, 0, 0, 0, 0, 0, 0, 0, 0, 0, 0, 0, 0, 0, 0, 0, 0, 0, 0, 0, 0, 0, 0, 0, 0, 0, 0, 0, 0, 0, 0, 0, 0, 0, 0, 0, 0, 0, 0, 0, 0, 0, 0, 0, 0, 0, 0, 0, 0, 0, 0, 0, 0, 0, 0, 0, 0, 0, 0, 0, 0, 0, 0, 0, 0, 0, 0, 0, 0, 0, 0, 0, 0, 0, 0, 0, 0, 0, 0, 0, 0, 0, 0, 0, 0, 0, 0, 0, 0, 0, 0, 0, 0, 0, 0, 0, 0, 0, 0, 0, 0, 0, 0, 0, 0, 0, 0, 0, 0, 0, 0, 0, 0, 0, 0, 0, 0, 0, 0, 0, 0, 0, 0, 0, 0, 0, 0, 0, 0, 0, 0, 0, 0, 0, 0, 0, 0, 0, 0, 0, 0, 0, 0, 0, 0, 0, 0, 0, 0, 0, 0, 0, 0, 0, 0, 0, 0, 0, 0, 0, 0, 0, 0, 0, 0, 0, 0, 0, 0, 0, 0, 0, 0, 0, 0, 0, 0, 0, 0, 0, 0, 0, 0, 0, 0, 0, 0, 0, 0, 0, 0, 0, 0, 0, 0, 0, 0, 0, 0, 0, 0, 0, 0, 0, 0, 0, 0, 0, 0, 0, 0, 0, 0, 0, 0, 0, 0, 0, 0, 0, 0, 0, 0, 0, 0, 0, 0, 0, 0, 0, 0, 0, 0, 0, 0, 0, 0, 0, 0, 0, 0, 0, 0, 0, 0, 0, 0, 0, 0, 0, 0, 0, 0, 0, 0, 0, 0, 0, 0, 0, 0, 0, 0, 0, 0, 0, 0, 0, 0, 0, 0, 0, 0, 0, 0, 0, 0, 0, 0, 0, 0, 0, 0, 0, 0, 0, 0, 0, 0, 0, 0]
---
header:
  stamp:
    sec: 5687
    nanosec: 931000000
  frame_id: base_scan
angle_min: 0
angle_max: 6.28
angle_increment: 0.017493036
time_increment: 0
scan_time: 0
range_min: 0.12
range_max: 3.5
ranges: [inf, inf, inf, inf, inf, inf, inf, 3.0191562, 2.972734, 2.9740305, 2.0171914, 1.935002, 1.8967328, 1.8918153, 1.8766623, 1.873566, 1.906988, 1.9003631, 1.9592396, inf, inf, inf, 0.91771007, 0.9139461, 0.88606316, 0.89271927, 0.8843264, 0.86852807, 0.8650809, 0.8728365, 0.85333306, 0.86501485, 0.857501, 0.867231, 0.8770385, 0.9027234, 0.8993025, 0.9338096, 0.9575388, 2.3871148, 2.4135096, 2.4250205, 2.481479, inf, inf, inf, inf, inf, inf, inf, inf, inf, inf, inf, inf, inf, inf, 1.7443107, 1.703794, 1.6705915, 1.6615007, 1.6944628, 1.6665013, 1.6807187, 1.6720229, 1.7273241, 3.326688, 3.30955, 3.2793949, 3.2627358, 3.2435665, 3.2068508, 3.2114582, 3.184631, 3.0566623, 2.84275, 2.6824694, 2.5631185, 2.5455995, 2.5511744, 2.51852, 2.5223274, 2.5346901, 2.5006835, 2.5081909, 2.4948301, 2.4376328, 2.3681386, 2.2836707, 2.2179632, 2.1334293, 2.0786645, 2.0258415, 1.964889, 1.9226451, 1.8624058, 1.8252071, 1.7972004, 1.7310133, 1.6977649, 1.6663464, 1.6329083, 1.6020783, 1.5785098, 1.5476283, 1.5155942, 1.4963409, 1.4746091, 1.4585634, 1.4192168, 1.4048004, 1.3810887, 1.3589606, 1.3526132, 1.3373829, 1.2989945, 1.3127428, 1.2793365, 1.2641026, 1.2597979, 1.2460383, 1.2348803, 1.2115363, 1.2014025, 1.2029864, 1.1993952, 1.1622341, 1.1826227, 1.1598877, 1.1543087, 1.1453238, 1.1333119, 1.1246206, 1.1129283, 1.1236812, 1.1190512, 1.121161, 1.1120131, 1.0977764, 1.0935601, 1.0815086, 1.057055, 1.0921897, 1.0856684, 1.0745372, 1.0776173, 1.0946481, 1.0864308, 1.0904372, 1.0851965, 1.0902406, 1.0791707, 1.0801077, 1.044909, 1.0303173, 1.0007374, 0.9821297, 0.9565542, 0.9086899, 0.9119364, 0.88542515, 0.87292975, 0.8599008, 0.8405949, 0.83333516, 0.7941234, 0.8118625, 0.79898936, 0.75750846, 0.74316555, 0.7426764, 0.7231845, 0.7301408, 0.72852147, 0.7206362, 0.7083741, 0.6806984, 0.6978103, 0.67235243, 0.6790789, 0.6647059, 0.6623298, 0.65160483, 0.6428886, 0.6390168, 0.6393746, 0.63646907, 0.6429902, 0.61792487, 0.61528915, 0.61284816, 0.61425537, 0.5930103, 0.614569, 0.58463365, 0.58085614, 0.59112054, 0.5750984, 0.59591264, 0.5837428, 0.60173297, 0.58344793, 0.5937563, 0.5596654, 0.5740022, 0.58409035, 0.5794218, 0.5869272, 0.5642645, 0.57582366, 0.5846765, 0.56741637, 0.60875434, 0.5812769, 0.591669, 0.58332413, 0.56567067, 0.5743064, 0.58289737, 0.5814914, 0.5938032, 0.5924402, 0.5978406, 0.58276844, 0.5967235, 0.60523915, 0.6116574, 0.6083173, 0.6071554, 0.58900714, 0.620724, 0.6290818, 0.6206893, 0.64645904, 0.6510413, 0.63453305, 0.63459986, 0.6514531, 0.6585647, 0.64397615, 0.6540923, 0.68262213, 0.6876025, 0.71025383, 0.69366366, 0.7177961, 0.70539814, 0.740409, 0.7396269, 0.7514599, 0.75646436, 0.7706284, 0.79539007, 0.81730425, 0.81568265, 0.833735, 0.83350205, 0.87340707, 0.8596018, 0.9079399, 0.9144007, 0.92770225, 0.9603693, 0.976623, 1.0215472, 1.025438, 1.0473894, 1.09254, 1.1111802, 1.1613128, 1.1766053, 1.2208073, 1.2513142, 1.2998893, 1.3353554, 1.4168468, 1.4529444, 1.5224737, 1.5227526, 1.5371885, 1.5393218, 1.5207542, 1.5496222, 1.5403147, 1.5580078, 1.579731, 1.5783724, 1.5823153, 1.5931863, 1.6050256, 1.5997655, 1.7130318, 1.9661131, 2.2351518, 2.234422, 2.277238, 2.3042805, 2.3071494, 2.3346252, 2.351378, 2.3683612, 2.3955865, 2.4366097, 2.443288, 2.4759989, 2.5192153, 2.5447085, 2.5810857, 2.6241126, 2.6494937, 2.6914873, 2.7325492, 2.7859392, 2.8250697, 2.853948, 2.9348173, 2.983614, 1.0145699, 0.97938883, 0.96808684, 0.9537363, 0.9281397, 0.9150007, 0.9217286, 0.91294634, 0.92064273, 0.9022274, 0.90693253, 0.9281123, 0.9308797, 0.94475645, 0.9568603, 0.98937154, inf, inf, inf, inf, inf, inf, 1.9747114, 1.9262018, 1.9067681, 1.9208363, 1.9155959, 1.9318595, 1.9406744, 1.999124, 2.9898841, 2.972818, 3.0116935, 3.0294883, inf, inf, inf, inf, inf, inf, inf, inf, inf]
intensities: [0, 0, 0, 0, 0, 0, 0, 0, 0, 0, 0, 0, 0, 0, 0, 0, 0, 0, 0, 0, 0, 0, 0, 0, 0, 0, 0, 0, 0, 0, 0, 0, 0, 0, 0, 0, 0, 0, 0, 0, 0, 0, 0, 0, 0, 0, 0, 0, 0, 0, 0, 0, 0, 0, 0, 0, 0, 0, 0, 0, 0, 0, 0, 0, 0, 0, 0, 0, 0, 0, 0, 0, 0, 0, 0, 0, 0, 0, 0, 0, 0, 0, 0, 0, 0, 0, 0, 0, 0, 0, 0, 0, 0, 0, 0, 0, 0, 0, 0, 0, 0, 0, 0, 0, 0, 0, 0, 0, 0, 0, 0, 0, 0, 0, 0, 0, 0, 0, 0, 0, 0, 0, 0, 0, 0, 0, 0, 0, 0, 0, 0, 0, 0, 0, 0, 0, 0, 0, 0, 0, 0, 0, 0, 0, 0, 0, 0, 0, 0, 0, 0, 0, 0, 0, 0, 0, 0, 0, 0, 0, 0, 0, 0, 0, 0, 0, 0, 0, 0, 0, 0, 0, 0, 0, 0, 0, 0, 0, 0, 0, 0, 0, 0, 0, 0, 0, 0, 0, 0, 0, 0, 0, 0, 0, 0, 0, 0, 0, 0, 0, 0, 0, 0, 0, 0, 0, 0, 0, 0, 0, 0, 0, 0, 0, 0, 0, 0, 0, 0, 0, 0, 0, 0, 0, 0, 0, 0, 0, 0, 0, 0, 0, 0, 0, 0, 0, 0, 0, 0, 0, 0, 0, 0, 0, 0, 0, 0, 0, 0, 0, 0, 0, 0, 0, 0, 0, 0, 0, 0, 0, 0, 0, 0, 0, 0, 0, 0, 0, 0, 0, 0, 0, 0, 0, 0, 0, 0, 0, 0, 0, 0, 0, 0, 0, 0, 0, 0, 0, 0, 0, 0, 0, 0, 0, 0, 0, 0, 0, 0, 0, 0, 0, 0, 0, 0, 0, 0, 0, 0, 0, 0, 0, 0, 0, 0, 0, 0, 0, 0, 0, 0, 0, 0, 0, 0, 0, 0, 0, 0, 0, 0, 0, 0, 0, 0, 0, 0, 0, 0, 0, 0, 0, 0, 0, 0, 0, 0, 0, 0, 0, 0, 0, 0, 0, 0, 0, 0, 0, 0, 0]
---
header:
  stamp:
    sec: 5688
    nanosec: 131000000
  frame_id: base_scan
angle_min: 0
angle_max: 6.28
angle_increment: 0.017493036
time_increment: 0
scan_time: 0
range_min: 0.12
range_max: 3.5
ranges: [inf, inf, inf, inf, inf, inf, inf, 3.035042, 2.9898098, 2.9656334, 2.013281, 1.9375042, 1.9071229, 1.8878998, 1.8933623, 1.8921003, 1.8969388, 1.9159887, 1.9599453, inf, inf, inf, 0.9268011, 0.9092194, 0.8920852, 0.87524873, 0.86577576, 0.86582, 0.8675449, 0.85080415, 0.8653571, 0.86470705, 0.86167383, 0.87843865, 0.86816573, 0.89232594, 0.9077018, 0.926285, 0.9629644, 2.393209, 2.4058511, 2.413603, 2.4959502, inf, inf, inf, inf, inf, inf, inf, inf, inf, inf, inf, inf, inf, inf, 1.752161, 1.7192818, 1.7047802, 1.6861914, 1.6794477, 1.6793643, 1.6885248, 1.6951498, 1.7263952, 3.3158486, 3.2942684, 3.2726064, 3.2626567, 3.226714, 3.2196808, 3.199449, 3.184239, 3.0612352, 2.8471029, 2.6756618, 2.5448067, 2.5585406, 2.5535045, 2.5338137, 2.5501323, 2.5251925, 2.5213723, 2.5176857, 2.486092, 2.4532468, 2.3536336, 2.2852306, 2.2265787, 2.1476982, 2.0733993, 2.0037904, 1.9638809, 1.9097642, 1.8659163, 1.8250426, 1.7798517, 1.7382648, 1.7074511, 1.6683208, 1.6175233, 1.6066955, 1.596443, 1.5426016, 1.5341717, 1.4871429, 1.4795784, 1.4477752, 1.4442198, 1.386715, 1.3918308, 1.3672055, 1.3387929, 1.3501438, 1.3128259, 1.2835323, 1.2808563, 1.2589034, 1.253459, 1.2248061, 1.2446226, 1.2148131, 1.2173419, 1.188772, 1.1907122, 1.1857947, 1.1806312, 1.1743371, 1.1447068, 1.1437235, 1.1256297, 1.131486, 1.143084, 1.1281673, 1.1164975, 1.1100647, 1.0980928, 1.0933222, 1.0933532, 1.1049705, 1.0765104, 1.0847723, 1.0819684, 1.0785923, 1.1022066, 1.0855503, 1.0820377, 1.059905, 1.0726491, 1.0996567, 1.0690255, 1.0875305, 1.0597004, 1.030997, 1.005227, 0.97015244, 0.95546967, 0.91883963, 0.92210466, 0.88996065, 0.87796247, 0.85901636, 0.8288452, 0.8204093, 0.8096701, 0.77441347, 0.7932602, 0.7731594, 0.77574724, 0.7495918, 0.73903865, 0.7377537, 0.7061652, 0.71412915, 0.700922, 0.7027687, 0.69770306, 0.7011544, 0.67365414, 0.6666117, 0.66629064, 0.66559374, 0.6371769, 0.632119, 0.6417885, 0.6324154, 0.6153006, 0.6419484, 0.62869877, 0.6031668, 0.6032862, 0.60292876, 0.6145709, 0.6039288, 0.58732986, 0.5921207, 0.59840286, 0.58927673, 0.5700619, 0.5744806, 0.5909451, 0.57686824, 0.5920984, 0.56176424, 0.5821259, 0.5835189, 0.5635239, 0.58946025, 0.5831119, 0.5727717, 0.591992, 0.5709084, 0.5847186, 0.58986753, 0.5834245, 0.5769423, 0.57935125, 0.57690376, 0.5920946, 0.5841995, 0.5963975, 0.5920691, 0.5876079, 0.57788235, 0.586855, 0.5919825, 0.6245498, 0.6062652, 0.6130406, 0.62444955, 0.6059059, 0.61919236, 0.63281995, 0.629428, 0.6225291, 0.64895207, 0.66786194, 0.67296416, 0.65804106, 0.6731712, 0.67970115, 0.6905153, 0.68934345, 0.6973553, 0.71832687, 0.71951735, 0.719747, 0.7360292, 0.7526187, 0.745843, 0.7560635, 0.7814457, 0.7982706, 0.810319, 0.83251166, 0.83571786, 0.8540987, 0.8765733, 0.87753004, 0.88737595, 0.91876745, 0.94312924, 0.98824656, 1.0064067, 1.0343077, 1.052879, 1.0844406, 1.1216425, 1.1262231, 1.1734107, 1.2203017, 1.2502867, 1.3038915, 1.3554701, 1.4030123, 1.4713202, 1.5099443, 1.514369, 1.518882, 1.5304934, 1.5251856, 1.5564349, 1.5551871, 1.5508031, 1.5575094, 1.5829394, 1.5753858, 1.5939757, 1.6090605, 1.597555, 1.715918, 1.9438095, 2.2205713, 2.246037, 2.2528818, 2.2721603, 2.3103905, 2.3180962, 2.3485513, 2.3728666, 2.3839002, 2.4121187, 2.4609168, 2.4655821, 2.5007057, 2.543738, 2.586559, 2.6284995, 2.6413343, 2.6734366, 2.7398167, 2.7774684, 2.8150508, 2.8899558, 2.9248767, 2.9738047, 1.006751, 0.98278254, 0.95606136, 0.93402654, 0.93877023, 0.9163293, 0.91420686, 0.9200737, 0.91623765, 0.9185854, 0.917933, 0.91696256, 0.91829246, 0.9643349, 0.94041395, 0.9835996, inf, inf, inf, inf, inf, inf, 1.9719154, 1.935519, 1.9219242, 1.9070247, 1.9081707, 1.9261844, 1.944331, 1.986635, 2.9912975, 2.9901693, 2.9931116, 3.0176463, inf, inf, inf, inf, inf, inf, inf, inf, inf]
intensities: [0, 0, 0, 0, 0, 0, 0, 0, 0, 0, 0, 0, 0, 0, 0, 0, 0, 0, 0, 0, 0, 0, 0, 0, 0, 0, 0, 0, 0, 0, 0, 0, 0, 0, 0, 0, 0, 0, 0, 0, 0, 0, 0, 0, 0, 0, 0, 0, 0, 0, 0, 0, 0, 0, 0, 0, 0, 0, 0, 0, 0, 0, 0, 0, 0, 0, 0, 0, 0, 0, 0, 0, 0, 0, 0, 0, 0, 0, 0, 0, 0, 0, 0, 0, 0, 0, 0, 0, 0, 0, 0, 0, 0, 0, 0, 0, 0, 0, 0, 0, 0, 0, 0, 0, 0, 0, 0, 0, 0, 0, 0, 0, 0, 0, 0, 0, 0, 0, 0, 0, 0, 0, 0, 0, 0, 0, 0, 0, 0, 0, 0, 0, 0, 0, 0, 0, 0, 0, 0, 0, 0, 0, 0, 0, 0, 0, 0, 0, 0, 0, 0, 0, 0, 0, 0, 0, 0, 0, 0, 0, 0, 0, 0, 0, 0, 0, 0, 0, 0, 0, 0, 0, 0, 0, 0, 0, 0, 0, 0, 0, 0, 0, 0, 0, 0, 0, 0, 0, 0, 0, 0, 0, 0, 0, 0, 0, 0, 0, 0, 0, 0, 0, 0, 0, 0, 0, 0, 0, 0, 0, 0, 0, 0, 0, 0, 0, 0, 0, 0, 0, 0, 0, 0, 0, 0, 0, 0, 0, 0, 0, 0, 0, 0, 0, 0, 0, 0, 0, 0, 0, 0, 0, 0, 0, 0, 0, 0, 0, 0, 0, 0, 0, 0, 0, 0, 0, 0, 0, 0, 0, 0, 0, 0, 0, 0, 0, 0, 0, 0, 0, 0, 0, 0, 0, 0, 0, 0, 0, 0, 0, 0, 0, 0, 0, 0, 0, 0, 0, 0, 0, 0, 0, 0, 0, 0, 0, 0, 0, 0, 0, 0, 0, 0, 0, 0, 0, 0, 0, 0, 0, 0, 0, 0, 0, 0, 0, 0, 0, 0, 0, 0, 0, 0, 0, 0, 0, 0, 0, 0, 0, 0, 0, 0, 0, 0, 0, 0, 0, 0, 0, 0, 0, 0, 0, 0, 0, 0, 0, 0, 0, 0, 0, 0, 0, 0, 0, 0, 0, 0, 0]
---
header:
  stamp:
    sec: 5688
    nanosec: 331000000
  frame_id: base_scan
angle_min: 0
angle_max: 6.28
angle_increment: 0.017493036
time_increment: 0
scan_time: 0
range_min: 0.12
range_max: 3.5
ranges: [inf, inf, inf, inf, inf, inf, inf, 3.0153139, 2.9915478, 2.9408135, 2.0026796, 1.9342438, 1.8967233, 1.886758, 1.8884726, 1.901087, 1.9096831, 1.9159107, 1.9725019, inf, inf, inf, 0.93541616, 0.90311813, 0.89597046, 0.89145935, 0.8679054, 0.8671958, 0.8698843, 0.8662759, 0.8516042, 0.8807017, 0.8683494, 0.86274546, 0.88525146, 0.8947579, 0.8799273, 0.9182359, 0.9687097, 2.3960044, 2.3941426, 2.4046903, 2.4671764, inf, inf, inf, inf, inf, inf, inf, inf, inf, inf, inf, inf, inf, inf, 1.750846, 1.706711, 1.6965939, 1.6672075, 1.6830615, 1.667273, 1.7053386, 1.7074937, 1.741218, 3.32643, 3.2989008, 3.2795393, 3.2517836, 3.231504, 3.2012272, 3.200854, 3.183368, 3.0614448, 2.8577108, 2.686447, 2.5730472, 2.5524862, 2.5496647, 2.5349617, 2.533438, 2.527891, 2.5290992, 2.521982, 2.5236354, 2.4529603, 2.3587751, 2.276395, 2.2147954, 2.1496034, 2.0795295, 2.0175111, 1.9706789, 1.9216712, 1.869513, 1.8122004, 1.78638, 1.7408905, 1.7154598, 1.6676862, 1.6395768, 1.6058133, 1.5586785, 1.5458252, 1.5264105, 1.498496, 1.494616, 1.441254, 1.4107723, 1.3916062, 1.4011804, 1.354229, 1.32871, 1.3434421, 1.305627, 1.3105112, 1.2844269, 1.2860823, 1.2600496, 1.2492964, 1.2291878, 1.2081474, 1.2103063, 1.1942391, 1.1865296, 1.1818014, 1.1734163, 1.1527457, 1.1711205, 1.1455925, 1.1235108, 1.1241589, 1.1277975, 1.1086128, 1.1235423, 1.1110106, 1.0953398, 1.1145194, 1.0997887, 1.0923483, 1.0738322, 1.0848912, 1.0896065, 1.0669422, 1.0814443, 1.0968455, 1.0881761, 1.0945811, 1.0752786, 1.0901575, 1.0664167, 1.063481, 1.06518, 1.0295525, 1.0112255, 0.98852825, 0.93853295, 0.9193258, 0.92394626, 0.89156705, 0.8828713, 0.847568, 0.84504557, 0.8122122, 0.8076652, 0.79433024, 0.7710702, 0.75649446, 0.7581529, 0.73434246, 0.7530472, 0.74528635, 0.73430747, 0.7166161, 0.68581414, 0.71029216, 0.70612156, 0.67199636, 0.66846895, 0.6620971, 0.64249074, 0.65798426, 0.6390411, 0.6566704, 0.62826747, 0.6212729, 0.6168553, 0.60721743, 0.6103719, 0.6230076, 0.6195735, 0.5990945, 0.6017673, 0.60334677, 0.60756844, 0.58891153, 0.6030658, 0.57194483, 0.5697908, 0.5898441, 0.5789191, 0.57796067, 0.57228327, 0.5783876, 0.58020645, 0.577674, 0.59923345, 0.5845803, 0.58160675, 0.5877679, 0.57044953, 0.5685914, 0.5888495, 0.5574967, 0.57469743, 0.5765445, 0.5912183, 0.5817536, 0.5697865, 0.587105, 0.5907785, 0.5863262, 0.58559334, 0.59947664, 0.60115045, 0.59213567, 0.6152683, 0.62171394, 0.6084906, 0.61403614, 0.615155, 0.6172241, 0.62640953, 0.6380703, 0.64773035, 0.64877915, 0.6516025, 0.65717906, 0.65625995, 0.67593575, 0.6782432, 0.69262844, 0.6920418, 0.6821658, 0.72441643, 0.7181628, 0.7220538, 0.7351465, 0.7504379, 0.7694875, 0.77692884, 0.7845075, 0.80078673, 0.80569005, 0.82434803, 0.86155945, 0.8502842, 0.86891204, 0.9052192, 0.9157617, 0.91530424, 0.95029724, 0.98110455, 0.99390733, 1.0376439, 1.0493444, 1.0957346, 1.0929636, 1.1550081, 1.1908392, 1.2136804, 1.240293, 1.3010755, 1.3592526, 1.4020233, 1.4602559, 1.5245764, 1.507654, 1.5267667, 1.5383061, 1.5180036, 1.5528604, 1.5412974, 1.5588722, 1.5643879, 1.575816, 1.5526439, 1.5937582, 1.6006156, 1.5783101, 1.7208297, 1.9605228, 2.234922, 2.2481854, 2.2649739, 2.2814217, 2.3051207, 2.314428, 2.3510027, 2.3931906, 2.406172, 2.4138482, 2.4419515, 2.4883323, 2.5123363, 2.550093, 2.565475, 2.6054318, 2.638028, 2.7000282, 2.733926, 2.7706373, 2.8252544, 2.8774052, 2.9293153, 2.980622, 1.0119319, 0.9749175, 0.95932525, 0.9447488, 0.9289538, 0.9170247, 0.9188414, 0.91970026, 0.93515795, 0.9027409, 0.9272935, 0.9161727, 0.9069903, 0.95267457, 0.95813835, 0.97806925, inf, inf, inf, inf, inf, inf, 1.9789362, 1.931399, 1.9152489, 1.9141871, 1.8941783, 1.9360243, 1.9621308, 1.9908857, 3.011181, 3.0016625, 3.0060823, 3.0247452, inf, inf, inf, inf, inf, inf, inf, inf, inf]
intensities: [0, 0, 0, 0, 0, 0, 0, 0, 0, 0, 0, 0, 0, 0, 0, 0, 0, 0, 0, 0, 0, 0, 0, 0, 0, 0, 0, 0, 0, 0, 0, 0, 0, 0, 0, 0, 0, 0, 0, 0, 0, 0, 0, 0, 0, 0, 0, 0, 0, 0, 0, 0, 0, 0, 0, 0, 0, 0, 0, 0, 0, 0, 0, 0, 0, 0, 0, 0, 0, 0, 0, 0, 0, 0, 0, 0, 0, 0, 0, 0, 0, 0, 0, 0, 0, 0, 0, 0, 0, 0, 0, 0, 0, 0, 0, 0, 0, 0, 0, 0, 0, 0, 0, 0, 0, 0, 0, 0, 0, 0, 0, 0, 0, 0, 0, 0, 0, 0, 0, 0, 0, 0, 0, 0, 0, 0, 0, 0, 0, 0, 0, 0, 0, 0, 0, 0, 0, 0, 0, 0, 0, 0, 0, 0, 0, 0, 0, 0, 0, 0, 0, 0, 0, 0, 0, 0, 0, 0, 0, 0, 0, 0, 0, 0, 0, 0, 0, 0, 0, 0, 0, 0, 0, 0, 0, 0, 0, 0, 0, 0, 0, 0, 0, 0, 0, 0, 0, 0, 0, 0, 0, 0, 0, 0, 0, 0, 0, 0, 0, 0, 0, 0, 0, 0, 0, 0, 0, 0, 0, 0, 0, 0, 0, 0, 0, 0, 0, 0, 0, 0, 0, 0, 0, 0, 0, 0, 0, 0, 0, 0, 0, 0, 0, 0, 0, 0, 0, 0, 0, 0, 0, 0, 0, 0, 0, 0, 0, 0, 0, 0, 0, 0, 0, 0, 0, 0, 0, 0, 0, 0, 0, 0, 0, 0, 0, 0, 0, 0, 0, 0, 0, 0, 0, 0, 0, 0, 0, 0, 0, 0, 0, 0, 0, 0, 0, 0, 0, 0, 0, 0, 0, 0, 0, 0, 0, 0, 0, 0, 0, 0, 0, 0, 0, 0, 0, 0, 0, 0, 0, 0, 0, 0, 0, 0, 0, 0, 0, 0, 0, 0, 0, 0, 0, 0, 0, 0, 0, 0, 0, 0, 0, 0, 0, 0, 0, 0, 0, 0, 0, 0, 0, 0, 0, 0, 0, 0, 0, 0, 0, 0, 0, 0, 0, 0, 0, 0, 0, 0, 0, 0]
---
header:
  stamp:
    sec: 5688
    nanosec: 531000000
  frame_id: base_scan
angle_min: 0
angle_max: 6.28
angle_increment: 0.017493036
time_increment: 0
scan_time: 0
range_min: 0.12
range_max: 3.5
ranges: [inf, inf, inf, inf, inf, inf, inf, 3.0245652, 2.986871, 2.979968, 2.0049803, 1.9341857, 1.8969263, 1.8850739, 1.8824728, 1.9004483, 1.9097563, 1.9335741, 1.973818, inf, inf, inf, 0.9294065, 0.9044191, 0.8993954, 0.87163395, 0.8572691, 0.86208427, 0.85292435, 0.85341245, 0.8535938, 0.8554152, 0.8520672, 0.87137717, 0.875946, 0.8926942, 0.8935659, 0.9143803, 0.96943444, 2.3841202, 2.400517, 2.4271417, 2.4801128, inf, inf, inf, inf, inf, inf, inf, inf, inf, inf, inf, inf, inf, inf, 1.7492722, 1.6945664, 1.6874425, 1.6698964, 1.6617498, 1.6667396, 1.6892881, 1.6901468, 1.7365298, 3.3245788, 3.2802804, 3.2823799, 3.2595716, 3.2223678, 3.2113268, 3.1871974, 3.1732213, 3.0657187, 2.8512409, 2.6881888, 2.5812948, 2.5591404, 2.5303373, 2.521303, 2.5402164, 2.5233667, 2.5411446, 2.5088463, 2.5189576, 2.441114, 2.3723946, 2.274432, 2.2167962, 2.1431944, 2.0785089, 2.03465, 1.9671642, 1.9197339, 1.8727835, 1.8161207, 1.7756191, 1.7385291, 1.7041435, 1.6634164, 1.6327877, 1.5990909, 1.5766048, 1.552684, 1.5382692, 1.4926115, 1.4730304, 1.4302648, 1.4363791, 1.4034033, 1.370244, 1.3766418, 1.3411403, 1.3195025, 1.3078634, 1.320547, 1.2941496, 1.2717744, 1.2727361, 1.2295152, 1.2373401, 1.2058355, 1.2165258, 1.1847435, 1.1737505, 1.1748372, 1.1701314, 1.1654036, 1.1442841, 1.1353021, 1.1278055, 1.1164534, 1.1064676, 1.1153113, 1.1243051, 1.1150348, 1.1089343, 1.1171504, 1.0905535, 1.0793905, 1.0913272, 1.0951138, 1.0810263, 1.0818583, 1.0768031, 1.0761423, 1.0794848, 1.0801626, 1.0824549, 1.0788356, 1.07259, 1.0816962, 1.0439903, 1.0155191, 1.0195711, 0.96216965, 0.97092396, 0.9321081, 0.91908216, 0.90508264, 0.86727667, 0.88941973, 0.83991617, 0.8147739, 0.8021185, 0.75981724, 0.7869398, 0.7918682, 0.75139344, 0.7649699, 0.74964714, 0.736978, 0.70494294, 0.7126442, 0.6929578, 0.68401164, 0.69207364, 0.67602956, 0.7002122, 0.66069597, 0.66746044, 0.65167695, 0.65392035, 0.6370585, 0.6513667, 0.63458055, 0.6239916, 0.63076454, 0.60733163, 0.6171251, 0.59498626, 0.59655887, 0.61916995, 0.5851348, 0.5998087, 0.5940534, 0.60663813, 0.5859667, 0.5654443, 0.5814, 0.5853455, 0.5948769, 0.5707971, 0.5921393, 0.5724625, 0.57773453, 0.57841927, 0.5920378, 0.58146733, 0.58189434, 0.5948456, 0.5932532, 0.58892775, 0.5693466, 0.5801002, 0.57061034, 0.59501475, 0.5784224, 0.59411913, 0.574531, 0.60161316, 0.5745786, 0.57744974, 0.58480114, 0.59844863, 0.5981743, 0.59794074, 0.61733615, 0.6152334, 0.6042324, 0.6179087, 0.6074437, 0.62206864, 0.6219782, 0.62994593, 0.6318391, 0.6525673, 0.66225594, 0.6733868, 0.6811077, 0.67354596, 0.68924934, 0.7021755, 0.7193774, 0.7137705, 0.7281789, 0.74470615, 0.73244476, 0.73899245, 0.7466552, 0.77097034, 0.79076594, 0.7940832, 0.8266911, 0.8162526, 0.84031904, 0.86510515, 0.8602063, 0.9034192, 0.91107255, 0.94496137, 0.9408861, 0.9658089, 0.98504394, 1.0287426, 1.0474465, 1.079483, 1.1170288, 1.129243, 1.1905587, 1.2190125, 1.2595795, 1.3158317, 1.3586115, 1.393461, 1.4655954, 1.5187509, 1.5307355, 1.5041581, 1.5243471, 1.5413935, 1.5489206, 1.5575498, 1.5681239, 1.5630597, 1.5514545, 1.5710671, 1.5718056, 1.5832424, 1.613499, 1.7035677, 1.9583673, 2.2357001, 2.2505937, 2.2595806, 2.292298, 2.3145666, 2.3319428, 2.3416028, 2.354573, 2.3959222, 2.4434776, 2.456668, 2.4584823, 2.5120733, 2.5481944, 2.5693784, 2.6042433, 2.6536472, 2.7027426, 2.720444, 2.78565, 2.8162277, 2.8608313, 2.942752, 2.980894, 1.0217313, 0.9952302, 0.9582953, 0.9267874, 0.9339406, 0.9345032, 0.9123549, 0.8975311, 0.90602833, 0.9003289, 0.9375702, 0.92137986, 0.9274863, 0.95581377, 0.9440047, 0.9909494, inf, inf, inf, inf, inf, inf, 1.9736716, 1.9402441, 1.9273794, 1.9225905, 1.9204314, 1.9233551, 1.9385614, 1.9878727, 3.0080218, 2.976157, 2.994396, 3.0112576, inf, inf, inf, inf, inf, inf, inf, inf, inf]
intensities: [0, 0, 0, 0, 0, 0, 0, 0, 0, 0, 0, 0, 0, 0, 0, 0, 0, 0, 0, 0, 0, 0, 0, 0, 0, 0, 0, 0, 0, 0, 0, 0, 0, 0, 0, 0, 0, 0, 0, 0, 0, 0, 0, 0, 0, 0, 0, 0, 0, 0, 0, 0, 0, 0, 0, 0, 0, 0, 0, 0, 0, 0, 0, 0, 0, 0, 0, 0, 0, 0, 0, 0, 0, 0, 0, 0, 0, 0, 0, 0, 0, 0, 0, 0, 0, 0, 0, 0, 0, 0, 0, 0, 0, 0, 0, 0, 0, 0, 0, 0, 0, 0, 0, 0, 0, 0, 0, 0, 0, 0, 0, 0, 0, 0, 0, 0, 0, 0, 0, 0, 0, 0, 0, 0, 0, 0, 0, 0, 0, 0, 0, 0, 0, 0, 0, 0, 0, 0, 0, 0, 0, 0, 0, 0, 0, 0, 0, 0, 0, 0, 0, 0, 0, 0, 0, 0, 0, 0, 0, 0, 0, 0, 0, 0, 0, 0, 0, 0, 0, 0, 0, 0, 0, 0, 0, 0, 0, 0, 0, 0, 0, 0, 0, 0, 0, 0, 0, 0, 0, 0, 0, 0, 0, 0, 0, 0, 0, 0, 0, 0, 0, 0, 0, 0, 0, 0, 0, 0, 0, 0, 0, 0, 0, 0, 0, 0, 0, 0, 0, 0, 0, 0, 0, 0, 0, 0, 0, 0, 0, 0, 0, 0, 0, 0, 0, 0, 0, 0, 0, 0, 0, 0, 0, 0, 0, 0, 0, 0, 0, 0, 0, 0, 0, 0, 0, 0, 0, 0, 0, 0, 0, 0, 0, 0, 0, 0, 0, 0, 0, 0, 0, 0, 0, 0, 0, 0, 0, 0, 0, 0, 0, 0, 0, 0, 0, 0, 0, 0, 0, 0, 0, 0, 0, 0, 0, 0, 0, 0, 0, 0, 0, 0, 0, 0, 0, 0, 0, 0, 0, 0, 0, 0, 0, 0, 0, 0, 0, 0, 0, 0, 0, 0, 0, 0, 0, 0, 0, 0, 0, 0, 0, 0, 0, 0, 0, 0, 0, 0, 0, 0, 0, 0, 0, 0, 0, 0, 0, 0, 0, 0, 0, 0, 0, 0, 0, 0, 0, 0, 0, 0]
---
header:
  stamp:
    sec: 5688
    nanosec: 731000000
  frame_id: base_scan
angle_min: 0
angle_max: 6.28
angle_increment: 0.017493036
time_increment: 0
scan_time: 0
range_min: 0.12
range_max: 3.5
ranges: [inf, inf, inf, inf, inf, inf, inf, 3.0338726, 2.9908147, 2.9715033, 2.0243742, 1.9589207, 1.904485, 1.8947413, 1.8912419, 1.8871003, 1.9102244, 1.9339926, 1.9642032, inf, inf, inf, 0.9307466, 0.9035044, 0.9067056, 0.8868534, 0.862897, 0.87341666, 0.8684919, 0.8416076, 0.8582159, 0.8587578, 0.85519737, 0.88558716, 0.8900636, 0.9022132, 0.88759494, 0.9233544, 0.9508538, 2.39298, 2.404659, 2.4217563, 2.4834013, inf, inf, inf, inf, inf, inf, inf, inf, inf, inf, inf, inf, inf, inf, 1.7523336, 1.7210697, 1.6941503, 1.678233, 1.6879123, 1.6865135, 1.6805035, 1.7088158, 1.7243434, 3.302107, 3.2872016, 3.268925, 3.2537043, 3.213904, 3.221808, 3.1993961, 3.1628382, 3.0548139, 2.8649664, 2.6820657, 2.5716214, 2.5629168, 2.545758, 2.5528102, 2.523256, 2.5158782, 2.516046, 2.529987, 2.5152082, 2.4481735, 2.3545287, 2.2847848, 2.2099385, 2.1363115, 2.0751352, 2.0279741, 1.9687756, 1.9133705, 1.8790628, 1.8190589, 1.7765576, 1.7515222, 1.6975105, 1.6719272, 1.6575255, 1.6064665, 1.5669748, 1.5488504, 1.5190045, 1.4899272, 1.473252, 1.4430646, 1.4331967, 1.4090046, 1.382317, 1.3662823, 1.3442171, 1.3299668, 1.3249155, 1.311635, 1.275615, 1.2631432, 1.2390091, 1.2208303, 1.2247719, 1.2273107, 1.2098716, 1.1997305, 1.186211, 1.1691221, 1.18395, 1.1630609, 1.1619084, 1.1562909, 1.1496528, 1.1369723, 1.125413, 1.1373972, 1.1142201, 1.114075, 1.1068152, 1.1242683, 1.0939896, 1.0921781, 1.0932202, 1.0860778, 1.081791, 1.0739952, 1.0883653, 1.0696766, 1.0740404, 1.0819058, 1.0819362, 1.0814552, 1.0891472, 1.075837, 1.0504199, 1.005889, 0.9946975, 1.0006506, 0.9634028, 0.92467135, 0.9176701, 0.8986291, 0.8792298, 0.844262, 0.8521624, 0.8145641, 0.81682026, 0.7878372, 0.77626836, 0.78734154, 0.76421154, 0.74865234, 0.75901216, 0.74356997, 0.7058355, 0.7209852, 0.7062511, 0.6938476, 0.6773621, 0.68066436, 0.66597027, 0.6675249, 0.6504065, 0.65624315, 0.6670606, 0.64385647, 0.6549969, 0.629664, 0.616699, 0.6112244, 0.62384146, 0.6118123, 0.61859214, 0.60675126, 0.5830084, 0.5897209, 0.59366864, 0.5876488, 0.60360825, 0.5980554, 0.58277476, 0.59438616, 0.5896322, 0.5958811, 0.5767373, 0.5905769, 0.5831637, 0.5807309, 0.5678471, 0.57108647, 0.573927, 0.5784595, 0.5791847, 0.5894452, 0.5672152, 0.5900576, 0.59548736, 0.591138, 0.598083, 0.591095, 0.60321355, 0.5911192, 0.57546884, 0.5770049, 0.59568757, 0.5928496, 0.5940591, 0.59884167, 0.58565396, 0.6149547, 0.6089149, 0.61212075, 0.6356669, 0.63828975, 0.6348249, 0.6374169, 0.66460836, 0.64687246, 0.6508947, 0.6443686, 0.6604256, 0.6621579, 0.6800869, 0.70651376, 0.70773256, 0.69428414, 0.7134356, 0.7105847, 0.720487, 0.74096614, 0.7621567, 0.7660331, 0.7643223, 0.7860015, 0.80377805, 0.811183, 0.8242638, 0.85385454, 0.8574854, 0.85424966, 0.89970315, 0.89424133, 0.9119057, 0.92495733, 0.98248684, 0.9982256, 1.0068151, 1.0480936, 1.0766702, 1.1129512, 1.1551423, 1.1795827, 1.2280158, 1.2477103, 1.3207288, 1.3552436, 1.4057025, 1.438223, 1.5011631, 1.5172924, 1.5354385, 1.5173025, 1.5412612, 1.5315298, 1.5325603, 1.5364434, 1.5506994, 1.5596892, 1.5778762, 1.581931, 1.5911709, 1.6091999, 1.7276266, 1.9461552, 2.2278547, 2.239242, 2.261385, 2.2751684, 2.3076205, 2.3423526, 2.3481038, 2.358393, 2.3806758, 2.424579, 2.4567978, 2.4922643, 2.5188808, 2.5355182, 2.5898993, 2.6047735, 2.6570268, 2.6887178, 2.7149966, 2.7893448, 2.84149, 2.876486, 2.9291682, 2.9734151, 1.0156413, 0.98947936, 0.9491472, 0.91825557, 0.9270684, 0.91739506, 0.90916044, 0.9090916, 0.9299874, 0.90291774, 0.9084547, 0.91415954, 0.95019084, 0.9468454, 0.9512209, 0.97351485, inf, inf, inf, inf, inf, inf, 1.9731249, 1.9353741, 1.9096559, 1.9135994, 1.9162667, 1.9482408, 1.9573613, 1.9950875, 3.004407, 2.9879427, 2.9925804, 3.019721, inf, inf, inf, inf, inf, inf, inf, inf, inf]
intensities: [0, 0, 0, 0, 0, 0, 0, 0, 0, 0, 0, 0, 0, 0, 0, 0, 0, 0, 0, 0, 0, 0, 0, 0, 0, 0, 0, 0, 0, 0, 0, 0, 0, 0, 0, 0, 0, 0, 0, 0, 0, 0, 0, 0, 0, 0, 0, 0, 0, 0, 0, 0, 0, 0, 0, 0, 0, 0, 0, 0, 0, 0, 0, 0, 0, 0, 0, 0, 0, 0, 0, 0, 0, 0, 0, 0, 0, 0, 0, 0, 0, 0, 0, 0, 0, 0, 0, 0, 0, 0, 0, 0, 0, 0, 0, 0, 0, 0, 0, 0, 0, 0, 0, 0, 0, 0, 0, 0, 0, 0, 0, 0, 0, 0, 0, 0, 0, 0, 0, 0, 0, 0, 0, 0, 0, 0, 0, 0, 0, 0, 0, 0, 0, 0, 0, 0, 0, 0, 0, 0, 0, 0, 0, 0, 0, 0, 0, 0, 0, 0, 0, 0, 0, 0, 0, 0, 0, 0, 0, 0, 0, 0, 0, 0, 0, 0, 0, 0, 0, 0, 0, 0, 0, 0, 0, 0, 0, 0, 0, 0, 0, 0, 0, 0, 0, 0, 0, 0, 0, 0, 0, 0, 0, 0, 0, 0, 0, 0, 0, 0, 0, 0, 0, 0, 0, 0, 0, 0, 0, 0, 0, 0, 0, 0, 0, 0, 0, 0, 0, 0, 0, 0, 0, 0, 0, 0, 0, 0, 0, 0, 0, 0, 0, 0, 0, 0, 0, 0, 0, 0, 0, 0, 0, 0, 0, 0, 0, 0, 0, 0, 0, 0, 0, 0, 0, 0, 0, 0, 0, 0, 0, 0, 0, 0, 0, 0, 0, 0, 0, 0, 0, 0, 0, 0, 0, 0, 0, 0, 0, 0, 0, 0, 0, 0, 0, 0, 0, 0, 0, 0, 0, 0, 0, 0, 0, 0, 0, 0, 0, 0, 0, 0, 0, 0, 0, 0, 0, 0, 0, 0, 0, 0, 0, 0, 0, 0, 0, 0, 0, 0, 0, 0, 0, 0, 0, 0, 0, 0, 0, 0, 0, 0, 0, 0, 0, 0, 0, 0, 0, 0, 0, 0, 0, 0, 0, 0, 0, 0, 0, 0, 0, 0, 0, 0, 0, 0, 0, 0, 0, 0]
---
header:
  stamp:
    sec: 5688
    nanosec: 931000000
  frame_id: base_scan
angle_min: 0
angle_max: 6.28
angle_increment: 0.017493036
time_increment: 0
scan_time: 0
range_min: 0.12
range_max: 3.5
ranges: [inf, inf, inf, inf, inf, inf, inf, 3.0157132, 2.9836633, 2.9678311, 2.018547, 1.9546913, 1.9016131, 1.8915629, 1.880747, 1.8760127, 1.8968141, 1.9283365, 1.9660816, inf, inf, inf, 0.9337143, 0.91549814, 0.90090925, 0.86716044, 0.8562004, 0.86317915, 0.85243326, 0.8609405, 0.87583303, 0.8635347, 0.86950374, 0.8685399, 0.88120925, 0.9004735, 0.9036243, 0.9204705, 0.9687806, 2.402609, 2.3875947, 2.4248796, 2.4830313, inf, inf, inf, inf, inf, inf, inf, inf, inf, inf, inf, inf, inf, inf, 1.7541078, 1.7064086, 1.6854134, 1.6683888, 1.6803356, 1.6709945, 1.7136186, 1.704876, 1.7561654, 3.3202136, 3.2961025, 3.2775939, 3.2430031, 3.2174733, 3.2063649, 3.1837265, 3.1647136, 3.0554469, 2.8810031, 2.6778615, 2.5600626, 2.5465932, 2.5639563, 2.545105, 2.5260978, 2.514818, 2.5213377, 2.518097, 2.5159638, 2.4353058, 2.3597848, 2.2858896, 2.2213106, 2.151935, 2.0858803, 2.0213652, 1.9775538, 1.9325323, 1.8561219, 1.8434976, 1.7739756, 1.7495768, 1.7032595, 1.6742121, 1.6231427, 1.5973611, 1.5743543, 1.5441417, 1.516731, 1.503676, 1.468839, 1.4543931, 1.4196582, 1.4136759, 1.3952683, 1.3650469, 1.34155, 1.3403268, 1.3165599, 1.2894523, 1.2619393, 1.2640196, 1.2572933, 1.2200154, 1.228825, 1.2471327, 1.2042072, 1.2097435, 1.1728654, 1.1956617, 1.1908543, 1.1534816, 1.1575139, 1.1396964, 1.1347315, 1.1407052, 1.1395229, 1.1407378, 1.1313777, 1.091591, 1.1030467, 1.1092951, 1.1102216, 1.0995162, 1.0998329, 1.0933608, 1.0794559, 1.0839761, 1.0698562, 1.0819913, 1.068964, 1.0716317, 1.0813287, 1.0702211, 1.0683852, 1.1024804, 1.0518147, 1.0305408, 0.99855465, 0.9634489, 0.95507234, 0.924171, 0.916296, 0.8957433, 0.89501655, 0.84715176, 0.83537054, 0.8221354, 0.81082237, 0.8053751, 0.7865847, 0.76902854, 0.76574475, 0.72837317, 0.74847376, 0.72581375, 0.72296757, 0.7203532, 0.6922796, 0.7057889, 0.7058596, 0.6718275, 0.6641761, 0.6750423, 0.6488293, 0.6431576, 0.6416032, 0.6433562, 0.6528256, 0.64507776, 0.61787534, 0.6120559, 0.6264123, 0.60072094, 0.6138448, 0.61365247, 0.6079875, 0.607347, 0.59751225, 0.5926222, 0.59705764, 0.5862326, 0.58081526, 0.5995738, 0.6027207, 0.58746755, 0.5829558, 0.58257747, 0.59152496, 0.580125, 0.5674532, 0.5872413, 0.5833177, 0.5939527, 0.5698394, 0.57238936, 0.5972505, 0.5907261, 0.5806236, 0.5598578, 0.58271724, 0.5918186, 0.571346, 0.58833265, 0.59614307, 0.6088922, 0.61406076, 0.58639634, 0.6154162, 0.6059697, 0.596713, 0.61234814, 0.5991948, 0.6150438, 0.62509334, 0.6378214, 0.6277719, 0.6181144, 0.6359314, 0.6494735, 0.6676852, 0.66007394, 0.6627847, 0.6822998, 0.6789267, 0.69027925, 0.68839264, 0.68678737, 0.7189843, 0.7157531, 0.72479844, 0.7509871, 0.7398674, 0.77550185, 0.77835333, 0.77536285, 0.805208, 0.7948879, 0.81824803, 0.83688056, 0.86122906, 0.8743106, 0.88733983, 0.9270725, 0.9231404, 0.9433495, 0.9675801, 1.0049074, 1.0134127, 1.0500977, 1.0802318, 1.1172018, 1.147635, 1.1781694, 1.217511, 1.2454969, 1.290808, 1.3459561, 1.4084951, 1.458944, 1.497862, 1.5241562, 1.519938, 1.5115278, 1.5203776, 1.5362059, 1.5333099, 1.5471718, 1.5520979, 1.5548629, 1.5773281, 1.5870054, 1.5924108, 1.6231347, 1.7186714, 1.9504669, 2.215763, 2.256513, 2.2686422, 2.2808878, 2.3062081, 2.3303192, 2.3307898, 2.368823, 2.4059265, 2.4326026, 2.420279, 2.4906294, 2.5088632, 2.548968, 2.5821254, 2.6148815, 2.644839, 2.7018106, 2.7128315, 2.7862685, 2.8216202, 2.8892012, 2.9344265, 2.9774768, 1.0206549, 0.9685321, 0.94270605, 0.93346864, 0.9202891, 0.92574364, 0.9079129, 0.8954138, 0.901245, 0.91408104, 0.9191008, 0.9377836, 0.92560184, 0.9314355, 0.9832182, 0.98373586, inf, inf, inf, inf, inf, inf, 1.9599853, 1.9558505, 1.901616, 1.9056239, 1.9204547, 1.9187963, 1.9467757, 1.9736297, 2.9978201, 2.9957263, 2.988968, 3.02128, inf, inf, inf, inf, inf, inf, inf, inf, inf]
