---
header:
  stamp:
    sec: 227
    nanosec: 962000000
  frame_id: base_scan
angle_min: 0
angle_max: 6.28
angle_increment: 0.017493036
time_increment: 0
scan_time: 0
range_min: 0.12
range_max: 3.5
ranges: [2.983802, 3.0371878, 3.0933251, 1.0507485, 1.0081955, 0.9947763, 0.9572598, 0.9777048, 0.9621688, 0.9450264, 0.9513103, 0.9570053, 0.95431024, 0.96718365, 0.9845735, 0.9982069, 1.0079986, 1.0598611, inf, inf, inf, inf, inf, 2.071486, 2.0022433, 1.9916809, 1.9492462, 1.9798988, 1.9750303, 1.9761537, 2.0228992, 3.0661886, 3.0283225, 3.0301218, 3.055195, 3.104584, inf, inf, inf, inf, inf, inf, inf, inf, inf, inf, inf, inf, inf, inf, 3.1046042, 3.0392027, 3.0067985, 3.020892, 1.966385, 1.9533963, 1.9479922, 1.9325973, 1.930724, 1.9464959, 1.9861393, 2.0152433, inf, 1.0158862, 0.94840854, 0.9491866, 0.9358974, 0.9047013, 0.89115673, 0.8905361, 0.9302728, 0.90650123, 0.8910706, 0.899276, 0.89410955, 0.8906885, 0.9027092, 0.9262144, 0.93913263, 0.9685965, 2.4497004, 2.4127343, 2.3996615, 2.4193108, 2.4455602, 2.5088134, inf, inf, inf, inf, inf, inf, inf, inf, inf, inf, inf, inf, inf, 1.7741318, 1.7198956, 1.6980741, 1.6856147, 1.6732054, 1.6705495, 1.6895896, 1.7152834, 1.7196854, 1.7764887, 3.3018281, 3.2832859, 3.2770329, 3.259742, 3.2220101, 3.193821, 3.1810272, 3.1808977, 3.0459902, 2.8290908, 2.6442914, 2.5347033, 2.534798, 2.5275931, 2.532372, 2.5129359, 2.5129085, 2.5165956, 2.4996564, 2.4889681, 2.3930647, 2.3209107, 2.2361436, 2.1661155, 2.0867484, 2.0317526, 1.9598464, 1.9286252, 1.8638659, 1.8347825, 1.782069, 1.730423, 1.6877531, 1.6658354, 1.6131678, 1.6022313, 1.5474924, 1.524749, 1.5037639, 1.4614769, 1.4497049, 1.4313756, 1.3913573, 1.3869423, 1.3600216, 1.3515539, 1.2993387, 1.2972806, 1.2944419, 1.2433063, 1.2676693, 1.2386825, 1.2292746, 1.221555, 1.1761831, 1.1977402, 1.1699765, 1.1760442, 1.1318631, 1.1313152, 1.1161455, 1.127257, 1.1109152, 1.1131183, 1.1026249, 1.0857706, 1.0689312, 1.0844434, 1.0815202, 1.0609853, 1.0734122, 1.0510498, 1.0611241, 1.0666442, 1.0425271, 1.0539876, 1.0293069, 1.0245498, 1.049789, 1.0263366, 1.0429453, 1.0370882, 1.0445266, 1.0313406, 1.0219178, 1.0324037, 1.0444753, 1.0277328, 0.98347056, 0.97060335, 0.94406223, 0.9347017, 0.89674264, 0.8877064, 0.8625053, 0.8464793, 0.84924763, 0.83820117, 0.8143075, 0.79103816, 0.773456, 0.75991064, 0.75758094, 0.7211935, 0.7346324, 0.7264131, 0.6916766, 0.6906839, 0.7078278, 0.6822167, 0.6750605, 0.6618644, 0.6564068, 0.6523038, 0.6403678, 0.62574995, 0.62115055, 0.6144645, 0.59642816, 0.597354, 0.60118747, 0.60714936, 0.61610615, 0.5848864, 0.5929334, 0.5938735, 0.57292914, 0.5738132, 0.5793074, 0.5537921, 0.5815031, 0.57080233, 0.5578982, 0.57214797, 0.55653614, 0.56465185, 0.5553781, 0.57001066, 0.5563892, 0.5625861, 0.55051607, 0.55919826, 0.54812276, 0.5433195, 0.54706424, 0.5567916, 0.54062366, 0.54315907, 0.5611853, 0.55649173, 0.55793744, 0.56177664, 0.5700324, 0.5560781, 0.5548748, 0.54111, 0.5746559, 0.5578079, 0.5726083, 0.55285525, 0.5570509, 0.5668144, 0.5768367, 0.5821808, 0.58064425, 0.57515794, 0.5879414, 0.5976369, 0.6144841, 0.6148269, 0.60135007, 0.6090533, 0.5986281, 0.62348735, 0.63816863, 0.63902116, 0.65530884, 0.65185696, 0.66899955, 0.6607759, 0.69106436, 0.6880999, 0.6942428, 0.69791096, 0.7240763, 0.7251393, 0.73001206, 0.7523064, 0.7489296, 0.7722998, 0.77800035, 0.7970983, 0.82116157, 0.8404912, 0.8395183, 0.86457086, 0.87836546, 0.9124586, 0.95450324, 0.94102925, 0.98640525, 1.0126963, 1.0339777, 1.0770158, 1.0952787, 1.1129073, 1.155221, 1.2074788, 1.2469978, 1.2954307, 1.3387136, 1.3970042, 1.445887, 1.5169373, 1.532929, 1.5499485, 1.5545111, 1.5540034, 1.5701903, 1.5750374, 1.5828793, 1.611067, 1.6001871, 1.5972542, 1.6306194, 1.6341301, 1.6384853, 1.7732599, 2.0455296, 2.2632334, 2.282178, 2.3073606, 2.3187282, 2.3610399, 2.3649907, 2.4308617, 2.4415197, 2.4619327, 2.484812, 2.5194693, 2.5419273, 2.5830386, 2.6109788, 2.6477342, 2.686366, 2.7209158, 2.7845633, 2.8133116, 2.8452349, 2.903824, 2.9456496]
intensities: [0, 0, 0, 0, 0, 0, 0, 0, 0, 0, 0, 0, 0, 0, 0, 0, 0, 0, 0, 0, 0, 0, 0, 0, 0, 0, 0, 0, 0, 0, 0, 0, 0, 0, 0, 0, 0, 0, 0, 0, 0, 0, 0, 0, 0, 0, 0, 0, 0, 0, 0, 0, 0, 0, 0, 0, 0, 0, 0, 0, 0, 0, 0, 0, 0, 0, 0, 0, 0, 0, 0, 0, 0, 0, 0, 0, 0, 0, 0, 0, 0, 0, 0, 0, 0, 0, 0, 0, 0, 0, 0, 0, 0, 0, 0, 0, 0, 0, 0, 0, 0, 0, 0, 0, 0, 0, 0, 0, 0, 0, 0, 0, 0, 0, 0, 0, 0, 0, 0, 0, 0, 0, 0, 0, 0, 0, 0, 0, 0, 0, 0, 0, 0, 0, 0, 0, 0, 0, 0, 0, 0, 0, 0, 0, 0, 0, 0, 0, 0, 0, 0, 0, 0, 0, 0, 0, 0, 0, 0, 0, 0, 0, 0, 0, 0, 0, 0, 0, 0, 0, 0, 0, 0, 0, 0, 0, 0, 0, 0, 0, 0, 0, 0, 0, 0, 0, 0, 0, 0, 0, 0, 0, 0, 0, 0, 0, 0, 0, 0, 0, 0, 0, 0, 0, 0, 0, 0, 0, 0, 0, 0, 0, 0, 0, 0, 0, 0, 0, 0, 0, 0, 0, 0, 0, 0, 0, 0, 0, 0, 0, 0, 0, 0, 0, 0, 0, 0, 0, 0, 0, 0, 0, 0, 0, 0, 0, 0, 0, 0, 0, 0, 0, 0, 0, 0, 0, 0, 0, 0, 0, 0, 0, 0, 0, 0, 0, 0, 0, 0, 0, 0, 0, 0, 0, 0, 0, 0, 0, 0, 0, 0, 0, 0, 0, 0, 0, 0, 0, 0, 0, 0, 0, 0, 0, 0, 0, 0, 0, 0, 0, 0, 0, 0, 0, 0, 0, 0, 0, 0, 0, 0, 0, 0, 0, 0, 0, 0, 0, 0, 0, 0, 0, 0, 0, 0, 0, 0, 0, 0, 0, 0, 0, 0, 0, 0, 0, 0, 0, 0, 0, 0, 0, 0, 0, 0, 0, 0, 0, 0, 0, 0, 0, 0, 0, 0, 0, 0, 0, 0, 0]
---
header:
  stamp:
    sec: 228
    nanosec: 162000000
  frame_id: base_scan
angle_min: 0
angle_max: 6.28
angle_increment: 0.017493036
time_increment: 0
scan_time: 0
range_min: 0.12
range_max: 3.5
ranges: [2.9642975, 3.0231683, 3.0841985, 1.0279047, 0.9997657, 0.9742611, 0.98569024, 0.96408117, 0.95417655, 0.97296506, 0.9548296, 0.95583874, 0.9552546, 0.9664955, 0.97982985, 0.99767935, 1.0239813, 1.0397407, inf, inf, inf, inf, inf, 2.0680828, 2.009297, 1.9800938, 1.9682046, 1.9596957, 1.973231, 1.9890964, 2.0351624, 3.070234, 3.0207016, 3.0334232, 3.0618346, 3.1077173, inf, inf, inf, inf, inf, inf, inf, inf, inf, inf, inf, inf, inf, inf, 3.0877852, 3.046814, 3.0259144, 3.0052664, 1.9659406, 1.9399238, 1.9306239, 1.923108, 1.9009197, 1.9406163, 1.976739, 2.0133476, inf, 1.0240364, 0.9581223, 0.9458497, 0.90176135, 0.909243, 0.8877, 0.8908245, 0.912089, 0.89348125, 0.890568, 0.87669176, 0.90832734, 0.9053252, 0.9154702, 0.90904325, 0.95865935, 0.97455883, 2.4176984, 2.4167607, 2.4224584, 2.4388397, 2.4601264, 2.5182915, inf, inf, inf, inf, inf, inf, inf, inf, inf, inf, inf, inf, inf, 1.7592325, 1.7203656, 1.7004384, 1.6998392, 1.6845324, 1.6809708, 1.6815791, 1.6926534, 1.7270048, 1.7778401, 3.3280852, 3.2891202, 3.2745051, 3.2246249, 3.238067, 3.2090464, 3.1691203, 3.1760414, 3.0339007, 2.828493, 2.6315465, 2.5695655, 2.533429, 2.5406787, 2.522519, 2.516237, 2.5117524, 2.5072408, 2.4992132, 2.4743605, 2.4143436, 2.304239, 2.2427702, 2.1726375, 2.0906649, 2.0489755, 1.9860089, 1.9287008, 1.8749685, 1.8143123, 1.7695371, 1.7108221, 1.690297, 1.669868, 1.6112598, 1.5816517, 1.5470976, 1.5256612, 1.4929765, 1.4683666, 1.4664629, 1.4303198, 1.4031812, 1.3771771, 1.3572599, 1.332523, 1.3157463, 1.3115598, 1.2756232, 1.2811637, 1.2392492, 1.2417482, 1.2169789, 1.2167846, 1.1958228, 1.1896123, 1.1646041, 1.1536424, 1.1635507, 1.1328421, 1.117464, 1.134627, 1.1263751, 1.0876952, 1.0877043, 1.0999435, 1.090812, 1.0727824, 1.0703979, 1.0703238, 1.0490494, 1.0644187, 1.0613726, 1.0232676, 1.035681, 1.0408331, 1.0491645, 1.0337017, 1.0180523, 1.060917, 1.0375365, 1.0291054, 1.0372216, 1.0344509, 1.0351254, 1.0274556, 1.0396092, 1.01035, 0.98361015, 0.95546687, 0.95647544, 0.9337222, 0.9130931, 0.8888381, 0.87392193, 0.8513926, 0.8225328, 0.798934, 0.78909385, 0.77925456, 0.766145, 0.74855876, 0.737114, 0.73633057, 0.72689414, 0.70414954, 0.7080235, 0.67911327, 0.6785947, 0.6692975, 0.6747791, 0.65396714, 0.62048733, 0.6595, 0.636758, 0.6379116, 0.63784724, 0.61762375, 0.62396055, 0.6135411, 0.60495925, 0.6021127, 0.5960487, 0.61717373, 0.5891408, 0.5929899, 0.5866355, 0.57351327, 0.58594143, 0.56373554, 0.5711286, 0.5942961, 0.56961834, 0.5484159, 0.5553755, 0.573215, 0.55872136, 0.55802375, 0.53990155, 0.54648626, 0.5525869, 0.5660496, 0.5583316, 0.5527954, 0.55937415, 0.5249595, 0.5484879, 0.54625374, 0.56661224, 0.55866385, 0.5594495, 0.5403477, 0.56437606, 0.56324947, 0.56291777, 0.5790323, 0.5566087, 0.5775392, 0.5771755, 0.57023114, 0.5560746, 0.56571555, 0.58210653, 0.5764261, 0.5762206, 0.5862546, 0.6035379, 0.5998052, 0.60121226, 0.60593575, 0.62145805, 0.60058945, 0.62337834, 0.63541853, 0.62951684, 0.62766564, 0.6343173, 0.64781505, 0.6484955, 0.6779466, 0.67777103, 0.68820345, 0.6763667, 0.70516986, 0.7197748, 0.74360603, 0.7431254, 0.7482515, 0.7800977, 0.77822906, 0.7788649, 0.79945505, 0.81410956, 0.8450149, 0.84948975, 0.86725986, 0.8790738, 0.9130143, 0.9398534, 0.94442636, 0.98386145, 1.0123852, 1.0412109, 1.0702486, 1.106298, 1.1284655, 1.1639229, 1.2058281, 1.235466, 1.2858168, 1.3367723, 1.3669865, 1.4566689, 1.5107223, 1.555072, 1.53746, 1.5456277, 1.5610164, 1.5662992, 1.5767018, 1.5748098, 1.5924828, 1.587038, 1.6112199, 1.6180165, 1.6249969, 1.6518558, 1.7606951, 2.0587375, 2.2550774, 2.2919793, 2.306619, 2.3310711, 2.369077, 2.3861256, 2.3950691, 2.4341948, 2.4370797, 2.483518, 2.5163414, 2.5438933, 2.5711713, 2.6240613, 2.6595407, 2.6918867, 2.7210698, 2.7544248, 2.804413, 2.841617, 2.9236858, 2.9692612]
intensities: [0, 0, 0, 0, 0, 0, 0, 0, 0, 0, 0, 0, 0, 0, 0, 0, 0, 0, 0, 0, 0, 0, 0, 0, 0, 0, 0, 0, 0, 0, 0, 0, 0, 0, 0, 0, 0, 0, 0, 0, 0, 0, 0, 0, 0, 0, 0, 0, 0, 0, 0, 0, 0, 0, 0, 0, 0, 0, 0, 0, 0, 0, 0, 0, 0, 0, 0, 0, 0, 0, 0, 0, 0, 0, 0, 0, 0, 0, 0, 0, 0, 0, 0, 0, 0, 0, 0, 0, 0, 0, 0, 0, 0, 0, 0, 0, 0, 0, 0, 0, 0, 0, 0, 0, 0, 0, 0, 0, 0, 0, 0, 0, 0, 0, 0, 0, 0, 0, 0, 0, 0, 0, 0, 0, 0, 0, 0, 0, 0, 0, 0, 0, 0, 0, 0, 0, 0, 0, 0, 0, 0, 0, 0, 0, 0, 0, 0, 0, 0, 0, 0, 0, 0, 0, 0, 0, 0, 0, 0, 0, 0, 0, 0, 0, 0, 0, 0, 0, 0, 0, 0, 0, 0, 0, 0, 0, 0, 0, 0, 0, 0, 0, 0, 0, 0, 0, 0, 0, 0, 0, 0, 0, 0, 0, 0, 0, 0, 0, 0, 0, 0, 0, 0, 0, 0, 0, 0, 0, 0, 0, 0, 0, 0, 0, 0, 0, 0, 0, 0, 0, 0, 0, 0, 0, 0, 0, 0, 0, 0, 0, 0, 0, 0, 0, 0, 0, 0, 0, 0, 0, 0, 0, 0, 0, 0, 0, 0, 0, 0, 0, 0, 0, 0, 0, 0, 0, 0, 0, 0, 0, 0, 0, 0, 0, 0, 0, 0, 0, 0, 0, 0, 0, 0, 0, 0, 0, 0, 0, 0, 0, 0, 0, 0, 0, 0, 0, 0, 0, 0, 0, 0, 0, 0, 0, 0, 0, 0, 0, 0, 0, 0, 0, 0, 0, 0, 0, 0, 0, 0, 0, 0, 0, 0, 0, 0, 0, 0, 0, 0, 0, 0, 0, 0, 0, 0, 0, 0, 0, 0, 0, 0, 0, 0, 0, 0, 0, 0, 0, 0, 0, 0, 0, 0, 0, 0, 0, 0, 0, 0, 0, 0, 0, 0, 0, 0, 0, 0, 0, 0, 0]
---
header:
  stamp:
    sec: 228
    nanosec: 362000000
  frame_id: base_scan
angle_min: 0
angle_max: 6.28
angle_increment: 0.017493036
time_increment: 0
scan_time: 0
range_min: 0.12
range_max: 3.5
ranges: [2.9626443, 3.0339198, 3.062864, 1.0244486, 1.0095952, 0.9789999, 0.9578375, 0.96658784, 0.9748454, 0.97458106, 0.9609912, 0.9508954, 0.96875995, 0.96929586, 0.9657016, 1.0040878, 1.0060738, 1.0467054, inf, inf, inf, inf, inf, 2.0589454, 1.993649, 1.984542, 1.9607784, 1.9609444, 1.9725666, 1.9902287, 1.9927964, 3.0498574, 3.0328116, 3.0213094, 3.0604699, 3.1174524, inf, inf, inf, inf, inf, inf, inf, inf, inf, inf, inf, inf, inf, inf, 3.1047072, 3.0374503, 3.0133889, 3.0098348, 1.9885542, 1.9565086, 1.9145759, 1.94333, 1.9434903, 1.9346604, 1.9636433, 2.0125105, inf, 1.0386716, 0.9513666, 0.92899036, 0.9142849, 0.89518905, 0.9099372, 0.886635, 0.8771298, 0.8985632, 0.8846542, 0.91250503, 0.8929224, 0.9110834, 0.9037241, 0.9471701, 0.94001186, 0.99167895, 2.4503233, 2.4177043, 2.3991182, 2.4262078, 2.45186, 2.5208077, inf, inf, inf, inf, inf, inf, inf, inf, inf, inf, inf, inf, inf, 1.7651883, 1.7233758, 1.7015052, 1.6837493, 1.7022053, 1.6814796, 1.6902092, 1.6947397, 1.7202146, 1.7872715, 3.3417163, 3.2913682, 3.2679486, 3.2477403, 3.2133248, 3.2062514, 3.193499, 3.1657546, 3.0468159, 2.8370562, 2.6406786, 2.5443442, 2.5626044, 2.540483, 2.5336149, 2.5072682, 2.5102828, 2.4936044, 2.5150325, 2.4868486, 2.4079719, 2.3098986, 2.2498512, 2.1597164, 2.1053758, 2.0336778, 1.9888353, 1.9228342, 1.871944, 1.8323655, 1.7839338, 1.753631, 1.6780015, 1.6409366, 1.6120769, 1.5936798, 1.5496335, 1.5095497, 1.5026437, 1.4651569, 1.4522699, 1.4248865, 1.3952587, 1.3692911, 1.3549725, 1.3475013, 1.3179836, 1.2789713, 1.2775142, 1.2668127, 1.253778, 1.2192488, 1.2181286, 1.2158239, 1.1984178, 1.1852717, 1.1744182, 1.1606987, 1.1509593, 1.1387699, 1.1269448, 1.1162486, 1.1235971, 1.1005331, 1.1031504, 1.0923045, 1.0891403, 1.0814179, 1.0661743, 1.063808, 1.0724713, 1.0504549, 1.047044, 1.0502961, 1.0479946, 1.0758483, 1.038183, 1.043267, 1.0386198, 1.0465152, 1.0504048, 1.0279332, 1.0352057, 1.0142941, 1.0536671, 1.0389767, 1.0429254, 1.0243846, 0.9842486, 0.98123103, 0.9432346, 0.9239246, 0.8883848, 0.871482, 0.86449707, 0.85152054, 0.828144, 0.83094853, 0.7921689, 0.7705956, 0.757745, 0.7544356, 0.75481224, 0.7477786, 0.7262712, 0.7022416, 0.70897025, 0.6748025, 0.68597364, 0.6809888, 0.6715236, 0.66941446, 0.6763167, 0.6397471, 0.64485663, 0.6308024, 0.6500976, 0.627128, 0.61434793, 0.6157702, 0.5982328, 0.59728163, 0.6032109, 0.5971042, 0.59031504, 0.59958214, 0.59332544, 0.57258254, 0.5757831, 0.57902765, 0.5784494, 0.56828856, 0.55829895, 0.55376387, 0.5616035, 0.5387262, 0.56476945, 0.56368095, 0.570077, 0.55154914, 0.5529478, 0.5603287, 0.54079336, 0.5606038, 0.5618339, 0.56216466, 0.5373703, 0.56455034, 0.5471801, 0.5665302, 0.5440982, 0.54158425, 0.5654979, 0.5763645, 0.5695317, 0.5659364, 0.5518988, 0.5590264, 0.5629642, 0.5588503, 0.5833526, 0.56749094, 0.5937341, 0.5928283, 0.576813, 0.59193176, 0.59855306, 0.5753396, 0.58149, 0.6150023, 0.60679865, 0.61059356, 0.61525, 0.6116207, 0.6365436, 0.6429995, 0.6281617, 0.6505368, 0.67588586, 0.66211563, 0.6796122, 0.7077569, 0.69605005, 0.71878403, 0.7191721, 0.7476149, 0.7311609, 0.74921346, 0.7697274, 0.80196446, 0.79176927, 0.8082226, 0.8190501, 0.83958215, 0.8441677, 0.852682, 0.88136834, 0.89250547, 0.92800874, 0.9583181, 0.96687126, 0.9955398, 1.0342305, 1.0874177, 1.0910816, 1.1142825, 1.1631036, 1.2134335, 1.2324792, 1.2892925, 1.3603098, 1.3746415, 1.4541397, 1.5270437, 1.5594896, 1.5581341, 1.5524404, 1.5469625, 1.5552322, 1.5768707, 1.5844325, 1.5801139, 1.6017367, 1.6098796, 1.6333227, 1.626203, 1.6499724, 1.7735589, 2.068143, 2.271948, 2.2804933, 2.3121955, 2.3445632, 2.3652005, 2.3727026, 2.3985846, 2.4222226, 2.4466329, 2.4797406, 2.5131314, 2.537305, 2.5776093, 2.5969834, 2.6529582, 2.6920466, 2.7264125, 2.7714734, 2.807176, 2.8542578, 2.9212809, 2.9732375]
intensities: [0, 0, 0, 0, 0, 0, 0, 0, 0, 0, 0, 0, 0, 0, 0, 0, 0, 0, 0, 0, 0, 0, 0, 0, 0, 0, 0, 0, 0, 0, 0, 0, 0, 0, 0, 0, 0, 0, 0, 0, 0, 0, 0, 0, 0, 0, 0, 0, 0, 0, 0, 0, 0, 0, 0, 0, 0, 0, 0, 0, 0, 0, 0, 0, 0, 0, 0, 0, 0, 0, 0, 0, 0, 0, 0, 0, 0, 0, 0, 0, 0, 0, 0, 0, 0, 0, 0, 0, 0, 0, 0, 0, 0, 0, 0, 0, 0, 0, 0, 0, 0, 0, 0, 0, 0, 0, 0, 0, 0, 0, 0, 0, 0, 0, 0, 0, 0, 0, 0, 0, 0, 0, 0, 0, 0, 0, 0, 0, 0, 0, 0, 0, 0, 0, 0, 0, 0, 0, 0, 0, 0, 0, 0, 0, 0, 0, 0, 0, 0, 0, 0, 0, 0, 0, 0, 0, 0, 0, 0, 0, 0, 0, 0, 0, 0, 0, 0, 0, 0, 0, 0, 0, 0, 0, 0, 0, 0, 0, 0, 0, 0, 0, 0, 0, 0, 0, 0, 0, 0, 0, 0, 0, 0, 0, 0, 0, 0, 0, 0, 0, 0, 0, 0, 0, 0, 0, 0, 0, 0, 0, 0, 0, 0, 0, 0, 0, 0, 0, 0, 0, 0, 0, 0, 0, 0, 0, 0, 0, 0, 0, 0, 0, 0, 0, 0, 0, 0, 0, 0, 0, 0, 0, 0, 0, 0, 0, 0, 0, 0, 0, 0, 0, 0, 0, 0, 0, 0, 0, 0, 0, 0, 0, 0, 0, 0, 0, 0, 0, 0, 0, 0, 0, 0, 0, 0, 0, 0, 0, 0, 0, 0, 0, 0, 0, 0, 0, 0, 0, 0, 0, 0, 0, 0, 0, 0, 0, 0, 0, 0, 0, 0, 0, 0, 0, 0, 0, 0, 0, 0, 0, 0, 0, 0, 0, 0, 0, 0, 0, 0, 0, 0, 0, 0, 0, 0, 0, 0, 0, 0, 0, 0, 0, 0, 0, 0, 0, 0, 0, 0, 0, 0, 0, 0, 0, 0, 0, 0, 0, 0, 0, 0, 0, 0, 0, 0, 0, 0, 0, 0, 0]
---
header:
  stamp:
    sec: 228
    nanosec: 562000000
  frame_id: base_scan
angle_min: 0
angle_max: 6.28
angle_increment: 0.017493036
time_increment: 0
scan_time: 0
range_min: 0.12
range_max: 3.5
ranges: [2.9640882, 3.0275066, 3.0814376, 1.0469667, 0.9980235, 0.9949494, 0.9895914, 0.9756185, 0.9558538, 0.95909727, 0.9634778, 0.9497632, 0.9720928, 0.97314525, 0.9955326, 0.98743427, 1.0100392, 1.0296679, inf, inf, inf, inf, inf, 2.0500743, 2.0169973, 1.9645345, 1.9531823, 1.9674413, 1.9664994, 1.9862599, 2.0049658, 3.046603, 3.042189, 3.0421777, 3.0512676, 3.1179347, inf, inf, inf, inf, inf, inf, inf, inf, inf, inf, inf, inf, inf, inf, 3.115187, 3.0383813, 3.0095048, 3.0152652, 1.9673544, 1.9482914, 1.9242264, 1.91455, 1.9156407, 1.9437422, 1.975769, 2.0287771, inf, inf, 0.9587004, 0.9327898, 0.9175431, 0.9205535, 0.8932263, 0.8974171, 0.8801623, 0.88110405, 0.87382424, 0.90797967, 0.89617187, 0.8959949, 0.9054498, 0.9175455, 0.9631144, 0.9670206, 2.42485, 2.4157388, 2.4206855, 2.4580464, 2.4401093, 2.5167105, inf, inf, inf, inf, inf, inf, inf, inf, inf, inf, inf, inf, inf, 1.7687017, 1.732043, 1.6987714, 1.6885959, 1.6703906, 1.6727082, 1.7018008, 1.7011849, 1.7242833, 1.7747704, 3.3263586, 3.2915304, 3.2775354, 3.2335885, 3.2339697, 3.1866853, 3.1807206, 3.1745527, 3.0516083, 2.8410728, 2.6412094, 2.5738578, 2.5516782, 2.5209808, 2.5282567, 2.513705, 2.500927, 2.4918551, 2.4997687, 2.4686594, 2.4001253, 2.3255897, 2.2428908, 2.1777267, 2.1043253, 2.0665212, 1.9826531, 1.9277767, 1.8801368, 1.8581697, 1.7954744, 1.7428845, 1.6869904, 1.6333705, 1.616582, 1.5777069, 1.543212, 1.5323579, 1.4945765, 1.4759709, 1.4376734, 1.4313623, 1.3920885, 1.3869863, 1.3452324, 1.342709, 1.3113598, 1.3052926, 1.2849542, 1.2593997, 1.241875, 1.2313719, 1.214843, 1.2191304, 1.2024521, 1.1922878, 1.170659, 1.1681437, 1.1506313, 1.1418593, 1.1156425, 1.1147999, 1.1066372, 1.0994039, 1.1144086, 1.085006, 1.087917, 1.0751655, 1.0613996, 1.0637956, 1.06286, 1.0483714, 1.0579883, 1.0630428, 1.0508413, 1.0407864, 1.0412328, 1.0509619, 1.0448035, 1.0264148, 1.0346645, 1.032997, 1.0266922, 1.028574, 1.030588, 1.0304512, 1.0358846, 1.0291903, 0.98410535, 0.98773766, 0.9581379, 0.91096777, 0.89564407, 0.8810638, 0.8869169, 0.8492348, 0.8240236, 0.809532, 0.80658126, 0.80051136, 0.77898705, 0.7628103, 0.7536777, 0.73511475, 0.7026472, 0.71730673, 0.71983886, 0.6992957, 0.68968064, 0.67116195, 0.6940299, 0.6416743, 0.6696794, 0.63501275, 0.6376823, 0.63768876, 0.63198626, 0.63374674, 0.6070902, 0.613057, 0.59219563, 0.59713596, 0.5952665, 0.5904068, 0.5794399, 0.5791626, 0.5798314, 0.5862033, 0.5543748, 0.5805785, 0.5621507, 0.5687977, 0.5750386, 0.5664415, 0.5535386, 0.5576689, 0.56079185, 0.5461862, 0.55483896, 0.5673293, 0.54526246, 0.55028707, 0.56565446, 0.55588007, 0.5558097, 0.57455033, 0.56319696, 0.5391439, 0.55686253, 0.55576056, 0.54289275, 0.5763939, 0.55042326, 0.5559111, 0.55843145, 0.55314386, 0.5564737, 0.56649214, 0.5684684, 0.5792521, 0.58905286, 0.5687112, 0.59110796, 0.56626946, 0.5970643, 0.58303714, 0.5913479, 0.6050751, 0.6136531, 0.6094637, 0.6305963, 0.6039848, 0.62760514, 0.6249515, 0.6449851, 0.66277564, 0.6349871, 0.6438522, 0.66084677, 0.6758595, 0.6835068, 0.6771336, 0.6916769, 0.7032363, 0.7024856, 0.7422076, 0.7314124, 0.7504201, 0.7466989, 0.7776006, 0.79267484, 0.8142009, 0.8230442, 0.8384485, 0.8512548, 0.8889357, 0.87458414, 0.91384435, 0.9375405, 0.9652467, 0.9819466, 1.0029395, 1.0365086, 1.0692058, 1.1029341, 1.1344833, 1.153448, 1.211664, 1.2466047, 1.2698903, 1.3449364, 1.3998177, 1.4578645, 1.5263326, 1.5448107, 1.5395014, 1.5578134, 1.5698748, 1.5623691, 1.5748626, 1.5764368, 1.6022319, 1.590067, 1.5962465, 1.6244175, 1.6222932, 1.6388189, 1.7730845, 2.0496252, 2.255141, 2.2733636, 2.3208416, 2.3379643, 2.3395038, 2.383145, 2.3871257, 2.4283175, 2.4567654, 2.4895692, 2.524962, 2.5336785, 2.5631974, 2.615587, 2.646717, 2.6919494, 2.731297, 2.7795813, 2.8076234, 2.8636646, 2.9238486, 2.954791]
intensities: [0, 0, 0, 0, 0, 0, 0, 0, 0, 0, 0, 0, 0, 0, 0, 0, 0, 0, 0, 0, 0, 0, 0, 0, 0, 0, 0, 0, 0, 0, 0, 0, 0, 0, 0, 0, 0, 0, 0, 0, 0, 0, 0, 0, 0, 0, 0, 0, 0, 0, 0, 0, 0, 0, 0, 0, 0, 0, 0, 0, 0, 0, 0, 0, 0, 0, 0, 0, 0, 0, 0, 0, 0, 0, 0, 0, 0, 0, 0, 0, 0, 0, 0, 0, 0, 0, 0, 0, 0, 0, 0, 0, 0, 0, 0, 0, 0, 0, 0, 0, 0, 0, 0, 0, 0, 0, 0, 0, 0, 0, 0, 0, 0, 0, 0, 0, 0, 0, 0, 0, 0, 0, 0, 0, 0, 0, 0, 0, 0, 0, 0, 0, 0, 0, 0, 0, 0, 0, 0, 0, 0, 0, 0, 0, 0, 0, 0, 0, 0, 0, 0, 0, 0, 0, 0, 0, 0, 0, 0, 0, 0, 0, 0, 0, 0, 0, 0, 0, 0, 0, 0, 0, 0, 0, 0, 0, 0, 0, 0, 0, 0, 0, 0, 0, 0, 0, 0, 0, 0, 0, 0, 0, 0, 0, 0, 0, 0, 0, 0, 0, 0, 0, 0, 0, 0, 0, 0, 0, 0, 0, 0, 0, 0, 0, 0, 0, 0, 0, 0, 0, 0, 0, 0, 0, 0, 0, 0, 0, 0, 0, 0, 0, 0, 0, 0, 0, 0, 0, 0, 0, 0, 0, 0, 0, 0, 0, 0, 0, 0, 0, 0, 0, 0, 0, 0, 0, 0, 0, 0, 0, 0, 0, 0, 0, 0, 0, 0, 0, 0, 0, 0, 0, 0, 0, 0, 0, 0, 0, 0, 0, 0, 0, 0, 0, 0, 0, 0, 0, 0, 0, 0, 0, 0, 0, 0, 0, 0, 0, 0, 0, 0, 0, 0, 0, 0, 0, 0, 0, 0, 0, 0, 0, 0, 0, 0, 0, 0, 0, 0, 0, 0, 0, 0, 0, 0, 0, 0, 0, 0, 0, 0, 0, 0, 0, 0, 0, 0, 0, 0, 0, 0, 0, 0, 0, 0, 0, 0, 0, 0, 0, 0, 0, 0, 0, 0, 0, 0, 0, 0, 0]
---
header:
  stamp:
    sec: 228
    nanosec: 762000000
  frame_id: base_scan
angle_min: 0
angle_max: 6.28
angle_increment: 0.017493036
time_increment: 0
scan_time: 0
range_min: 0.12
range_max: 3.5
ranges: [2.961117, 3.033785, 3.0697815, 1.0330637, 1.0162776, 0.96978074, 0.9779171, 0.962616, 0.9530517, 0.95294523, 0.9836315, 0.97393656, 0.9599241, 0.96179414, 0.9782262, 0.98976034, 0.98701626, 1.0500599, inf, inf, inf, inf, inf, 2.0487528, 1.997032, 1.9640132, 1.9426261, 1.9595183, 1.9427183, 1.9821919, 2.0301366, 3.0686288, 3.0476255, 3.016087, 3.0467305, 3.1097584, inf, inf, inf, inf, inf, inf, inf, inf, inf, inf, inf, inf, inf, inf, 3.1007855, 3.0298295, 3.014016, 3.0035393, 1.9830983, 1.9606377, 1.9376489, 1.9337593, 1.9265357, 1.9459077, 1.9794165, 2.0046303, inf, inf, 0.9604713, 0.94925654, 0.929388, 0.9161415, 0.91095114, 0.8807784, 0.89027166, 0.89141166, 0.8659799, 0.89542073, 0.88883466, 0.88222677, 0.90371686, 0.92916554, 0.9352833, 0.9852732, 2.4304407, 2.420929, 2.4168317, 2.4265573, 2.4573803, 2.5029697, inf, inf, inf, inf, inf, inf, inf, inf, inf, inf, inf, inf, inf, 1.7674754, 1.7227228, 1.7080613, 1.6739455, 1.6815951, 1.6800704, 1.6960831, 1.6978803, 1.7182125, 1.7674268, 3.3302786, 3.2920146, 3.269562, 3.2462437, 3.2227318, 3.2138274, 3.186968, 3.160746, 3.056099, 2.8571851, 2.6567502, 2.5476367, 2.536462, 2.5437982, 2.5318682, 2.5069287, 2.5052686, 2.5012624, 2.4976485, 2.5051339, 2.410487, 2.3247933, 2.2472787, 2.1639097, 2.1062484, 2.04938, 1.99139, 1.9383258, 1.8733437, 1.839182, 1.7878913, 1.7453458, 1.7060344, 1.6634641, 1.622674, 1.6054626, 1.5559695, 1.5240589, 1.5001707, 1.4778956, 1.423596, 1.4310057, 1.4049487, 1.3818948, 1.3602084, 1.3332802, 1.3140745, 1.3212987, 1.2911266, 1.2663311, 1.2516575, 1.2551447, 1.2375045, 1.2061075, 1.2002746, 1.1814703, 1.1694928, 1.1774023, 1.1744316, 1.1368749, 1.1452962, 1.1410323, 1.1049285, 1.133265, 1.1044995, 1.1007657, 1.0942572, 1.0838281, 1.0649589, 1.0806562, 1.0735829, 1.0677072, 1.0626352, 1.0630347, 1.0482537, 1.038548, 1.037738, 1.0402156, 1.0498794, 1.0315588, 1.0301416, 1.030712, 1.029523, 1.0433961, 1.0404621, 1.0387243, 1.0396203, 1.040272, 0.9989477, 0.9869243, 0.9468953, 0.9136158, 0.91593623, 0.889547, 0.86375076, 0.8367888, 0.8336288, 0.83654577, 0.788378, 0.7967438, 0.75731504, 0.7446186, 0.752304, 0.7153668, 0.724995, 0.71922445, 0.7019399, 0.6854062, 0.6841036, 0.67830485, 0.6572415, 0.6759669, 0.6594994, 0.6368062, 0.6358425, 0.61316633, 0.6230713, 0.6200836, 0.6162243, 0.6051705, 0.60604763, 0.6091729, 0.5980623, 0.5985169, 0.59387314, 0.59594184, 0.5762048, 0.576525, 0.57698506, 0.5639814, 0.5695739, 0.56568533, 0.55975443, 0.57146543, 0.56444836, 0.5510836, 0.5739948, 0.56685984, 0.5453485, 0.57774657, 0.5400524, 0.5746526, 0.55418324, 0.5467733, 0.5506492, 0.5464353, 0.5626389, 0.5633729, 0.55218595, 0.55257756, 0.54105854, 0.56752294, 0.5609457, 0.5721354, 0.56291133, 0.56481737, 0.5575592, 0.5738789, 0.5531058, 0.57163954, 0.5546185, 0.564486, 0.59223974, 0.58141285, 0.588892, 0.59339887, 0.5914839, 0.61400074, 0.5982514, 0.60585994, 0.60682136, 0.6219866, 0.6218573, 0.6297115, 0.6532525, 0.62371534, 0.642444, 0.66080356, 0.6855211, 0.6832966, 0.68095, 0.6923009, 0.69036156, 0.70638514, 0.7157786, 0.7121179, 0.744833, 0.7514469, 0.76412153, 0.7727523, 0.78721654, 0.8117885, 0.82349366, 0.8398224, 0.8694277, 0.8774763, 0.89119524, 0.90014416, 0.92940474, 0.97222847, 0.98213434, 1.0105792, 1.0371528, 1.0585469, 1.0904831, 1.124965, 1.140317, 1.2047602, 1.2418331, 1.294473, 1.3451555, 1.3939468, 1.4607203, 1.5018617, 1.5344347, 1.5471843, 1.5456938, 1.5655254, 1.5810051, 1.5805823, 1.5813969, 1.6011887, 1.6057093, 1.5989017, 1.6092974, 1.6301792, 1.6300054, 1.7903334, 2.0641572, 2.2753427, 2.293144, 2.3082974, 2.3332012, 2.3472803, 2.3842027, 2.3941853, 2.4308422, 2.46629, 2.4781768, 2.5121183, 2.5387156, 2.5526116, 2.6152866, 2.639985, 2.692795, 2.7163002, 2.7477424, 2.805359, 2.8646317, 2.9129767, 2.9633696]
intensities: [0, 0, 0, 0, 0, 0, 0, 0, 0, 0, 0, 0, 0, 0, 0, 0, 0, 0, 0, 0, 0, 0, 0, 0, 0, 0, 0, 0, 0, 0, 0, 0, 0, 0, 0, 0, 0, 0, 0, 0, 0, 0, 0, 0, 0, 0, 0, 0, 0, 0, 0, 0, 0, 0, 0, 0, 0, 0, 0, 0, 0, 0, 0, 0, 0, 0, 0, 0, 0, 0, 0, 0, 0, 0, 0, 0, 0, 0, 0, 0, 0, 0, 0, 0, 0, 0, 0, 0, 0, 0, 0, 0, 0, 0, 0, 0, 0, 0, 0, 0, 0, 0, 0, 0, 0, 0, 0, 0, 0, 0, 0, 0, 0, 0, 0, 0, 0, 0, 0, 0, 0, 0, 0, 0, 0, 0, 0, 0, 0, 0, 0, 0, 0, 0, 0, 0, 0, 0, 0, 0, 0, 0, 0, 0, 0, 0, 0, 0, 0, 0, 0, 0, 0, 0, 0, 0, 0, 0, 0, 0, 0, 0, 0, 0, 0, 0, 0, 0, 0, 0, 0, 0, 0, 0, 0, 0, 0, 0, 0, 0, 0, 0, 0, 0, 0, 0, 0, 0, 0, 0, 0, 0, 0, 0, 0, 0, 0, 0, 0, 0, 0, 0, 0, 0, 0, 0, 0, 0, 0, 0, 0, 0, 0, 0, 0, 0, 0, 0, 0, 0, 0, 0, 0, 0, 0, 0, 0, 0, 0, 0, 0, 0, 0, 0, 0, 0, 0, 0, 0, 0, 0, 0, 0, 0, 0, 0, 0, 0, 0, 0, 0, 0, 0, 0, 0, 0, 0, 0, 0, 0, 0, 0, 0, 0, 0, 0, 0, 0, 0, 0, 0, 0, 0, 0, 0, 0, 0, 0, 0, 0, 0, 0, 0, 0, 0, 0, 0, 0, 0, 0, 0, 0, 0, 0, 0, 0, 0, 0, 0, 0, 0, 0, 0, 0, 0, 0, 0, 0, 0, 0, 0, 0, 0, 0, 0, 0, 0, 0, 0, 0, 0, 0, 0, 0, 0, 0, 0, 0, 0, 0, 0, 0, 0, 0, 0, 0, 0, 0, 0, 0, 0, 0, 0, 0, 0, 0, 0, 0, 0, 0, 0, 0, 0, 0, 0, 0, 0, 0, 0, 0]
---
header:
  stamp:
    sec: 228
    nanosec: 962000000
  frame_id: base_scan
angle_min: 0
angle_max: 6.28
angle_increment: 0.017493036
time_increment: 0
scan_time: 0
range_min: 0.12
range_max: 3.5
ranges: [2.9655902, 3.0154705, 3.075498, 1.0372796, 1.0125469, 0.997469, 0.9621464, 0.961792, 0.96686095, 0.9420317, 0.9506697, 0.9559052, 0.9604281, 0.9613648, 0.9838996, 0.96797, 1.0037789, 1.0264097, inf, inf, inf, inf, inf, 2.0678067, 1.9957362, 1.9691381, 1.9571308, 1.9517503, 1.9476229, 1.9942043, 1.9946765, 3.0694377, 3.0226817, 3.0397806, 3.0523849, 3.111533, inf, inf, inf, inf, inf, inf, inf, inf, inf, inf, inf, inf, inf, inf, 3.1010468, 3.0471103, 3.0028434, 2.9983485, 1.987583, 1.9379286, 1.9355191, 1.917676, 1.9142728, 1.9367689, 1.9697031, 2.0071487, inf, inf, 0.9574833, 0.94892144, 0.94207656, 0.92739946, 0.90503097, 0.8685675, 0.8951895, 0.8796685, 0.88265336, 0.89619166, 0.8867814, 0.89833933, 0.89682776, 0.93098044, 0.9243164, 0.95992994, 2.4495323, 2.4046128, 2.4075458, 2.4155202, 2.4423306, 2.501664, inf, inf, inf, inf, inf, inf, inf, inf, inf, inf, inf, inf, inf, 1.8112462, 1.7311906, 1.7009695, 1.6953567, 1.680833, 1.6806504, 1.6730499, 1.6912495, 1.7146605, 1.7858824, 3.3133993, 3.3161206, 3.2620435, 3.249719, 3.220369, 3.2151544, 3.1902442, 3.167905, 3.0507462, 2.8470852, 2.6681044, 2.560857, 2.5646672, 2.5290494, 2.5310853, 2.5149972, 2.5038245, 2.5132973, 2.5039299, 2.49617, 2.4027855, 2.3258893, 2.2487557, 2.178925, 2.1006618, 2.04573, 1.9735277, 1.9346573, 1.8873146, 1.8226961, 1.7987775, 1.7400006, 1.7110198, 1.6788303, 1.629449, 1.5808301, 1.5641646, 1.5333436, 1.5205439, 1.4571086, 1.4539124, 1.4267194, 1.4044592, 1.391386, 1.3538914, 1.3454363, 1.3216351, 1.3026083, 1.3000832, 1.2910779, 1.2739652, 1.2490696, 1.2082629, 1.2176903, 1.1935331, 1.1869869, 1.17876, 1.1835911, 1.1666011, 1.1474804, 1.1423774, 1.1221021, 1.1348618, 1.1205099, 1.0890075, 1.0999178, 1.0765011, 1.0762753, 1.0804969, 1.0718862, 1.0508257, 1.0595741, 1.0522418, 1.0423182, 1.0509837, 1.0570325, 1.0642473, 1.0453645, 1.050104, 1.0454198, 1.0378172, 1.0348252, 1.031148, 1.0443885, 1.0527534, 1.0242611, 1.0247353, 1.0181593, 0.99089694, 0.97620857, 0.9628493, 0.91867167, 0.9109096, 0.89013237, 0.8621621, 0.8400337, 0.82620245, 0.81605524, 0.80607015, 0.78512925, 0.77075213, 0.7604751, 0.7439615, 0.7435763, 0.70852214, 0.72598237, 0.7174043, 0.69139963, 0.6827145, 0.68840474, 0.6608529, 0.66346425, 0.65219873, 0.64548796, 0.6474592, 0.62477094, 0.61015654, 0.61769116, 0.6126309, 0.5904325, 0.59902734, 0.6037124, 0.5841147, 0.59739476, 0.5988492, 0.5700872, 0.5758626, 0.5607718, 0.60650766, 0.57906276, 0.5821778, 0.5819999, 0.5658754, 0.5583119, 0.56564593, 0.56341225, 0.55227256, 0.55846435, 0.5494368, 0.55084753, 0.56086713, 0.5589094, 0.5598992, 0.5451556, 0.56101894, 0.55565804, 0.5381219, 0.5431932, 0.5441924, 0.541725, 0.5681316, 0.5558337, 0.5504071, 0.55862767, 0.5500554, 0.55622387, 0.5538489, 0.54064286, 0.58759993, 0.5757819, 0.580485, 0.5723881, 0.5721509, 0.572571, 0.59097636, 0.57663375, 0.5967877, 0.58625937, 0.6047344, 0.602819, 0.6104003, 0.60585314, 0.61624277, 0.637212, 0.61534244, 0.6360827, 0.6531013, 0.6446716, 0.6539028, 0.6764895, 0.693325, 0.6771818, 0.68387735, 0.71180385, 0.74320525, 0.732151, 0.7271458, 0.74286586, 0.7713809, 0.7814301, 0.8088471, 0.805904, 0.8049468, 0.8477308, 0.8617506, 0.86550325, 0.89114213, 0.93094105, 0.9377965, 0.9476401, 0.98545897, 1.0193335, 1.0277121, 1.076624, 1.1026388, 1.1394796, 1.1506711, 1.2030023, 1.2481872, 1.295312, 1.3370098, 1.4078006, 1.4427556, 1.5349524, 1.5346048, 1.5492574, 1.5569265, 1.5730981, 1.5623971, 1.5659894, 1.5702676, 1.5762539, 1.6011562, 1.5978366, 1.6225475, 1.6191281, 1.6398034, 1.7850981, 2.0632284, 2.2520828, 2.2891226, 2.298384, 2.3250473, 2.3429258, 2.3642263, 2.3944535, 2.4307044, 2.4390059, 2.466349, 2.512625, 2.5431635, 2.5727038, 2.6061199, 2.6495357, 2.6781313, 2.709958, 2.7611167, 2.7914486, 2.8532193, 2.908004, 2.9698029]
intensities: [0, 0, 0, 0, 0, 0, 0, 0, 0, 0, 0, 0, 0, 0, 0, 0, 0, 0, 0, 0, 0, 0, 0, 0, 0, 0, 0, 0, 0, 0, 0, 0, 0, 0, 0, 0, 0, 0, 0, 0, 0, 0, 0, 0, 0, 0, 0, 0, 0, 0, 0, 0, 0, 0, 0, 0, 0, 0, 0, 0, 0, 0, 0, 0, 0, 0, 0, 0, 0, 0, 0, 0, 0, 0, 0, 0, 0, 0, 0, 0, 0, 0, 0, 0, 0, 0, 0, 0, 0, 0, 0, 0, 0, 0, 0, 0, 0, 0, 0, 0, 0, 0, 0, 0, 0, 0, 0, 0, 0, 0, 0, 0, 0, 0, 0, 0, 0, 0, 0, 0, 0, 0, 0, 0, 0, 0, 0, 0, 0, 0, 0, 0, 0, 0, 0, 0, 0, 0, 0, 0, 0, 0, 0, 0, 0, 0, 0, 0, 0, 0, 0, 0, 0, 0, 0, 0, 0, 0, 0, 0, 0, 0, 0, 0, 0, 0, 0, 0, 0, 0, 0, 0, 0, 0, 0, 0, 0, 0, 0, 0, 0, 0, 0, 0, 0, 0, 0, 0, 0, 0, 0, 0, 0, 0, 0, 0, 0, 0, 0, 0, 0, 0, 0, 0, 0, 0, 0, 0, 0, 0, 0, 0, 0, 0, 0, 0, 0, 0, 0, 0, 0, 0, 0, 0, 0, 0, 0, 0, 0, 0, 0, 0, 0, 0, 0, 0, 0, 0, 0, 0, 0, 0, 0, 0, 0, 0, 0, 0, 0, 0, 0, 0, 0, 0, 0, 0, 0, 0, 0, 0, 0, 0, 0, 0, 0, 0, 0, 0, 0, 0, 0, 0, 0, 0, 0, 0, 0, 0, 0, 0, 0, 0, 0, 0, 0, 0, 0, 0, 0, 0, 0, 0, 0, 0, 0, 0, 0, 0, 0, 0, 0, 0, 0, 0, 0, 0, 0, 0, 0, 0, 0, 0, 0, 0, 0, 0, 0, 0, 0, 0, 0, 0, 0, 0, 0, 0, 0, 0, 0, 0, 0, 0, 0, 0, 0, 0, 0, 0, 0, 0, 0, 0, 0, 0, 0, 0, 0, 0, 0, 0, 0, 0, 0, 0, 0, 0, 0, 0, 0, 0]
---
header:
  stamp:
    sec: 229
    nanosec: 162000000
  frame_id: base_scan
angle_min: 0
angle_max: 6.28
angle_increment: 0.017493036
time_increment: 0
scan_time: 0
range_min: 0.12
range_max: 3.5
ranges: [2.968758, 3.0263915, 3.0676212, 1.0298294, 1.0112705, 0.9650914, 0.9856897, 0.96885186, 0.9386044, 0.9247575, 0.9498863, 0.94268805, 0.95286965, 0.94593143, 0.980409, 0.9849332, 0.980546, 1.0302858, inf, inf, inf, inf, inf, 2.0719883, 1.9974211, 1.9698229, 1.9539793, 1.9700304, 1.9478197, 1.970943, 2.0109367, 2.0634372, 3.0349998, 3.0360558, 3.0492935, 3.0912066, inf, inf, inf, inf, inf, inf, inf, inf, inf, inf, inf, inf, inf, inf, inf, 3.0405033, 3.0131657, 2.9985323, 1.967384, 1.9450191, 1.931904, 1.9076504, 1.9333028, 1.9352981, 1.9563775, 1.9824412, inf, inf, 0.9727847, 0.9467898, 0.9161734, 0.9141937, 0.90299493, 0.8868346, 0.90567183, 0.888818, 0.881163, 0.8765103, 0.8866627, 0.87539214, 0.90984654, 0.9018189, 0.9231579, 0.9510948, 1.0081332, 2.4305067, 2.4092245, 2.4352698, 2.43851, 2.4865317, inf, inf, inf, inf, inf, inf, inf, inf, inf, inf, inf, inf, inf, inf, 1.7334664, 1.7043816, 1.7000542, 1.6760545, 1.686344, 1.6920654, 1.698026, 1.7227457, 1.7543293, 3.3252165, 3.313773, 3.2824419, 3.2460587, 3.2395313, 3.2122896, 3.189767, 3.1689842, 3.0908015, 2.8828, 2.6983905, 2.5588908, 2.554192, 2.5729833, 2.5350597, 2.5219803, 2.5199835, 2.5159948, 2.4894214, 2.4939237, 2.4130144, 2.3480034, 2.268204, 2.2017477, 2.1399658, 2.0476847, 2.0076575, 1.9566295, 1.8984821, 1.8327076, 1.8173628, 1.7287974, 1.7144021, 1.6868505, 1.6310647, 1.5935004, 1.5960364, 1.538049, 1.5035561, 1.4861748, 1.4601973, 1.4577564, 1.414664, 1.3892615, 1.3721296, 1.3458742, 1.3194841, 1.3368186, 1.2967367, 1.2903959, 1.2605835, 1.2545737, 1.2197298, 1.2333587, 1.2107576, 1.184793, 1.1730028, 1.1711756, 1.156102, 1.1547136, 1.1292969, 1.145231, 1.1153748, 1.1003847, 1.1066626, 1.1162226, 1.1181359, 1.1022493, 1.0814075, 1.0653474, 1.0687957, 1.0642357, 1.0726676, 1.072897, 1.0368584, 1.0614315, 1.0561715, 1.0380402, 1.0484763, 1.0382215, 1.0559248, 1.0489347, 1.0441365, 1.0412408, 1.0545756, 1.0423844, 1.0381938, 1.0152742, 1.0039032, 0.9803259, 0.95383376, 0.9388246, 0.916943, 0.88683754, 0.8518289, 0.85087425, 0.84109634, 0.8258739, 0.8135971, 0.78250736, 0.76720256, 0.769004, 0.7696733, 0.7395708, 0.73654526, 0.71136135, 0.6942587, 0.7014802, 0.6855435, 0.6746777, 0.672678, 0.6775172, 0.6604488, 0.6441326, 0.64095145, 0.64470035, 0.62224203, 0.62007856, 0.62815577, 0.5989977, 0.60859543, 0.614467, 0.58438337, 0.5835473, 0.588049, 0.5820566, 0.5883031, 0.57423854, 0.6061747, 0.5621032, 0.55879605, 0.5805349, 0.5676438, 0.566145, 0.56491554, 0.55907565, 0.56525487, 0.5577846, 0.5396567, 0.569827, 0.5648555, 0.54938084, 0.534003, 0.564765, 0.5569771, 0.55365074, 0.5393472, 0.56116974, 0.54396385, 0.5627367, 0.5501617, 0.5683554, 0.5588161, 0.54725164, 0.5633, 0.5767672, 0.57759535, 0.57186073, 0.5721405, 0.56711644, 0.5828796, 0.57739925, 0.5879499, 0.58463055, 0.5987327, 0.5928385, 0.60006577, 0.599796, 0.61334765, 0.63492197, 0.64765006, 0.6167138, 0.62407875, 0.6515495, 0.64296436, 0.63917875, 0.65619415, 0.6551529, 0.6625181, 0.6680754, 0.68763036, 0.6940375, 0.69169784, 0.7139768, 0.7094354, 0.72303593, 0.7447491, 0.7516601, 0.76032376, 0.7769624, 0.7938432, 0.77837837, 0.8212614, 0.8296382, 0.8418684, 0.88853145, 0.89246947, 0.92597437, 0.9199414, 0.94816434, 0.99019873, 1.0093054, 1.0364206, 1.0606359, 1.0942929, 1.1441176, 1.1749084, 1.2007025, 1.2469035, 1.3049122, 1.349313, 1.3851744, 1.4639925, 1.5224675, 1.5365126, 1.5556614, 1.5672514, 1.5494921, 1.5417135, 1.5575906, 1.5673043, 1.5876715, 1.593215, 1.6041077, 1.6097177, 1.6106366, 1.6483264, 1.7853377, 2.1042728, 2.2563553, 2.2868707, 2.3017266, 2.3360088, 2.3402827, 2.3711984, 2.3875248, 2.4037101, 2.4377508, 2.4726865, 2.4987993, 2.5282536, 2.5635355, 2.5982862, 2.6400175, 2.665942, 2.725687, 2.7526186, 2.7871566, 2.828458, 2.8753457, 2.9547157]
intensities: [0, 0, 0, 0, 0, 0, 0, 0, 0, 0, 0, 0, 0, 0, 0, 0, 0, 0, 0, 0, 0, 0, 0, 0, 0, 0, 0, 0, 0, 0, 0, 0, 0, 0, 0, 0, 0, 0, 0, 0, 0, 0, 0, 0, 0, 0, 0, 0, 0, 0, 0, 0, 0, 0, 0, 0, 0, 0, 0, 0, 0, 0, 0, 0, 0, 0, 0, 0, 0, 0, 0, 0, 0, 0, 0, 0, 0, 0, 0, 0, 0, 0, 0, 0, 0, 0, 0, 0, 0, 0, 0, 0, 0, 0, 0, 0, 0, 0, 0, 0, 0, 0, 0, 0, 0, 0, 0, 0, 0, 0, 0, 0, 0, 0, 0, 0, 0, 0, 0, 0, 0, 0, 0, 0, 0, 0, 0, 0, 0, 0, 0, 0, 0, 0, 0, 0, 0, 0, 0, 0, 0, 0, 0, 0, 0, 0, 0, 0, 0, 0, 0, 0, 0, 0, 0, 0, 0, 0, 0, 0, 0, 0, 0, 0, 0, 0, 0, 0, 0, 0, 0, 0, 0, 0, 0, 0, 0, 0, 0, 0, 0, 0, 0, 0, 0, 0, 0, 0, 0, 0, 0, 0, 0, 0, 0, 0, 0, 0, 0, 0, 0, 0, 0, 0, 0, 0, 0, 0, 0, 0, 0, 0, 0, 0, 0, 0, 0, 0, 0, 0, 0, 0, 0, 0, 0, 0, 0, 0, 0, 0, 0, 0, 0, 0, 0, 0, 0, 0, 0, 0, 0, 0, 0, 0, 0, 0, 0, 0, 0, 0, 0, 0, 0, 0, 0, 0, 0, 0, 0, 0, 0, 0, 0, 0, 0, 0, 0, 0, 0, 0, 0, 0, 0, 0, 0, 0, 0, 0, 0, 0, 0, 0, 0, 0, 0, 0, 0, 0, 0, 0, 0, 0, 0, 0, 0, 0, 0, 0, 0, 0, 0, 0, 0, 0, 0, 0, 0, 0, 0, 0, 0, 0, 0, 0, 0, 0, 0, 0, 0, 0, 0, 0, 0, 0, 0, 0, 0, 0, 0, 0, 0, 0, 0, 0, 0, 0, 0, 0, 0, 0, 0, 0, 0, 0, 0, 0, 0, 0, 0, 0, 0, 0, 0, 0, 0, 0, 0, 0, 0, 0]
---
header:
  stamp:
    sec: 229
    nanosec: 362000000
  frame_id: base_scan
angle_min: 0
angle_max: 6.28
angle_increment: 0.017493036
time_increment: 0
scan_time: 0
range_min: 0.12
range_max: 3.5
ranges: [2.95318, 3.0158052, 3.0414832, 1.0138605, 0.97516614, 0.96938485, 0.95501155, 0.9495229, 0.93435496, 0.9501651, 0.9494475, 0.9391377, 0.9504177, 0.9467862, 0.9565002, 0.9518057, 0.9771262, 1.0192382, 1.0656334, inf, inf, inf, inf, inf, 1.996438, 1.9518058, 1.9381336, 1.9421098, 1.9558499, 1.9619403, 1.9821924, 2.0347514, 3.0270374, 3.0192046, 3.0189743, 3.046631, inf, inf, inf, inf, inf, inf, inf, inf, inf, inf, inf, inf, inf, inf, inf, 3.019062, 3.0088696, 2.993611, 1.9972929, 1.9571024, 1.9185102, 1.9149772, 1.9051225, 1.930627, 1.9239535, 1.9836608, inf, inf, inf, 0.9447733, 0.92792934, 0.92026603, 0.9044063, 0.8913011, 0.880385, 0.87593853, 0.8763828, 0.8667879, 0.890969, 0.87701726, 0.88307667, 0.90629923, 0.9015594, 0.9400775, 0.96079856, 2.4193804, 2.4119751, 2.4115608, 2.423944, 2.4712937, inf, inf, inf, inf, inf, inf, inf, inf, inf, inf, inf, inf, inf, inf, 1.7651883, 1.7088968, 1.6938113, 1.697382, 1.677808, 1.686071, 1.7023656, 1.7258303, 1.7372503, 3.3297412, 3.313861, 3.2841485, 3.2608633, 3.2308307, 3.2109199, 3.2090619, 3.168625, 3.1590247, 2.9310288, 2.736391, 2.579086, 2.5726762, 2.5365872, 2.5346644, 2.5382578, 2.5229008, 2.4989212, 2.512756, 2.5148077, 2.467219, 2.3688161, 2.2738187, 2.2209997, 2.1340795, 2.065804, 2.0232182, 1.9739015, 1.9193587, 1.8719708, 1.8364252, 1.7754099, 1.722313, 1.6861492, 1.6545851, 1.644625, 1.6033981, 1.5505816, 1.5384066, 1.5116842, 1.4852262, 1.4426938, 1.4271201, 1.4076817, 1.3860476, 1.3552312, 1.3472368, 1.3248223, 1.3193082, 1.2875692, 1.2739772, 1.2655159, 1.2414463, 1.2341974, 1.2176589, 1.2061045, 1.1902441, 1.1921209, 1.1918421, 1.1626133, 1.1706355, 1.1469647, 1.141726, 1.1326152, 1.1276904, 1.1232085, 1.1168423, 1.1070981, 1.0948561, 1.1035392, 1.0770813, 1.0854781, 1.0681959, 1.0592157, 1.0781093, 1.0567033, 1.0606636, 1.0688176, 1.0591426, 1.0409088, 1.0643301, 1.0554131, 1.0656784, 1.0551008, 1.0518345, 1.0622895, 1.0569007, 1.0354335, 0.9961408, 0.9807121, 0.9554538, 0.9398843, 0.90911305, 0.8974312, 0.8869846, 0.85356003, 0.8620908, 0.8304733, 0.80729115, 0.80198526, 0.78289914, 0.7652194, 0.7579961, 0.7299337, 0.7161653, 0.72300655, 0.7061141, 0.7026709, 0.7105042, 0.6766533, 0.68414575, 0.66936016, 0.6602147, 0.65862525, 0.6523191, 0.63910055, 0.6410948, 0.6284036, 0.62786907, 0.594326, 0.6061633, 0.6093743, 0.5982858, 0.6087626, 0.58670163, 0.60408235, 0.60727274, 0.5935695, 0.57501113, 0.5809038, 0.56267875, 0.55720425, 0.5742536, 0.5658778, 0.57603836, 0.56970507, 0.5725379, 0.55268604, 0.572813, 0.56385624, 0.5412926, 0.5611467, 0.57565594, 0.5575562, 0.556946, 0.5628083, 0.5626736, 0.5512795, 0.55955887, 0.55638146, 0.5783913, 0.5513163, 0.5657156, 0.563775, 0.55676, 0.5683624, 0.5518316, 0.5694491, 0.5638398, 0.5895183, 0.58742005, 0.5650945, 0.5866684, 0.59141916, 0.58897877, 0.6036049, 0.60148424, 0.61171013, 0.6076419, 0.6168461, 0.6176199, 0.6369396, 0.63262314, 0.6303001, 0.6441432, 0.6385074, 0.6430611, 0.67603415, 0.6514913, 0.6758591, 0.6845755, 0.70936096, 0.6935146, 0.72436875, 0.7079114, 0.7362864, 0.7312566, 0.75332016, 0.77831554, 0.76909465, 0.792979, 0.82355195, 0.83654666, 0.8597584, 0.8758365, 0.8825243, 0.89827037, 0.92350787, 0.93926, 0.96155936, 0.98884636, 1.0106585, 1.0395536, 1.0791448, 1.1342517, 1.1372411, 1.1831186, 1.2024136, 1.2733272, 1.3043206, 1.3609335, 1.4174508, 1.4724318, 1.543669, 1.5161058, 1.5365113, 1.5418212, 1.5434865, 1.5518242, 1.5386504, 1.5786893, 1.5791606, 1.5915279, 1.5866514, 1.5909624, 1.6125695, 1.6258535, 1.8091767, 2.1321218, 2.2628448, 2.2566144, 2.2922864, 2.3219318, 2.328498, 2.3664515, 2.3799682, 2.3995879, 2.422964, 2.4578395, 2.4878876, 2.5281925, 2.532047, 2.564566, 2.6347532, 2.6704001, 2.7076144, 2.7344413, 2.7857711, 2.8391516, 2.8764591, 2.9561868]
intensities: [0, 0, 0, 0, 0, 0, 0, 0, 0, 0, 0, 0, 0, 0, 0, 0, 0, 0, 0, 0, 0, 0, 0, 0, 0, 0, 0, 0, 0, 0, 0, 0, 0, 0, 0, 0, 0, 0, 0, 0, 0, 0, 0, 0, 0, 0, 0, 0, 0, 0, 0, 0, 0, 0, 0, 0, 0, 0, 0, 0, 0, 0, 0, 0, 0, 0, 0, 0, 0, 0, 0, 0, 0, 0, 0, 0, 0, 0, 0, 0, 0, 0, 0, 0, 0, 0, 0, 0, 0, 0, 0, 0, 0, 0, 0, 0, 0, 0, 0, 0, 0, 0, 0, 0, 0, 0, 0, 0, 0, 0, 0, 0, 0, 0, 0, 0, 0, 0, 0, 0, 0, 0, 0, 0, 0, 0, 0, 0, 0, 0, 0, 0, 0, 0, 0, 0, 0, 0, 0, 0, 0, 0, 0, 0, 0, 0, 0, 0, 0, 0, 0, 0, 0, 0, 0, 0, 0, 0, 0, 0, 0, 0, 0, 0, 0, 0, 0, 0, 0, 0, 0, 0, 0, 0, 0, 0, 0, 0, 0, 0, 0, 0, 0, 0, 0, 0, 0, 0, 0, 0, 0, 0, 0, 0, 0, 0, 0, 0, 0, 0, 0, 0, 0, 0, 0, 0, 0, 0, 0, 0, 0, 0, 0, 0, 0, 0, 0, 0, 0, 0, 0, 0, 0, 0, 0, 0, 0, 0, 0, 0, 0, 0, 0, 0, 0, 0, 0, 0, 0, 0, 0, 0, 0, 0, 0, 0, 0, 0, 0, 0, 0, 0, 0, 0, 0, 0, 0, 0, 0, 0, 0, 0, 0, 0, 0, 0, 0, 0, 0, 0, 0, 0, 0, 0, 0, 0, 0, 0, 0, 0, 0, 0, 0, 0, 0, 0, 0, 0, 0, 0, 0, 0, 0, 0, 0, 0, 0, 0, 0, 0, 0, 0, 0, 0, 0, 0, 0, 0, 0, 0, 0, 0, 0, 0, 0, 0, 0, 0, 0, 0, 0, 0, 0, 0, 0, 0, 0, 0, 0, 0, 0, 0, 0, 0, 0, 0, 0, 0, 0, 0, 0, 0, 0, 0, 0, 0, 0, 0, 0, 0, 0, 0, 0, 0, 0, 0, 0, 0, 0, 0]
---
header:
  stamp:
    sec: 229
    nanosec: 562000000
  frame_id: base_scan
angle_min: 0
angle_max: 6.28
angle_increment: 0.017493036
time_increment: 0
scan_time: 0
range_min: 0.12
range_max: 3.5
ranges: [2.912658, 2.9883516, 3.048014, 0.9889199, 0.99132234, 0.9491252, 0.9284638, 0.9311754, 0.91731864, 0.9113586, 0.9154129, 0.93542427, 0.9330326, 0.9215015, 0.9478193, 0.93453807, 0.9537409, 0.98852944, 1.0070312, inf, inf, inf, inf, inf, 1.9940372, 1.9270265, 1.9389896, 1.9210012, 1.9327216, 1.9324683, 1.9458653, 2.0123785, 2.9959123, 2.9994771, 3.0025034, 3.0248342, inf, inf, inf, inf, inf, inf, inf, inf, inf, inf, inf, inf, inf, inf, inf, 3.0363374, 2.9991503, 2.9882524, 2.0240963, 1.9692947, 1.9197956, 1.9079071, 1.9069377, 1.8976225, 1.9296552, 1.9490801, 1.997896, inf, inf, inf, 0.9505091, 0.90859985, 0.91045606, 0.8966342, 0.888226, 0.88162076, 0.87704813, 0.87068963, 0.8521102, 0.8953699, 0.8835798, 0.8799033, 0.9089769, 0.8947478, 0.9185358, 0.94736063, 2.4167273, 2.3927352, 2.4183054, 2.4586835, 2.5049846, inf, inf, inf, inf, inf, inf, inf, inf, inf, inf, inf, inf, inf, inf, 1.7541701, 1.7295069, 1.6999038, 1.6870944, 1.6919229, 1.6935111, 1.6868464, 1.7016716, 1.7681522, 3.3341894, 3.303668, 3.2785797, 3.2506878, 3.2214124, 3.2225075, 3.2126684, 3.1693225, 3.0230038, 2.8242006, 2.6295202, 2.5827072, 2.5591893, 2.5587256, 2.547284, 2.543827, 2.536116, 2.5245187, 2.5223334, 2.5024939, 2.4074297, 2.3494618, 2.2643363, 2.1722684, 2.1234822, 2.064155, 1.998766, 1.9330759, 1.8971609, 1.8579919, 1.801053, 1.7716424, 1.7202569, 1.6915678, 1.6587905, 1.6219116, 1.5878944, 1.5559222, 1.5287626, 1.5099331, 1.4777703, 1.4534968, 1.4276698, 1.4102176, 1.398742, 1.3725504, 1.3415343, 1.3297687, 1.3074579, 1.2858332, 1.2699442, 1.2764812, 1.2390374, 1.2474965, 1.2360189, 1.2001735, 1.2079352, 1.2000791, 1.1581526, 1.1768019, 1.1588317, 1.1427208, 1.1554807, 1.1452237, 1.1496704, 1.1404439, 1.1308808, 1.1235387, 1.1357117, 1.1012148, 1.1069962, 1.1011701, 1.0882946, 1.0918809, 1.082684, 1.0725886, 1.0985113, 1.0939232, 1.0910082, 1.0885383, 1.0797883, 1.067719, 1.0580276, 1.0777985, 1.0573008, 1.0677352, 1.0316099, 1.0193125, 0.989604, 0.95616084, 0.9492665, 0.9119271, 0.9015067, 0.8911041, 0.86595476, 0.85624486, 0.83110994, 0.8005633, 0.8014109, 0.79242736, 0.7674788, 0.7427865, 0.75365895, 0.74538016, 0.7330714, 0.70554847, 0.7045512, 0.698219, 0.68172526, 0.68099296, 0.66358745, 0.6623317, 0.6722072, 0.66953665, 0.6646949, 0.6387191, 0.64192915, 0.6236815, 0.62996197, 0.62547034, 0.612165, 0.6134882, 0.6120018, 0.5924071, 0.58237314, 0.5822069, 0.57479155, 0.5772729, 0.5953534, 0.57792604, 0.58578813, 0.58927655, 0.56442577, 0.5832906, 0.56351805, 0.57738996, 0.56563467, 0.5643143, 0.5709086, 0.5713298, 0.5574902, 0.560501, 0.5529913, 0.5649455, 0.5678925, 0.55426055, 0.56302977, 0.5653259, 0.56573707, 0.5644505, 0.5672525, 0.5682227, 0.54723346, 0.57188267, 0.56835085, 0.5789091, 0.5619358, 0.5914003, 0.5769634, 0.57349014, 0.5827297, 0.58742845, 0.6126249, 0.59700763, 0.5941411, 0.57472116, 0.60662526, 0.60925096, 0.61509335, 0.6136202, 0.63799226, 0.619351, 0.64150923, 0.63511914, 0.65337336, 0.67832506, 0.65938413, 0.64432144, 0.6933222, 0.68607455, 0.7134824, 0.7233907, 0.72078747, 0.7533529, 0.74131286, 0.74364954, 0.75761217, 0.77159315, 0.780534, 0.8083821, 0.8377424, 0.82970685, 0.8494997, 0.8702754, 0.8929933, 0.9205231, 0.91558754, 0.94774276, 0.9663898, 1.0146713, 1.0201665, 1.056505, 1.0889746, 1.1137859, 1.1487129, 1.1651278, 1.2401947, 1.2837974, 1.3099827, 1.369932, 1.4253908, 1.481094, 1.5042089, 1.5322881, 1.5089309, 1.5323879, 1.5332031, 1.5314683, 1.5373242, 1.559256, 1.5520604, 1.5652928, 1.5737817, 1.5861444, 1.5878007, 1.628721, 1.8518664, 2.1658487, 2.2361503, 2.262056, 2.265739, 2.308946, 2.3223412, 2.3352582, 2.3738542, 2.385448, 2.4053426, 2.4415247, 2.4730413, 2.5061538, 2.5300722, 2.5820744, 2.5974267, 2.657739, 2.6773992, 2.717363, 2.7796185, 2.8159597, 2.8715928, 2.922649]
intensities: [0, 0, 0, 0, 0, 0, 0, 0, 0, 0, 0, 0, 0, 0, 0, 0, 0, 0, 0, 0, 0, 0, 0, 0, 0, 0, 0, 0, 0, 0, 0, 0, 0, 0, 0, 0, 0, 0, 0, 0, 0, 0, 0, 0, 0, 0, 0, 0, 0, 0, 0, 0, 0, 0, 0, 0, 0, 0, 0, 0, 0, 0, 0, 0, 0, 0, 0, 0, 0, 0, 0, 0, 0, 0, 0, 0, 0, 0, 0, 0, 0, 0, 0, 0, 0, 0, 0, 0, 0, 0, 0, 0, 0, 0, 0, 0, 0, 0, 0, 0, 0, 0, 0, 0, 0, 0, 0, 0, 0, 0, 0, 0, 0, 0, 0, 0, 0, 0, 0, 0, 0, 0, 0, 0, 0, 0, 0, 0, 0, 0, 0, 0, 0, 0, 0, 0, 0, 0, 0, 0, 0, 0, 0, 0, 0, 0, 0, 0, 0, 0, 0, 0, 0, 0, 0, 0, 0, 0, 0, 0, 0, 0, 0, 0, 0, 0, 0, 0, 0, 0, 0, 0, 0, 0, 0, 0, 0, 0, 0, 0, 0, 0, 0, 0, 0, 0, 0, 0, 0, 0, 0, 0, 0, 0, 0, 0, 0, 0, 0, 0, 0, 0, 0, 0, 0, 0, 0, 0, 0, 0, 0, 0, 0, 0, 0, 0, 0, 0, 0, 0, 0, 0, 0, 0, 0, 0, 0, 0, 0, 0, 0, 0, 0, 0, 0, 0, 0, 0, 0, 0, 0, 0, 0, 0, 0, 0, 0, 0, 0, 0, 0, 0, 0, 0, 0, 0, 0, 0, 0, 0, 0, 0, 0, 0, 0, 0, 0, 0, 0, 0, 0, 0, 0, 0, 0, 0, 0, 0, 0, 0, 0, 0, 0, 0, 0, 0, 0, 0, 0, 0, 0, 0, 0, 0, 0, 0, 0, 0, 0, 0, 0, 0, 0, 0, 0, 0, 0, 0, 0, 0, 0, 0, 0, 0, 0, 0, 0, 0, 0, 0, 0, 0, 0, 0, 0, 0, 0, 0, 0, 0, 0, 0, 0, 0, 0, 0, 0, 0, 0, 0, 0, 0, 0, 0, 0, 0, 0, 0, 0, 0, 0, 0, 0, 0, 0, 0, 0, 0, 0, 0]
---
header:
  stamp:
    sec: 229
    nanosec: 762000000
  frame_id: base_scan
angle_min: 0
angle_max: 6.28
angle_increment: 0.017493036
time_increment: 0
scan_time: 0
range_min: 0.12
range_max: 3.5
ranges: [2.901757, 2.9678679, 3.0044186, 0.98617864, 0.9701026, 0.95571333, 0.91790277, 0.9101997, 0.92691857, 0.9075573, 0.91946083, 0.9095912, 0.91458774, 0.9127575, 0.8965008, 0.93732613, 0.9176053, 0.9307288, 0.9812727, inf, inf, inf, inf, inf, 1.9883441, 1.9345084, 1.9196657, 1.9172013, 1.9275857, 1.9097689, 1.9267019, 1.9666541, 3.0039625, 2.9899948, 2.9963238, 3.0010946, 3.0748749, inf, inf, inf, inf, inf, inf, inf, inf, inf, inf, inf, inf, inf, inf, 3.0644546, 3.0099237, 2.9779937, 2.9778857, 2.0005949, 1.9180261, 1.920625, 1.8942791, 1.8943563, 1.9024763, 1.9114128, 1.9454002, inf, inf, inf, inf, 0.9543771, 0.9216943, 0.91446847, 0.89922774, 0.881084, 0.8739128, 0.88630486, 0.86484486, 0.8567696, 0.8581132, 0.86781013, 0.8592382, 0.89290655, 0.8942308, 0.933282, 0.94582117, 0.9850882, 2.4041703, 2.4299319, 2.4515867, inf, inf, inf, inf, inf, inf, inf, inf, inf, inf, inf, inf, inf, inf, 1.787059, 1.7487646, 1.7045255, 1.6958363, 1.6912385, 1.6939514, 1.6994971, 1.7216069, 1.7441125, 1.7816001, 3.3163388, 3.2844043, 3.2663462, 3.2360535, 3.2403004, 3.2198884, 3.1980495, 3.1041842, 2.9033384, 2.7227483, 2.6091309, 2.5622225, 2.5648162, 2.549191, 2.5343754, 2.5471063, 2.5377638, 2.5246894, 2.530064, 2.4533076, 2.3891034, 2.3087437, 2.2165058, 2.167157, 2.1162033, 2.038202, 1.9854722, 1.9425929, 1.8884479, 1.8305085, 1.8030655, 1.7654028, 1.7103536, 1.6778234, 1.6641796, 1.6193542, 1.5818129, 1.5533211, 1.5181314, 1.4780127, 1.4732329, 1.4531009, 1.425747, 1.4317952, 1.3946297, 1.3850722, 1.3710341, 1.335975, 1.362832, 1.2939184, 1.2991844, 1.2733121, 1.2791429, 1.2351762, 1.2282987, 1.2306311, 1.2215784, 1.2107944, 1.194435, 1.1983556, 1.166795, 1.1596029, 1.1557063, 1.1625459, 1.148691, 1.1232358, 1.129327, 1.1208454, 1.1166352, 1.1323495, 1.106636, 1.1195526, 1.106605, 1.0939282, 1.1003898, 1.0905957, 1.1043552, 1.0820218, 1.079179, 1.082724, 1.0870562, 1.0901656, 1.0748996, 1.0793788, 1.0785154, 1.0841724, 1.041177, 1.002021, 0.9686747, 0.9548131, 0.94585884, 0.9080095, 0.8869366, 0.8872977, 0.86817384, 0.83314884, 0.83114725, 0.7949535, 0.8030884, 0.77799654, 0.7725549, 0.74504113, 0.75324196, 0.7397904, 0.7315405, 0.71462214, 0.71522695, 0.72213876, 0.6999218, 0.6729009, 0.66675025, 0.6593568, 0.6504997, 0.65663785, 0.633061, 0.63336426, 0.6295324, 0.6172567, 0.6175872, 0.631119, 0.60543317, 0.6035498, 0.6169694, 0.6062064, 0.5971717, 0.5780316, 0.5794083, 0.6078613, 0.5805601, 0.5735608, 0.59406143, 0.5660825, 0.5561556, 0.58356965, 0.58130324, 0.5827237, 0.5617166, 0.5598948, 0.57558256, 0.56450254, 0.5572847, 0.546476, 0.5625474, 0.56153405, 0.5513203, 0.56540847, 0.56641203, 0.55902934, 0.54975593, 0.5786629, 0.57753307, 0.56593835, 0.56676465, 0.5710975, 0.58474755, 0.5819073, 0.57456875, 0.57946676, 0.6039007, 0.58237094, 0.5866891, 0.5834641, 0.60403967, 0.6067895, 0.6190798, 0.60507345, 0.6216223, 0.63116384, 0.62428194, 0.64802974, 0.6377492, 0.63912046, 0.65879124, 0.65124583, 0.6855025, 0.6646503, 0.6687838, 0.67397034, 0.68445927, 0.6969433, 0.7187886, 0.73361367, 0.71476215, 0.7303139, 0.75716454, 0.7611738, 0.77610207, 0.802931, 0.81145203, 0.8221019, 0.84158474, 0.8514929, 0.86757046, 0.89390314, 0.91672206, 0.9248827, 0.9521167, 0.9624055, 0.99979985, 1.0292614, 1.063977, 1.076605, 1.1303251, 1.15084, 1.1963477, 1.2164601, 1.2529281, 1.3048121, 1.3786262, 1.438957, 1.4986994, 1.5070273, 1.5021185, 1.51169, 1.5200603, 1.4918232, 1.5268173, 1.5208023, 1.5331593, 1.5443565, 1.5767955, 1.558291, 1.5729603, 1.5743202, 1.6101086, 1.8656002, 2.1064992, 2.236839, 2.2372446, 2.2681344, 2.2522542, 2.2987676, 2.3394108, 2.3322282, 2.3588252, 2.4052327, 2.4301174, 2.4424975, 2.4970286, 2.5282445, 2.543249, 2.5962, 2.6223989, 2.6724253, 2.7011988, 2.7529585, 2.7927191, 2.8283904, 2.8991632]
intensities: [0, 0, 0, 0, 0, 0, 0, 0, 0, 0, 0, 0, 0, 0, 0, 0, 0, 0, 0, 0, 0, 0, 0, 0, 0, 0, 0, 0, 0, 0, 0, 0, 0, 0, 0, 0, 0, 0, 0, 0, 0, 0, 0, 0, 0, 0, 0, 0, 0, 0, 0, 0, 0, 0, 0, 0, 0, 0, 0, 0, 0, 0, 0, 0, 0, 0, 0, 0, 0, 0, 0, 0, 0, 0, 0, 0, 0, 0, 0, 0, 0, 0, 0, 0, 0, 0, 0, 0, 0, 0, 0, 0, 0, 0, 0, 0, 0, 0, 0, 0, 0, 0, 0, 0, 0, 0, 0, 0, 0, 0, 0, 0, 0, 0, 0, 0, 0, 0, 0, 0, 0, 0, 0, 0, 0, 0, 0, 0, 0, 0, 0, 0, 0, 0, 0, 0, 0, 0, 0, 0, 0, 0, 0, 0, 0, 0, 0, 0, 0, 0, 0, 0, 0, 0, 0, 0, 0, 0, 0, 0, 0, 0, 0, 0, 0, 0, 0, 0, 0, 0, 0, 0, 0, 0, 0, 0, 0, 0, 0, 0, 0, 0, 0, 0, 0, 0, 0, 0, 0, 0, 0, 0, 0, 0, 0, 0, 0, 0, 0, 0, 0, 0, 0, 0, 0, 0, 0, 0, 0, 0, 0, 0, 0, 0, 0, 0, 0, 0, 0, 0, 0, 0, 0, 0, 0, 0, 0, 0, 0, 0, 0, 0, 0, 0, 0, 0, 0, 0, 0, 0, 0, 0, 0, 0, 0, 0, 0, 0, 0, 0, 0, 0, 0, 0, 0, 0, 0, 0, 0, 0, 0, 0, 0, 0, 0, 0, 0, 0, 0, 0, 0, 0, 0, 0, 0, 0, 0, 0, 0, 0, 0, 0, 0, 0, 0, 0, 0, 0, 0, 0, 0, 0, 0, 0, 0, 0, 0, 0, 0, 0, 0, 0, 0, 0, 0, 0, 0, 0, 0, 0, 0, 0, 0, 0, 0, 0, 0, 0, 0, 0, 0, 0, 0, 0, 0, 0, 0, 0, 0, 0, 0, 0, 0, 0, 0, 0, 0, 0, 0, 0, 0, 0, 0, 0, 0, 0, 0, 0, 0, 0, 0, 0, 0, 0, 0, 0, 0, 0, 0, 0]
---
header:
  stamp:
    sec: 229
    nanosec: 962000000
  frame_id: base_scan
angle_min: 0
angle_max: 6.28
angle_increment: 0.017493036
time_increment: 0
scan_time: 0
range_min: 0.12
range_max: 3.5
ranges: [2.855273, 2.9222753, 2.9799979, 0.9784885, 0.9144388, 0.91864854, 0.9044644, 0.89091706, 0.89857036, 0.8865523, 0.8643886, 0.887418, 0.864047, 0.88349813, 0.8836894, 0.8773452, 0.89432085, 0.9133005, 0.93516505, 0.9601736, inf, inf, inf, inf, inf, 1.947993, 1.9127427, 1.8819731, 1.8842403, 1.8756036, 1.8878753, 1.9398941, 1.967608, 2.946912, 2.9581504, 2.9782495, 3.0019946, inf, inf, inf, inf, inf, inf, inf, inf, inf, inf, inf, inf, inf, inf, inf, 3.0139735, 2.9706254, 2.9554787, 2.9566934, 1.9406728, 1.9151802, 1.9070845, 1.8710923, 1.8748299, 1.8861707, 1.9020891, 1.9112732, inf, inf, inf, inf, 0.96824723, 0.9281471, 0.9066823, 0.8888063, 0.8863831, 0.88540715, 0.8675461, 0.8679075, 0.87871677, 0.85266244, 0.8691694, 0.87804997, 0.90341455, 0.8857941, 0.8884113, 0.9049739, 0.938538, 2.410363, 2.4340973, 2.4857068, inf, inf, inf, inf, inf, inf, inf, inf, inf, inf, inf, inf, inf, inf, 1.8010722, 1.7450621, 1.7255156, 1.7021202, 1.7048743, 1.7046102, 1.7037256, 1.7162582, 1.773058, 1.8107911, 3.323813, 3.295685, 3.2724946, 3.2588825, 3.2455182, 3.2285948, 3.231973, 3.0307283, 2.8443086, 2.6685958, 2.5862038, 2.5763426, 2.5703993, 2.5562313, 2.5753205, 2.5444198, 2.5726151, 2.5346036, 2.5392041, 2.4537785, 2.3699827, 2.2943273, 2.229148, 2.1678665, 2.0983891, 2.03551, 1.9959198, 1.9369003, 1.9012101, 1.8486117, 1.8030565, 1.7685504, 1.7428592, 1.6962616, 1.6862876, 1.6331717, 1.6087486, 1.5935907, 1.5533459, 1.5146587, 1.5053948, 1.4800276, 1.4782695, 1.4415394, 1.3991135, 1.4034703, 1.3767613, 1.3591844, 1.3430506, 1.3436702, 1.3077466, 1.2913147, 1.2880486, 1.2856181, 1.2612251, 1.2354487, 1.2399946, 1.2508836, 1.2299882, 1.2227812, 1.2058122, 1.1993896, 1.1748276, 1.1991776, 1.1665827, 1.1693772, 1.1433113, 1.144419, 1.1459723, 1.1453252, 1.1371044, 1.1197506, 1.1467206, 1.1263129, 1.1223738, 1.1275656, 1.1301256, 1.1090753, 1.0987611, 1.1250542, 1.1063663, 1.1160506, 1.109544, 1.1022681, 1.0955694, 1.0467587, 1.0222048, 0.9951919, 0.9772458, 0.942702, 0.92777073, 0.9106735, 0.8884375, 0.87304264, 0.8410741, 0.8329036, 0.8248849, 0.7973565, 0.77887696, 0.77344036, 0.76877916, 0.7530841, 0.7406128, 0.71891695, 0.7255568, 0.7264246, 0.71110797, 0.69861495, 0.68750805, 0.68468636, 0.6813168, 0.6657528, 0.65213394, 0.6641547, 0.6574133, 0.6420552, 0.6642353, 0.62570715, 0.63932663, 0.63869345, 0.622778, 0.6077975, 0.59892577, 0.60193014, 0.6167186, 0.59006816, 0.59294355, 0.6052536, 0.5892266, 0.59479576, 0.58493114, 0.5743782, 0.60850716, 0.5803954, 0.5791986, 0.59440583, 0.5853787, 0.57709527, 0.578555, 0.56669897, 0.5830196, 0.5978594, 0.5737114, 0.5465826, 0.59693354, 0.57565355, 0.5705901, 0.5770205, 0.58505255, 0.5884854, 0.6013167, 0.5821649, 0.59408563, 0.585229, 0.5890078, 0.5833277, 0.5987711, 0.58422464, 0.61547107, 0.59464765, 0.589811, 0.59537506, 0.5963529, 0.61408365, 0.6219851, 0.63519156, 0.63177055, 0.64923203, 0.65269727, 0.6356434, 0.64364755, 0.6641051, 0.6728834, 0.6687665, 0.6777211, 0.70373255, 0.6893809, 0.6998243, 0.70082736, 0.719322, 0.7439355, 0.7320758, 0.7509206, 0.77180266, 0.76740927, 0.7806586, 0.79912335, 0.81144613, 0.8347605, 0.8663239, 0.86955154, 0.8973612, 0.9030284, 0.9348569, 0.9358534, 0.9641699, 0.9906263, 1.0056801, 1.0270087, 1.0654846, 1.1007578, 1.134742, 1.169569, 1.2025125, 1.2467082, 1.2753679, 1.351784, 1.4062424, 1.4183686, 1.464439, 1.4723415, 1.4788423, 1.4848264, 1.4845439, 1.5018257, 1.4943317, 1.5040474, 1.5154641, 1.5156549, 1.5279568, 1.5450281, 1.5524107, 1.5665141, 1.6740183, 1.8707153, 2.1706085, 2.212468, 2.2055545, 2.2463918, 2.243978, 2.2759938, 2.298192, 2.3214276, 2.3419805, 2.3722472, 2.4040267, 2.43393, 2.452403, 2.5019414, 2.533479, 2.570378, 2.586583, 2.625371, 2.6689909, 2.722562, 2.7531867, 2.8006184, 2.8618228]
intensities: [0, 0, 0, 0, 0, 0, 0, 0, 0, 0, 0, 0, 0, 0, 0, 0, 0, 0, 0, 0, 0, 0, 0, 0, 0, 0, 0, 0, 0, 0, 0, 0, 0, 0, 0, 0, 0, 0, 0, 0, 0, 0, 0, 0, 0, 0, 0, 0, 0, 0, 0, 0, 0, 0, 0, 0, 0, 0, 0, 0, 0, 0, 0, 0, 0, 0, 0, 0, 0, 0, 0, 0, 0, 0, 0, 0, 0, 0, 0, 0, 0, 0, 0, 0, 0, 0, 0, 0, 0, 0, 0, 0, 0, 0, 0, 0, 0, 0, 0, 0, 0, 0, 0, 0, 0, 0, 0, 0, 0, 0, 0, 0, 0, 0, 0, 0, 0, 0, 0, 0, 0, 0, 0, 0, 0, 0, 0, 0, 0, 0, 0, 0, 0, 0, 0, 0, 0, 0, 0, 0, 0, 0, 0, 0, 0, 0, 0, 0, 0, 0, 0, 0, 0, 0, 0, 0, 0, 0, 0, 0, 0, 0, 0, 0, 0, 0, 0, 0, 0, 0, 0, 0, 0, 0, 0, 0, 0, 0, 0, 0, 0, 0, 0, 0, 0, 0, 0, 0, 0, 0, 0, 0, 0, 0, 0, 0, 0, 0, 0, 0, 0, 0, 0, 0, 0, 0, 0, 0, 0, 0, 0, 0, 0, 0, 0, 0, 0, 0, 0, 0, 0, 0, 0, 0, 0, 0, 0, 0, 0, 0, 0, 0, 0, 0, 0, 0, 0, 0, 0, 0, 0, 0, 0, 0, 0, 0, 0, 0, 0, 0, 0, 0, 0, 0, 0, 0, 0, 0, 0, 0, 0, 0, 0, 0, 0, 0, 0, 0, 0, 0, 0, 0, 0, 0, 0, 0, 0, 0, 0, 0, 0, 0, 0, 0, 0, 0, 0, 0, 0, 0, 0, 0, 0, 0, 0, 0, 0, 0, 0, 0, 0, 0, 0, 0, 0, 0, 0, 0, 0, 0, 0, 0, 0, 0, 0, 0, 0, 0, 0, 0, 0, 0, 0, 0, 0, 0, 0, 0, 0, 0, 0, 0, 0, 0, 0, 0, 0, 0, 0, 0, 0, 0, 0, 0, 0, 0, 0, 0, 0, 0, 0, 0, 0, 0, 0, 0, 0, 0, 0, 0]
---
header:
  stamp:
    sec: 230
    nanosec: 162000000
  frame_id: base_scan
angle_min: 0
angle_max: 6.28
angle_increment: 0.017493036
time_increment: 0
scan_time: 0
range_min: 0.12
range_max: 3.5
ranges: [2.807685, 2.8941088, 2.9184158, 0.95300645, 0.90965545, 0.8855241, 0.8496838, 0.85425067, 0.85499716, 0.834179, 0.8533604, 0.83888775, 0.8504973, 0.83846563, 0.85668343, 0.83054477, 0.8771127, 0.8544194, 0.89615905, 0.91411364, 0.9449026, inf, inf, inf, inf, 1.9178317, 1.8955135, 1.8673755, 1.8372675, 1.8425183, 1.8627037, 1.8739138, 1.894365, 1.9683917, 2.9258876, 2.9380732, 2.9737818, inf, inf, inf, inf, inf, inf, inf, inf, inf, inf, inf, inf, inf, inf, inf, 3.0421033, 2.958248, 2.9476535, 2.918597, 2.9588783, 1.9088595, 1.8862796, 1.8493611, 1.8605338, 1.8664826, 1.8889309, 1.8948549, 1.9239156, inf, inf, inf, inf, inf, 0.9599106, 0.90661126, 0.8912685, 0.89600056, 0.8680016, 0.8595668, 0.871584, 0.8475578, 0.8426648, 0.8560437, 0.8714473, 0.8538189, 0.85910904, 0.87148297, 0.88175225, 0.9081745, 0.9429678, 2.4404647, 2.5085125, inf, inf, inf, inf, inf, inf, inf, inf, inf, inf, inf, inf, inf, inf, 1.8243592, 1.74623, 1.7250148, 1.7235912, 1.7072775, 1.7105212, 1.7016749, 1.7534629, 1.7515062, 1.8152846, 3.3304672, 3.315489, 3.2838354, 3.267778, 3.2440434, 3.2111356, 3.180517, 2.9942057, 2.8044932, 2.6457314, 2.612031, 2.6273508, 2.5908375, 2.600595, 2.5966697, 2.5831454, 2.588991, 2.5867927, 2.5112503, 2.4374394, 2.3631132, 2.306768, 2.238149, 2.1665666, 2.107451, 2.054115, 2.024502, 1.9445982, 1.9070568, 1.8672156, 1.8236425, 1.793635, 1.7485567, 1.7200845, 1.6740144, 1.6472985, 1.6192553, 1.6062658, 1.5759747, 1.5612738, 1.5392826, 1.4961696, 1.4653009, 1.4550864, 1.4461373, 1.4030687, 1.411313, 1.3950703, 1.3745593, 1.3682436, 1.3314288, 1.3354868, 1.3139441, 1.3009164, 1.2769295, 1.2824897, 1.2675128, 1.2772973, 1.2591999, 1.2457348, 1.2412081, 1.2319839, 1.2176944, 1.2009249, 1.2068137, 1.1864706, 1.1903201, 1.1916782, 1.1868026, 1.1798202, 1.1702244, 1.1681223, 1.1634169, 1.1366404, 1.1728613, 1.1616513, 1.1630958, 1.1576462, 1.1372083, 1.1446062, 1.1623036, 1.1463758, 1.1259494, 1.1049339, 1.0377849, 1.0399374, 1.0384929, 0.9909549, 0.9795779, 0.9464992, 0.9115021, 0.90050393, 0.90424424, 0.87550765, 0.8686918, 0.8374503, 0.82720256, 0.8051661, 0.80080914, 0.78102285, 0.7704409, 0.7666787, 0.74959034, 0.7355836, 0.7355303, 0.71783173, 0.71462995, 0.6957668, 0.7162923, 0.6966278, 0.67178255, 0.6698317, 0.6828796, 0.6480318, 0.6581081, 0.6383142, 0.65566164, 0.63840806, 0.6487946, 0.62162, 0.6343751, 0.62764686, 0.62989324, 0.6170032, 0.61201715, 0.61618876, 0.6141868, 0.59900695, 0.6045418, 0.58602285, 0.6074198, 0.59084284, 0.6002699, 0.6045004, 0.59918267, 0.59936285, 0.5634282, 0.59843343, 0.5918439, 0.6057819, 0.583156, 0.6028762, 0.5782323, 0.60207766, 0.5874307, 0.5917981, 0.57938415, 0.591237, 0.59275526, 0.59678674, 0.590142, 0.60596776, 0.5924337, 0.60750455, 0.5941433, 0.6059121, 0.597914, 0.6168714, 0.6267081, 0.6246325, 0.61243445, 0.61832035, 0.64508, 0.6267606, 0.65269333, 0.6510967, 0.6400018, 0.66157746, 0.65727025, 0.66305697, 0.67799145, 0.67815113, 0.71172404, 0.6902366, 0.7223175, 0.7069399, 0.7275515, 0.74831325, 0.7329423, 0.7387357, 0.7443865, 0.7683283, 0.77983004, 0.79573107, 0.7951359, 0.81798875, 0.82171756, 0.8482185, 0.8641567, 0.8808672, 0.9030277, 0.9219275, 0.9483271, 0.95665485, 0.99012494, 0.9966675, 1.0190432, 1.0582036, 1.0922847, 1.124382, 1.1496826, 1.2000057, 1.2159666, 1.2648739, 1.3174813, 1.3632025, 1.4088577, 1.4516268, 1.4543418, 1.4621739, 1.4613156, 1.4618063, 1.482589, 1.4707719, 1.4654166, 1.4762828, 1.4786748, 1.4901896, 1.5014045, 1.5223082, 1.5452843, 1.5357879, 1.7402756, 1.9512928, 2.1508136, 2.1584728, 2.1853397, 2.1879745, 2.2378838, 2.2546213, 2.2712696, 2.2999482, 2.3369026, 2.347929, 2.3494496, 2.3975449, 2.4405808, 2.4558282, 2.4812572, 2.5331209, 2.5363429, 2.5913503, 2.635844, 2.685427, 2.7243333, 2.763351, 2.804824]
